     2.11           OBSERVATION DATA    G                   RINEX VERSION / TYPE
BLANK OR G = GPS,  R = GLONASS,  E = GALILEO,  M = MIXED    COMMENT             
GNSS-SDR            joel                19-APR-25 14:55     PGM / RUN BY / DATE 
GPS OBSERVATION DATA FILE GENERATED BY GNSS-SDR             COMMENT             
GNSS-SDR VERSION 0.0.16                                     COMMENT             
See https://gnss-sdr.org                                    COMMENT             
DEFAULT MARKER NAME                                         MARKER NAME         
joel                CTTC                                    OBSERVER / AGENCY   
GNSS-SDR            Software Receiver   0.0.16              REC # / TYPE / VERS 
Antenna number      Antenna type                            ANT # / TYPE        
        0.0000        0.0000        0.0000                  APPROX POSITION XYZ 
        0.0000        0.0000        0.0000                  ANTENNA: DELTA H/E/N
     1     1                                                WAVELENGTH FACT L1/2
     4    C1    L1    D1    S1                              # / TYPES OF OBSERV 
  2002    05    18    00    00   42.2400000     GPS         TIME OF FIRST OBS   
    18                                                      LEAP SECONDS        
                                                            END OF HEADER       
 02  5 18 00 00 43.0000000  0  7G01G10G16G23G21G07G08                           
  23763590.557 7 124878516.381 7      3399.697 7        46.686                  
  21313658.664 9 112004041.667 9      -798.335 9        54.378                  
  23471245.175 8 123342236.695 8     -3662.993 8        49.406                  
  23001127.174 8 120871734.352 8     -2818.484 8        49.977                  
  21783585.538 8 114473536.344 8      1786.634 8        53.259                  
  24961618.630 7 131174201.514 7     -1906.857 7        45.633                  
  20445704.806 9 107442927.360 9       868.247 9        55.796                  
 02  5 18 00 00 44.0000000  0  7G01G10G16G23G21G07G08                           
  23762945.610 7 124875119.259 7      3394.652 7        46.770                  
  21313811.211 8 112004840.024 8      -799.527 8        53.912                  
  23471943.872 8 123345900.470 8     -3663.428 8        50.486                  
  23001664.817 8 120874553.620 8     -2818.306 8        50.207                  
  21783249.386 9 114471749.133 9      1786.417 9        54.224                  
  24961982.050 7 131176106.041 7     -1909.813 7        46.105                  
  20445541.823 9 107442059.516 9       867.787 9        56.825                  
 02  5 18 00 00 45.0000000  0  7G01G10G16G23G21G07G08                           
  23762299.020 7 124871722.311 7      3394.046 7        47.505                  
  21313963.044 9 112005639.022 9      -798.034 9        54.601                  
  23472640.764 8 123349564.442 8     -3662.074 8        50.278                  
  23002198.993 8 120877373.250 8     -2818.289 8        51.034                  
  21782906.712 8 114469962.232 8      1786.909 8        53.223                  
  24962342.665 7 131178010.923 7     -1904.901 7        46.786                  
  20445380.198 9 107441192.149 9       867.252 9        57.366                  
 02  5 18 00 00 46.0000000  0  7G01G10G16G23G21G07G08                           
  23761651.178 8 124868325.515 8      3395.470 8        48.414                  
  21314115.253 9 112006438.619 9      -799.381 9        54.143                  
  23473337.638 8 123353228.599 8     -3665.617 8        49.297                  
  23002736.529 8 120880193.292 8     -2822.643 8        50.577                  
  21782563.537 8 114468175.641 8      1786.828 8        53.634                  
  24962709.069 7 131179916.164 7     -1905.456 7        45.007                  
  20445215.695 9 107440325.259 9       866.660 9        56.300                  
 02  5 18 00 00 47.0000000  0  7G01G10G16G23G21G07G08                           
  23761005.713 7 124864928.872 7      3392.838 7        47.627                  
  21314268.462 8 112007238.812 8      -801.049 8        53.803                  
  23474035.620 8 123356892.951 8     -3665.567 8        50.478                  
  23003272.582 8 120883013.723 8     -2822.781 8        49.776                  
  21782227.278 8 114466389.352 8      1785.610 8        52.245                  
  24963068.469 7 131181821.745 7     -1907.413 7        45.938                  
  20445048.388 9 107439458.823 9       865.981 9        55.628                  
 02  5 18 00 00 48.0000000  0  7G01G10G16G23G21G07G08                           
  23760360.070 7 124861532.391 7      3396.521 7        47.341                  
  21314420.241 9 112008039.612 9      -801.058 9        56.881                  
  23474732.958 8 123360557.505 8     -3664.554 8        50.438                  
  23003811.941 8 120885834.546 8     -2822.506 8        50.775                  
  21781887.784 8 114464603.358 8      1785.162 8        52.282                  
  24963433.175 7 131183727.683 7     -1905.885 7        46.246                  
  20444880.991 9 107438592.862 9       864.954 9        57.919                  
 02  5 18 00 00 49.0000000  0  7G01G10G16G23G21G07G08                           
  23759712.085 8 124858136.070 8      3396.602 8        49.106                  
  21314573.522 9 112008841.055 9      -802.223 9        57.279                  
  23475429.671 8 123364222.251 8     -3667.135 8        50.710                  
  23004345.867 8 120888655.780 8     -2821.148 8        49.431                  
  21781545.575 8 114462817.662 8      1785.500 8        53.591                  
  24963795.095 7 131185633.983 7     -1907.313 7        46.815                  
  20444713.272 9 107437727.377 9       865.608 9        57.233                  
 02  5 18 00 00 50.0000000  0  7G01G10G16G23G21G07G08                           
  23759066.299 7 124854739.906 7      3396.991 7        47.097                  
  21314726.105 9 112009643.095 9      -801.909 9        56.271                  
  23476128.386 8 123367887.173 8     -3665.729 8        48.834                  
  23004883.850 8 120891477.407 8     -2822.131 8        49.600                  
  21781204.937 8 114461032.265 8      1787.112 8        53.307                  
  24964157.050 7 131187540.626 7     -1905.317 7        47.781                  
  20444545.267 9 107436862.361 9       864.887 9        58.653                  
 02  5 18 00 00 51.0000000  0  7G01G10G16G23G21G07G08                           
  23758421.549 7 124851343.921 7      3393.900 7        47.527                  
  21314878.993 9 112010445.732 9      -802.743 9        54.758                  
  23476824.849 8 123371552.307 8     -3665.764 8        50.497                  
  23005422.261 8 120894299.419 8     -2821.812 8        49.855                  
  21780869.375 8 114459247.167 8      1783.597 8        53.159                  
  24964522.900 7 131189447.629 7     -1906.603 7        47.334                  
  20444381.391 9 107435997.807 9       863.710 9        54.627                  
 02  5 18 00 00 52.0000000  0  7G01G10G16G23G21G07G08                           
  23757774.333 8 124847948.075 8      3397.190 8        48.305                  
  21315031.952 9 112011248.989 9      -804.182 9        54.025                  
  23477522.152 8 123375217.640 8     -3666.341 8        49.675                  
  23005957.206 8 120897121.815 8     -2822.249 8        51.387                  
  21780530.221 8 114457462.364 8      1784.978 8        51.520                  
  24964882.460 7 131191354.991 7     -1911.297 7        46.039                  
  20444219.229 9 107435133.730 9       864.519 9        56.361                  
 02  5 18 00 00 53.0000000  0  7G01G10G16G23G21G07G08                           
  23757127.170 7 124844552.402 7      3393.063 7        47.985                  
  21315184.857 9 112012052.876 9      -805.069 9        55.026                  
  23478220.813 8 123378883.143 8     -3662.369 8        49.495                  
  23006496.958 8 120899944.603 8     -2823.619 8        49.658                  
  21780186.153 8 114455677.858 8      1784.930 8        51.849                  
  24965249.365 7 131193262.699 7     -1908.641 7        46.797                  
  20444056.979 9 107434270.131 9       863.372 9        57.121                  
 02  5 18 00 00 54.0000000  0  7G01G10G16G23G21G07G08                           
  23756482.510 7 124841156.887 7      3394.708 7        46.979                  
  21315338.173 9 112012857.360 9      -805.105 9        54.014                  
  23478916.847 8 123382548.856 8     -3666.086 8        50.118                  
  23007032.225 8 120902767.776 8     -2824.017 8        50.440                  
  21779846.981 8 114453893.667 8      1784.000 8        53.866                  
  24965609.104 7 131195170.759 7     -1906.379 7        46.828                  
  20443895.210 9 107433407.008 9       863.129 9        54.942                  
 02  5 18 00 00 55.0000000  0  7G01G10G16G23G21G07G08                           
  23755836.741 8 124837761.521 8      3394.964 8        48.817                  
  21315491.221 9 112013662.441 9      -805.397 9        54.167                  
  23479614.686 8 123386214.755 8     -3667.155 8        49.606                  
  23007570.725 8 120905591.340 8     -2822.362 8        49.874                  
  21779511.615 8 114452109.796 8      1782.427 8        53.359                  
  24965973.632 7 131197079.174 7     -1908.912 7        47.057                  
  20443734.175 9 107432544.338 9       862.158 9        56.863                  
 02  5 18 00 00 56.0000000  0  7G01G10G16G23G21G07G08                           
  23755189.239 7 124834366.326 7      3392.405 7        46.774                  
  21315644.805 9 112014468.138 9      -806.162 9        54.590                  
  23480314.079 7 123389880.845 7     -3668.048 7        47.430                  
  23008107.922 8 120908415.322 8     -2824.759 8        51.900                  
  21779171.568 9 114450326.209 9      1782.480 9        54.235                  
  24966337.553 7 131198987.942 7     -1904.851 7        46.367                  
  20443571.674 9 107431682.145 9       861.568 9        56.020                  
 02  5 18 00 00 57.0000000  0  7G01G10G16G23G21G07G08                           
  23754544.650 8 124830971.292 8      3395.851 8        48.710                  
  21315798.336 9 112015274.470 9      -806.511 9        55.377                  
  23481009.506 7 123393547.124 7     -3663.728 7        47.421                  
  23008644.403 8 120911239.685 8     -2824.402 8        50.932                  
  21778828.089 8 114448542.933 8      1784.773 8        51.744                  
  24966698.364 7 131200897.067 7     -1912.634 7        45.962                  
  20443405.277 9 107430820.429 9       861.552 9        58.263                  
 02  5 18 00 00 58.0000000  0  7G01G10G16G23G21G07G08                           
  23753898.220 8 124827576.410 8      3397.143 8        48.504                  
  21315952.081 9 112016081.397 9      -806.606 9        55.502                  
  23481707.827 7 123397213.601 7     -3665.608 7        47.740                  
  23009182.904 8 120914064.446 8     -2825.130 8        50.078                  
  21778490.329 8 114446759.946 8      1783.061 8        51.992                  
  24967065.054 7 131202806.535 7     -1911.450 7        45.915                  
  20443239.113 9 107429959.189 9       861.867 9        56.997                  
 02  5 18 00 00 59.0000000  0  7G01G10G16G23G21G07G08                           
  23753251.076 8 124824181.700 8      3395.361 8        49.097                  
  21316105.969 9 112016888.921 9      -807.638 9        56.592                  
  23482406.274 8 123400880.275 8     -3666.562 8        48.523                  
  23009718.796 8 120916889.586 8     -2824.323 8        49.959                  
  21778154.999 8 114444977.266 8      1782.948 8        50.759                  
  24967425.347 7 131204716.368 7     -1910.906 7        44.694                  
  20443072.681 9 107429098.403 9       860.776 9        55.320                  
 02  5 18 00 01  0.0000000  0  7G01G10G16G23G21G07G08                           
  23752605.843 8 124820787.142 8      3397.672 8        49.838                  
  21316259.643 9 112017697.078 9      -807.974 9        57.442                  
  23483102.791 8 123404547.131 8     -3670.427 8        48.696                  
  23010258.727 8 120919715.103 8     -2826.589 8        51.590                  
  21777813.522 8 114443194.873 8      1780.442 8        52.409                  
  24967791.162 7 131206626.536 7     -1908.937 7        46.979                  
  20442905.695 9 107428238.093 9       859.874 9        57.000                  
 02  5 18 00 01  1.0000000  0  7G01G10G16G23G21G07G08                           
  23751959.914 8 124817392.741 8      3396.176 8        50.106                  
  21316414.138 9 112018505.852 9      -808.686 9        55.335                  
  23483801.166 8 123408214.187 8     -3665.101 8        49.379                  
  23010795.155 8 120922541.020 8     -2823.882 8        49.272                  
  21777470.294 8 114441412.790 8      1782.211 8        53.965                  
  24968153.278 7 131208537.075 7     -1912.297 7        47.398                  
  20442740.425 9 107427378.259 9       859.802 9        56.640                  
 02  5 18 00 01  2.0000000  0  7G01G10G16G23G21G07G08                           
  23751313.180 8 124813998.510 8      3395.813 8        49.065                  
  21316567.401 9 112019315.225 9      -810.837 9        54.344                  
  23484499.755 8 123411881.434 8     -3666.527 8        49.126                  
  23011333.263 8 120925367.329 8     -2824.888 8        50.197                  
  21777134.696 8 114439630.992 8      1782.070 8        50.745                  
  24968517.806 7 131210447.945 7     -1912.140 7        45.639                  
  20442578.603 9 107426518.904 9       858.934 9        57.189                  
 02  5 18 00 01  3.0000000  0  7G01G10G16G23G21G07G08                           
  23750667.965 8 124810604.432 8      3396.394 8        48.965                  
  21316721.039 9 112020125.192 9      -810.326 9        55.032                  
  23485196.004 8 123415548.857 8     -3666.902 8        51.018                  
  23011872.085 8 120928194.043 8     -2826.686 8        50.885                  
  21776798.651 8 114437849.515 8      1781.649 8        51.972                  
  24968882.030 7 131212359.184 7     -1910.556 7        44.743                  
  20442416.942 9 107425660.000 9       858.103 9        55.568                  
 02  5 18 00 01  4.0000000  0  7G01G10G16G23G21G07G08                           
  23750023.180 8 124807210.508 8      3390.087 8        49.268                  
  21316875.088 9 112020935.780 9      -810.881 9        54.671                  
  23485895.362 8 123419216.501 8     -3668.043 8        52.168                  
  23012407.620 8 120931021.149 8     -2826.593 8        53.063                  
  21776456.387 9 114436068.350 9      1780.687 9        54.060                  
  24969242.842 7 131214270.774 7     -1910.284 7        45.144                  
  20442255.888 9 107424801.575 9       858.148 9        56.759                  
 02  5 18 00 01  5.0000000  0  7G01G10G16G23G21G07G08                           
  23749375.856 8 124803816.766 8      3389.051 8        48.138                  
  21317028.833 9 112021746.999 9      -812.002 9        56.109                  
  23486593.469 8 123422884.316 8     -3666.010 8        49.209                  
  23012947.782 8 120933848.640 8     -2827.709 8        51.190                  
  21776115.429 8 114434287.482 8      1779.829 8        53.744                  
  24969609.996 7 131216182.713 7     -1912.788 7        45.787                  
  20442094.638 9 107423943.625 9       858.151 9        56.301                  
 02  5 18 00 01  6.0000000  0  7G01G10G16G23G21G07G08                           
  23748729.552 8 124800423.169 8      3392.092 8        48.427                  
  21317182.703 9 112022558.814 9      -812.131 9        56.325                  
  23487290.468 8 123426552.329 8     -3664.421 8        48.790                  
  23013485.015 8 120936676.498 8     -2827.005 8        48.881                  
  21775779.938 8 114432506.913 8      1779.894 8        52.030                  
  24969970.879 7 131218094.992 7     -1910.498 7        46.430                  
  20441934.710 9 107423086.154 9       857.034 9        57.027                  
 02  5 18 00 01  7.0000000  0  7G01G10G16G23G21G07G08                           
  23748085.463 8 124797029.723 8      3392.589 8        49.175                  
  21317336.662 9 112023371.226 9      -813.275 9        54.950                  
  23487989.665 8 123430220.541 8     -3668.267 8        50.151                  
  23014023.247 8 120939504.762 8     -2827.344 8        48.923                  
  21775443.053 8 114430726.640 8      1779.830 8        52.923                  
  24970337.480 7 131220007.640 7     -1914.431 7        46.143                  
  20441772.817 9 107422229.146 9       856.573 9        57.068                  
 02  5 18 00 01  8.0000000  0  7G01G10G16G23G21G07G08                           
  23747438.568 8 124793636.467 8      3393.928 8        48.888                  
  21317491.408 9 112024184.271 9      -813.297 9        57.846                  
  23488687.432 8 123433888.933 8     -3666.728 8        50.798                  
  23014562.427 8 120942333.417 8     -2828.541 8        49.932                  
  21775100.897 8 114428946.669 8      1778.967 8        52.584                  
  24970700.025 8 131221920.639 8     -1914.160 8        48.192                  
  20441607.314 9 107421372.601 9       857.244 9        58.692                  
 02  5 18 00 01  9.0000000  0  7G01G10G16G23G21G07G08                           
  23746792.514 8 124790243.352 8      3391.211 8        48.028                  
  21317645.475 9 112024997.930 9      -813.810 9        55.601                  
  23489384.413 8 123437557.528 8     -3667.221 8        48.443                  
  23015099.338 8 120945162.476 8     -2829.962 8        50.450                  
  21774760.474 8 114427166.990 8      1780.311 8        53.913                  
  24971064.445 8 131223833.982 8     -1912.736 8        48.045                  
  20441442.580 9 107420516.537 9       855.922 9        57.489                  
 02  5 18 00 01 10.0000000  0  7G01G10G16G23G21G07G08                           
  23746148.764 8 124786850.394 8      3397.268 8        49.664                  
  21317800.560 9 112025812.190 9      -814.382 9        54.983                  
  23490083.825 8 123441226.312 8     -3669.610 8        49.564                  
  23015639.447 8 120947991.930 8     -2828.595 8        50.119                  
  21774425.144 8 114425387.613 8      1779.871 8        53.373                  
  24971429.760 8 131225747.682 8     -1914.153 8        48.426                  
  20441277.541 9 107419660.949 9       855.828 9        56.888                  
 02  5 18 00 01 11.0000000  0  7G01G10G16G23G21G07G08                           
  23745502.299 7 124783457.613 7      3393.350 7        47.540                  
  21317955.342 9 112026627.045 9      -815.054 9        56.143                  
  23490781.896 8 123444895.279 8     -3669.684 8        50.916                  
  23016176.500 8 120950821.753 8     -2827.750 8        50.590                  
  21774088.474 8 114423608.533 8      1779.053 8        51.793                  
  24971791.840 8 131227661.729 8     -1913.670 8        48.148                  
  20441111.842 9 107418805.837 9       854.968 9        57.310                  
 02  5 18 00 01 12.0000000  0  7G01G10G16G23G21G07G08                           
  23744855.905 8 124780064.977 8      3389.549 8        50.000                  
  21318109.748 9 112027442.519 9      -816.639 9        57.109                  
  23491479.485 8 123448564.446 8     -3669.308 8        51.403                  
  23016715.734 8 120953651.963 8     -2829.950 8        50.666                  
  21773745.228 8 114421829.764 8      1779.353 8        53.132                  
  24972158.744 7 131229576.130 7     -1918.451 7        47.877                  
  20440946.553 9 107417951.178 9       854.478 9        57.348                  
 02  5 18 00 01 13.0000000  0  7G01G10G16G23G21G07G08                           
  23744211.298 8 124776672.505 8      3391.714 8        48.962                  
  21318266.030 9 112028258.629 9      -816.410 9        56.968                  
  23492178.503 8 123452233.792 8     -3669.396 8        50.376                  
  23017255.253 8 120956482.562 8     -2828.607 8        50.187                  
  21773406.360 8 114420051.306 8      1778.245 8        52.767                  
  24972519.055 7 131231490.871 7     -1913.300 7        46.490                  
  20440784.410 9 107417096.995 9       854.123 9        56.037                  
 02  5 18 00 01 14.0000000  0  7G01G10G16G23G21G07G08                           
  23743565.815 8 124773280.202 8      3392.186 8        48.570                  
  21318421.151 9 112029075.330 9      -816.834 9        54.917                  
  23492876.306 8 123455903.338 8     -3670.836 8        49.975                  
  23017792.396 8 120959313.566 8     -2830.581 8        50.850                  
  21773072.709 8 114418273.155 8      1778.604 8        51.988                  
  24972887.372 7 131233405.973 7     -1915.981 7        46.574                  
  20440624.053 9 107416243.288 9       854.177 9        54.649                  
 02  5 18 00 01 15.0000000  0  7G01G10G16G23G21G07G08                           
  23742918.849 8 124769888.055 8      3390.615 8        48.708                  
  21318576.290 9 112029892.630 9      -817.225 9        55.310                  
  23493573.967 8 123459573.079 8     -3669.922 8        49.046                  
  23018333.863 8 120962144.968 8     -2830.898 8        50.297                  
  21772733.484 8 114416495.292 8      1778.187 8        52.841                  
  24973249.648 7 131235321.428 7     -1916.103 7        46.906                  
  20440463.804 9 107415390.060 9       853.195 9        55.706                  
 02  5 18 00 01 16.0000000  0  7G01G10G16G23G21G07G08                           
  23742273.795 8 124766496.061 8      3395.022 8        48.235                  
  21318731.358 9 112030710.537 9      -818.503 9        55.978                  
  23494273.968 8 123463242.996 8     -3672.082 8        49.587                  
  23018869.988 8 120964976.752 8     -2831.742 8        50.732                  
  21772392.310 8 114414717.739 8      1778.254 8        52.836                  
  24973615.820 7 131237237.229 7     -1915.940 7        46.185                  
  20440303.823 9 107414537.308 9       853.054 9        56.601                  
 02  5 18 00 01 17.0000000  0  7G01G10G16G23G21G07G08                           
  23741629.724 7 124763104.249 7      3388.892 7        46.925                  
  21318887.997 9 112031529.086 9      -819.216 9        56.121                  
  23494971.199 8 123466913.115 8     -3670.899 8        50.232                  
  23019409.257 8 120967808.905 8     -2834.098 8        50.226                  
  21772053.782 9 114412940.472 9      1777.475 9        54.417                  
  24973980.724 8 131239153.390 8     -1916.865 8        48.113                  
  20440143.252 9 107413685.011 9       852.010 9        57.660                  
 02  5 18 00 01 18.0000000  0  7G01G10G16G23G21G07G08                           
  23740983.956 7 124759712.579 7      3392.969 7        47.715                  
  21319043.762 9 112032348.234 9      -820.190 9        55.370                  
  23495669.431 8 123470583.416 8     -3672.519 8        49.395                  
  23019949.169 8 120970641.452 8     -2830.605 8        49.602                  
  21771719.292 8 114411163.520 8      1775.583 8        53.194                  
  24974342.553 7 131241069.889 7     -1914.784 7        47.698                  
  20439983.771 9 107412833.189 9       850.984 9        57.426                  
 02  5 18 00 01 19.0000000  0  7G01G10G16G23G21G07G08                           
  23740337.043 7 124756321.075 7      3392.730 7        47.749                  
  21319200.973 9 112033167.975 9      -819.749 9        54.665                  
  23496368.467 8 123474253.912 8     -3669.735 8        50.750                  
  23020485.776 8 120973474.406 8     -2832.118 8        50.263                  
  21771381.442 8 114409386.842 8      1774.968 8        52.679                  
  24974711.120 8 131242986.739 8     -1916.067 8        48.140                  
  20439822.199 9 107411981.844 9       850.791 9        56.583                  
 02  5 18 00 01 20.0000000  0  7G01G10G16G23G21G07G08                           
  23739693.776 7 124752929.979 7      3390.294 7        47.309                  
  21319357.971 8 112033988.166 8      -819.473 8        53.408                  
  23497066.682 8 123477924.477 8     -3671.995 8        50.062                  
  23021027.333 8 120976307.645 8     -2831.651 8        50.787                  
  21771039.554 8 114407610.690 8      1774.648 8        50.992                  
  24975072.378 7 131244904.276 7     -1918.155 7        47.208                  
  20439658.572 9 107411131.073 9       849.546 9        56.526                  
 02  5 18 00 01 21.0000000  0  7G01G10G16G23G21G07G08                           
  23739050.116 7 124749550.053 7      3371.632 7        47.415                  
  21319513.503 9 112034802.411 9      -808.256 9        55.098                  
  23497763.573 8 123481589.839 8     -3661.065 8        50.620                  
  23021565.512 8 120979136.224 8     -2825.608 8        51.009                  
  21770703.795 8 114405843.870 8      1759.526 8        51.511                  
  24975443.786 7 131246836.702 7     -1946.254 7        46.891                  
  20439496.018 9 107410285.107 9       841.535 9        56.363                  
 02  5 18 00 01 22.0000000  0  7G01G10G16G23G21G07G08                           
  23738407.671 7 124746188.991 7      3352.541 7        47.307                  
  21319666.461 8 112035606.110 8      -798.654 8        53.739                  
  23498461.931 8 123485246.203 8     -3654.522 8        50.276                  
  23022101.743 8 120981956.677 8     -2818.280 8        51.648                  
  21770374.254 8 114404092.683 8      1742.653 8        53.868                  
  24975813.103 7 131248794.129 7     -1971.023 7        46.121                  
  20439334.249 9 107409446.933 9       834.887 9        56.131                  
 02  5 18 00 01 23.0000000  0  7G01G10G16G23G21G07G08                           
  23737774.197 8 124742846.791 8      3334.717 8        48.317                  
  21319817.455 9 112036399.222 9      -787.902 9        54.802                  
  23499154.266 8 123488893.556 8     -3640.512 8        49.423                  
  23022636.796 8 120984768.994 8     -2806.681 8        49.569                  
  21770045.286 8 114402357.147 8      1728.520 8        52.279                  
  24976193.212 7 131250776.588 7     -1994.708 7        46.189                  
  20439173.946 9 107408616.557 9       826.454 9        56.709                  
 02  5 18 00 01 24.0000000  0  7G01G10G16G23G21G07G08                           
  23737141.079 8 124739518.608 8      3326.352 8        49.295                  
  21319967.340 9 112037184.673 9      -784.892 9        56.696                  
  23499846.548 8 123492534.222 8     -3639.644 8        50.562                  
  23023171.079 8 120987575.399 8     -2807.253 8        50.766                  
  21769713.619 8 114400633.280 8      1721.445 8        53.331                  
  24976571.053 7 131252777.698 7     -2003.986 7        45.354                  
  20439016.181 9 107407792.078 9       823.626 9        54.765                  
 02  5 18 00 01 25.0000000  0  7G01G10G16G23G21G07G08                           
  23736508.677 8 124736191.514 8      3326.642 8        48.081                  
  21320116.814 9 112037970.191 9      -785.665 9        56.145                  
  23500541.402 8 123496174.440 8     -3640.701 8        49.541                  
  23023704.577 8 120990381.874 8     -2805.838 8        49.432                  
  21769382.935 8 114398910.491 8      1723.353 8        53.947                  
  24976955.058 7 131254780.453 7     -2002.331 7        47.274                  
  20438857.790 9 107406968.449 9       823.096 9        56.125                  
 02  5 18 00 01 26.0000000  0  7G01G10G16G23G21G07G08                           
  23735874.291 8 124732863.735 8      3331.648 8        49.328                  
  21320266.039 9 112038756.822 9      -788.460 9        57.605                  
  23501231.772 8 123499814.190 8     -3640.991 8        48.994                  
  23024239.129 8 120993189.633 8     -2808.678 8        51.427                  
  21769056.235 9 114397187.422 9      1724.983 9        54.335                  
  24977333.381 7 131256782.985 7     -2001.407 7        46.569                  
  20438699.703 9 107406145.202 9       823.915 9        57.195                  
 02  5 18 00 01 27.0000000  0  7G01G10G16G23G21G07G08                           
  23735238.493 7 124729522.970 7      3351.492 7        47.769                  
  21320417.443 9 112039551.857 9      -802.589 9        55.877                  
  23501925.769 7 123503456.628 7     -3644.298 7        47.651                  
  23024776.343 8 120996005.657 8     -2820.037 8        50.962                  
  21768730.018 8 114395454.340 8      1742.600 8        52.436                  
  24977714.188 8 131258770.458 8     -1972.645 8        49.105                  
  20438542.169 9 107405318.145 9       831.513 9        56.724                  
 02  5 18 00 01 28.0000000  0  7G01G10G16G23G21G07G08                           
  23734599.890 7 124726158.964 7      3377.600 7        45.669                  
  21320571.956 9 112040361.407 9      -816.550 9        54.919                  
  23502619.695 8 123507103.936 8     -3651.276 8        48.022                  
  23025312.217 8 120998835.972 8     -2837.974 8        51.965                  
  21768397.798 9 114393703.180 9      1760.529 9        55.204                  
  24978082.880 8 131260730.843 8     -1949.944 8        50.172                  
  20438384.386 9 107404483.969 9       836.899 9        56.770                  
 02  5 18 00 01 29.0000000  0  7G01G10G16G23G21G07G08                           
  23733954.550 7 124722775.957 7      3387.735 7        46.959                  
  21320728.328 9 112041182.944 9      -825.169 9        54.629                  
  23503313.763 8 123510756.417 8     -3650.320 8        49.747                  
  23025855.007 8 121001677.544 8     -2848.466 8        50.908                  
  21768058.036 8 114391937.116 8      1769.854 8        53.837                  
  24978456.378 8 131262668.420 8     -1933.580 8        48.058                  
  20438226.638 9 107403643.788 9       839.983 9        57.494                  
 02  5 18 00 01 30.0000000  0  7G01G10G16G23G21G07G08                           
  23733308.513 8 124719381.936 8      3399.278 8        48.794                  
  21320886.094 9 112042011.499 9      -832.965 9        55.538                  
  23504007.600 8 123514393.454 8     -3627.089 8        49.612                  
  23026398.993 8 121004534.573 8     -2868.975 8        50.040                  
  21767718.989 8 114390164.675 8      1775.468 8        52.517                  
  24978821.174 7 131264602.098 7     -1933.533 7        46.218                  
  20438068.086 9 107402804.552 9       838.219 9        58.196                  
 02  5 18 00 01 31.0000000  0  7G01G10G16G23G21G07G08                           
  23732661.994 8 124715977.333 8      3406.126 8        49.501                  
  21321045.039 8 112042846.732 8      -834.455 8        52.860                  
  23504694.878 8 123518011.418 8     -3615.926 8        51.226                  
  23026944.016 8 121007408.534 8     -2877.574 8        49.632                  
  21767384.427 8 114388386.686 8      1778.056 8        52.170                  
  24979191.188 7 131266534.157 7     -1929.365 7        45.591                  
  20437910.410 9 107401967.238 9       835.721 9        55.914                  
 02  5 18 00 01 32.0000000  0  7G01G10G16G23G21G07G08                           
  23732014.010 8 124712577.502 8      3395.215 8        48.904                  
  21321204.091 8 112043679.875 8      -832.880 8        52.237                  
  23505383.461 8 123521628.060 8     -3618.994 8        50.200                  
  23027492.738 8 121010280.450 8     -2870.627 8        50.792                  
  21767048.597 9 114386612.684 9      1770.191 9        54.266                  
  24979557.824 7 131268472.208 7     -1943.539 7        44.922                  
  20437752.984 9 107401131.998 9       834.523 9        55.335                  
 02  5 18 00 01 33.0000000  0  7G01G10G16G23G21G07G08                           
  23731369.027 8 124709186.108 8      3383.931 8        50.174                  
  21321361.999 8 112044508.842 8      -826.424 8        52.905                  
  23506071.579 8 123525251.102 8     -3625.277 8        49.795                  
  23028036.779 8 121013144.128 8     -2859.091 8        48.656                  
  21766708.281 8 114384844.538 8      1766.103 8        52.401                  
  24979931.180 7 131270416.397 7     -1949.828 7        46.962                  
  20437595.647 9 107400298.083 9       833.053 9        56.574                  
 02  5 18 00 01 34.0000000  0  7G01G10G16G23G21G07G08                           
  23730725.671 8 124705803.373 8      3378.192 8        49.133                  
  21321518.389 8 112045333.470 8      -821.742 8        52.356                  
  23506762.199 8 123528879.311 8     -3627.389 8        49.304                  
  23028579.139 8 121015999.979 8     -2850.077 8        51.119                  
  21766371.200 8 114383082.564 8      1759.330 8        52.744                  
  24980299.246 7 131272367.600 7     -1951.122 7        46.946                  
  20437439.400 9 107399465.833 9       831.647 9        56.222                  
 02  5 18 00 01 35.0000000  0  7G01G10G16G23G21G07G08                           
  23730080.975 8 124702427.679 8      3370.792 8        48.025                  
  21321673.760 9 112046154.812 9      -817.383 9        54.908                  
  23507456.536 8 123532517.645 8     -3641.465 8        48.700                  
  23029123.019 8 121018846.779 8     -2844.015 8        52.260                  
  21766039.837 8 114381324.945 8      1753.811 8        52.672                  
  24980672.941 8 131274321.637 8     -1959.785 8        48.104                  
  20437282.600 9 107398633.672 9       830.423 9        57.641                  
 02  5 18 00 01 36.0000000  0  7G01G10G16G23G21G07G08                           
  23729440.781 8 124699061.490 8      3362.980 8        48.321                  
  21321828.041 9 112046971.278 9      -815.976 9        54.129                  
  23508150.032 8 123536159.399 8     -3646.776 8        49.713                  
  23029662.145 8 121021685.985 8     -2834.948 8        51.754                  
  21765709.492 8 114379574.365 8      1747.286 8        50.629                  
  24981044.509 7 131276284.454 7     -1966.573 7        47.118                  
  20437124.548 9 107397803.830 9       829.197 9        54.217                  
 02  5 18 00 01 37.0000000  0  7G01G10G16G23G21G07G08                           
  23728805.627 7 124695703.054 7      3355.641 7        47.438                  
  21321983.055 9 112047783.963 9      -810.107 9        55.302                  
  23508840.956 8 123539807.016 8     -3649.668 8        49.128                  
  23030201.343 8 121024517.684 8     -2826.053 8        50.910                  
  21765375.574 8 114377829.186 8      1742.751 8        52.272                  
  24981420.706 7 131278252.905 7     -1970.692 7        46.353                  
  20436965.460 9 107396975.242 9       828.611 9        54.475                  
 02  5 18 00 01 38.0000000  0  7G01G10G16G23G21G07G08                           
  23728165.433 8 124692351.074 8      3348.136 8        48.509                  
  21322136.443 9 112048593.620 9      -808.570 9        56.129                  
  23509537.240 8 123543460.892 8     -3657.031 8        49.399                  
  23030738.611 8 121027342.559 8     -2822.303 8        50.466                  
  21765040.351 8 114376088.353 8      1738.712 8        53.586                  
  24981794.812 7 131280225.447 7     -1973.493 7        47.343                  
  20436806.640 9 107396147.452 9       827.463 9        55.842                  
 02  5 18 00 01 39.0000000  0  7G01G10G16G23G21G07G08                           
  23727529.546 8 124689004.352 8      3343.326 8        48.549                  
  21322289.902 9 112049400.979 9      -806.789 9        55.987                  
  23510232.846 8 123547122.066 8     -3662.612 8        49.815                  
  23031273.466 8 121030160.947 8     -2815.422 8        49.929                  
  21764711.347 8 114374350.866 8      1735.272 8        53.533                  
  24982172.134 7 131282200.315 7     -1973.773 7        47.870                  
  20436647.999 9 107395319.935 9       827.811 9        55.727                  
 02  5 18 00 01 40.0000000  0  7G01G10G16G23G21G07G08                           
  23726891.694 7 124685660.888 7      3342.922 7        47.338                  
  21322443.897 9 112050207.196 9      -806.219 9        56.354                  
  23510933.419 8 123550789.418 8     -3672.058 8        51.895                  
  23031811.091 8 121032974.727 8     -2812.781 8        51.332                  
  21764383.539 8 114372615.304 8      1735.872 8        53.351                  
  24982546.615 8 131284175.889 8     -1971.344 8        48.925                  
  20436489.429 9 107394492.338 9       828.478 9        56.566                  
 02  5 18 00 01 41.0000000  0  7G01G10G16G23G21G07G08                           
  23726255.181 8 124682317.476 8      3338.080 8        48.594                  
  21322595.248 9 112051014.186 9      -804.589 9        58.015                  
  23511632.455 8 123554465.000 8     -3677.816 8        50.605                  
  23032344.321 8 121035785.151 8     -2803.237 8        49.511                  
  21764053.999 8 114370878.994 8      1730.455 8        52.706                  
  24982922.633 7 131286147.723 7     -1976.729 7        47.745                  
  20436329.895 9 107393663.335 9       827.518 9        55.619                  
 02  5 18 00 01 42.0000000  0  7G01G10G16G23G21G07G08                           
  23725622.171 7 124678981.440 7      3330.229 7        47.179                  
  21322749.136 9 112051817.614 9      -802.584 9        56.853                  
  23512334.547 8 123558148.939 8     -3687.530 8        51.041                  
  23032879.802 8 121038587.131 8     -2799.674 8        51.537                  
  21763722.904 8 114369147.520 8      1731.623 8        53.488                  
  24983296.024 7 131288123.650 7     -1972.599 7        45.437                  
  20436170.485 9 107392834.923 9       829.072 9        56.158                  
 02  5 18 00 01 43.0000000  0  7G01G10G16G23G21G07G08                           
  23724987.320 8 124675647.312 8      3329.046 8        48.070                  
  21322901.594 8 112052620.688 8      -800.837 8        52.480                  
  23513035.691 8 123561840.697 8     -3697.283 8        51.498                  
  23033410.190 8 121041384.638 8     -2793.875 8        50.646                  
  21763389.021 8 114367416.758 8      1727.804 8        53.058                  
  24983675.562 7 131290098.048 7     -1974.694 7        45.853                  
  20436011.362 9 107392005.741 9       829.083 9        54.857                  
 02  5 18 00 01 44.0000000  0  7G01G10G16G23G21G07G08                           
  23724352.970 8 124672318.263 8      3331.384 8        49.060                  
  21323054.267 8 112053421.551 8      -802.006 8        53.696                  
  23513740.624 8 123565541.474 8     -3704.684 8        49.979                  
  23033941.919 8 121044174.953 8     -2787.523 8        48.573                  
  21763061.285 8 114365688.970 8      1729.041 8        52.828                  
  24984052.277 7 131292073.755 7     -1974.351 7        47.524                  
  20435851.184 9 107391176.352 9       829.488 9        56.918                  
 02  5 18 00 01 45.0000000  0  7G01G10G16G23G21G07G08                           
  23723719.585 8 124668988.122 8      3332.402 8        48.904                  
  21323206.619 8 112054223.808 8      -803.012 8        53.038                  
  23514444.324 8 123569247.291 8     -3705.856 8        51.229                  
  23034472.807 8 121046964.187 8     -2791.037 8        48.820                  
  21762736.712 8 114363959.972 8      1729.588 8        53.643                  
  24984426.365 7 131294046.071 7     -1974.025 7        46.215                  
  20435693.096 9 107390345.989 9       829.973 9        55.651                  
 02  5 18 00 01 46.0000000  0  7G01G10G16G23G21G07G08                           
  23723084.788 8 124665651.875 8      3341.480 8        48.514                  
  21323359.792 9 112055030.347 9      -812.233 9        54.604                  
  23515149.061 8 123572951.645 8     -3696.050 8        49.769                  
  23035004.643 8 121049758.925 8     -2804.328 8        51.091                  
  21762408.744 8 114362226.683 8      1738.943 8        51.759                  
  24984798.469 7 131296012.792 7     -1961.186 7        47.748                  
  20435536.242 9 107389514.741 9       831.944 9        54.525                  
 02  5 18 00 01 47.0000000  0  7G01G10G16G23G21G07G08                           
  23722446.917 7 124662296.030 7      3361.094 7        47.275                  
  21323516.450 9 112055848.973 9      -822.436 9        55.061                  
  23515852.064 8 123576639.005 8     -3682.797 8        49.764                  
  23035541.661 8 121052575.833 8     -2826.305 8        51.578                  
  21762073.307 8 114360480.693 8      1750.695 8        51.637                  
  24985172.933 7 131297967.111 7     -1953.402 7        46.090                  
  20435379.281 9 107388682.424 9       831.656 9        55.231                  
 02  5 18 00 01 48.0000000  0  7G01G10G16G23G21G07G08                           
  23721809.082 8 124658940.300 8      3347.202 8        48.982                  
  21323671.731 9 112056668.138 9      -813.862 9        54.873                  
  23516550.635 8 123580315.522 8     -3668.791 8        48.528                  
  23036076.141 8 121055398.402 8     -2819.023 8        49.443                  
  21761739.335 8 114358736.265 8      1736.565 8        53.660                  
  24985544.036 7 131299927.155 7     -1974.499 7        44.887                  
  20435222.105 8 107387853.075 8       826.153 8        53.878                  
 02  5 18 00 01 49.0000000  0  7G01G10G16G23G21G07G08                           
  23721171.748 7 124655602.084 7      3328.281 7        47.490                  
  21323825.566 9 112057477.535 9      -803.891 9        56.374                  
  23517248.188 8 123583979.510 8     -3655.892 8        49.268                  
  23036614.803 8 121058215.467 8     -2814.868 8        50.568                  
  21761410.205 8 114357006.847 8      1721.277 8        52.337                  
  24985923.878 7 131301912.477 7     -1994.217 7        46.272                  
  20435066.966 9 107387031.867 9       817.881 9        55.284                  
 02  5 18 00 01 50.0000000  0  7G01G10G16G23G21G07G08                           
  23720540.042 7 124652279.158 7      3322.832 7        47.082                  
  21323977.989 9 112058278.461 9      -799.606 9        56.482                  
  23517944.062 8 123587631.569 8     -3648.254 8        49.029                  
  23037146.978 8 121061028.236 8     -2811.149 8        51.630                  
  21761087.509 8 114355290.679 8      1712.595 8        52.814                  
  24986303.041 7 131303920.354 7     -2012.125 7        44.744                  
  20434912.899 9 107386218.009 9       812.855 9        56.882                  
 02  5 18 00 01 51.0000000  0  7G01G10G16G23G21G07G08                           
  23719908.980 7 124648959.128 7      3315.999 7        47.903                  
  21324129.857 9 112059078.366 9      -799.489 9        54.365                  
  23518637.076 8 123591280.284 8     -3647.256 8        49.705                  
  23037685.854 8 121063841.267 8     -2813.169 8        50.334                  
  21760762.578 8 114353577.268 8      1715.562 8        50.510                  
  24986687.815 7 131305933.240 7     -2014.098 7        45.079                  
  20434759.780 9 107385406.180 9       811.436 9        54.239                  
 02  5 18 00 01 52.0000000  0  7G01G10G16G23G21G07G08                           
  23719277.238 7 124645638.624 7      3322.631 7        47.503                  
  21324282.209 8 112059879.266 8      -802.845 8        53.448                  
  23519332.092 8 123594928.339 8     -3647.873 8        49.101                  
  23038219.406 8 121066655.486 8     -2815.005 8        50.810                  
  21760434.896 8 114351863.779 8      1714.355 8        52.731                  
  24987069.050 7 131307946.206 7     -2012.004 7        45.626                  
  20434605.963 9 107384594.821 9       811.004 9        54.365                  
 02  5 18 00 01 53.0000000  0  7G01G10G16G23G21G07G08                           
  23718641.726 7 124642308.694 7      3340.833 7        47.882                  
  21324436.079 9 112060686.436 9      -813.144 9        54.650                  
  23520027.518 8 123598578.001 8     -3653.452 8        49.942                  
  23038756.977 8 121069476.025 8     -2826.411 8        51.463                  
  21760103.873 9 114350143.116 9      1729.736 9        55.255                  
  24987453.627 7 131309948.498 7     -1985.273 7        46.914                  
  20434451.771 9 107383780.951 9       816.523 9        56.547                  
 02  5 18 00 01 54.0000000  0  7G01G10G16G23G21G07G08                           
  23718002.945 7 124638956.035 7      3363.314 7        47.819                  
  21324593.398 9 112061507.813 9      -829.135 9        55.916                  
  23520721.176 8 123602231.781 8     -3655.696 8        52.674                  
  23039297.104 8 121072310.867 8     -2841.793 8        50.902                  
  21759772.563 8 114348404.900 8      1747.167 8        53.813                  
  24987825.964 7 131311924.595 7     -1961.040 7        45.708                  
  20434296.096 9 107382960.326 9       824.539 9        56.910                  
 02  5 18 00 01 55.0000000  0  7G01G10G16G23G21G07G08                           
  23717363.144 8 124635579.819 8      3382.857 8        48.054                  
  21324753.754 9 112062343.845 9      -842.239 9        56.359                  
  23521418.050 8 123605890.957 8     -3662.184 8        51.046                  
  23039836.552 8 121075159.923 8     -2854.415 8        50.549                  
  21759441.790 8 114346648.321 8      1762.030 8        52.949                  
  24988200.213 7 131313872.944 7     -1935.708 7        46.639                  
  20434140.654 9 107382132.444 9       830.183 9        56.613                  
 02  5 18 00 01 56.0000000  0  7G01G10G16G23G21G07G08                           
  23716717.679 8 124632189.108 8      3398.872 8        48.236                  
  21324915.487 9 112063189.127 9      -851.593 9        56.504                  
  23522114.567 8 123609547.381 8     -3646.602 8        49.207                  
  23040383.541 8 121078020.882 8     -2872.797 8        50.262                  
  21759107.639 8 114344881.276 8      1772.743 8        51.182                  
  24988565.081 7 131315807.305 7     -1927.793 7        46.952                  
  20433984.353 9 107381301.663 9       830.008 9        55.878                  
 02  5 18 00 01 57.0000000  0  7G01G10G16G23G21G07G08                           
  23716066.800 8 124628776.778 8      3424.719 8        49.001                  
  21325079.328 9 112064047.708 9      -865.241 9        55.734                  
  23522805.472 8 123613184.329 8     -3628.962 8        49.443                  
  23040931.887 8 121080906.592 8     -2897.721 8        51.587                  
  21758764.929 8 114343100.337 8      1790.407 8        52.291                  
  24988934.005 7 131317728.247 7     -1913.811 7        47.658                  
  20433825.927 9 107380469.820 9       832.928 9        56.289                  
 02  5 18 00 01 58.0000000  0  7G01G10G16G23G21G07G08                           
  23715414.259 7 124625341.171 7      3443.782 7        47.870                  
  21325245.724 9 112064920.652 9      -879.779 9        54.575                  
  23523494.234 8 123616803.821 8     -3612.338 8        48.817                  
  23041484.362 8 121083817.263 8     -2921.415 8        49.649                  
  21758421.290 8 114341303.976 8      1804.527 8        53.057                  
  24989293.065 7 131319632.929 7     -1898.847 7        47.054                  
  20433665.713 9 107379635.974 9       835.271 9        57.358                  
 02  5 18 00 01 59.0000000  0  7G01G10G16G23G21G07G08                           
  23714757.233 8 124621889.699 8      3448.953 8        48.055                  
  21325414.461 9 112065803.640 9      -884.675 9        56.788                  
  23524181.727 8 123620417.516 8     -3614.835 8        49.269                  
  23042042.340 8 121086742.245 8     -2925.716 8        49.524                  
  21758082.100 8 114339496.448 8      1808.278 8        53.470                  
  24989649.748 7 131321523.627 7     -1882.598 7        45.178                  
  20433505.106 9 107378799.545 9       836.296 9        57.546                  
 02  5 18 00 02  0.0000000  0  7G01G10G16G23G21G07G08                           
  23714099.725 7 124618437.928 7      3444.701 7        47.748                  
  21325579.607 9 112066687.559 9      -879.580 9        54.136                  
  23524871.453 8 123624038.613 8     -3631.292 8        49.582                  
  23042598.978 8 121089664.484 8     -2913.642 8        50.932                  
  21757737.371 9 114337688.050 9      1804.565 9        54.541                  
  24990014.294 8 131323410.621 8     -1888.842 8        48.765                  
  20433343.999 9 107377961.826 9       837.406 9        57.131                  
 02  5 18 00 02  1.0000000  0  7G01G10G16G23G21G07G08                           
  23713445.951 8 124614997.096 8      3442.488 8        48.216                  
  21325746.361 8 112067565.895 8      -880.557 8        51.364                  
  23525562.895 8 123627675.655 8     -3640.420 8        50.593                  
  23043149.630 8 121092572.177 8     -2908.121 8        49.068                  
  21757389.943 8 114335886.259 8      1804.615 8        53.337                  
  24990371.317 7 131325301.808 7     -1884.933 7        47.406                  
  20433182.534 9 107377123.996 9       839.462 9        54.189                  
 02  5 18 00 02  2.0000000  0  7G01G10G16G23G21G07G08                           
  23712787.334 8 124611541.269 8      3465.733 8        48.865                  
  21325914.615 9 112068453.785 9      -893.608 9        54.797                  
  23526254.408 8 123631310.538 8     -3632.842 8        49.804                  
  23043706.518 8 121095491.862 8     -2928.761 8        48.095                  
  21757048.109 9 114334073.555 9      1817.697 9        55.039                  
  24990732.450 7 131327178.145 7     -1865.264 7        46.988                  
  20433020.873 9 107376282.986 9       843.105 9        56.968                  
 02  5 18 00 02  3.0000000  0  7G01G10G16G23G21G07G08                           
  23712128.896 8 124608075.412 8      3466.792 8        49.510                  
  21326084.603 9 112069348.355 9      -896.709 9        55.509                  
  23526948.173 8 123634947.829 8     -3640.252 8        50.353                  
  23044264.317 8 121098417.898 8     -2927.888 8        49.283                  
  21756704.166 8 114332253.146 8      1822.169 8        53.006                  
  24991084.398 7 131329042.785 7     -1860.911 7        47.203                  
  20432857.443 9 107375439.176 9       845.125 9        57.765                  
 02  5 18 00 02  4.0000000  0  7G01G10G16G23G21G07G08                           
  23711467.778 7 124604607.748 7      3468.614 7        47.557                  
  21326257.450 8 112070244.749 8      -897.887 8        53.724                  
  23527640.526 8 123638593.788 8     -3649.878 8        50.644                  
  23044819.990 8 121101341.598 8     -2924.518 8        48.861                  
  21756352.504 8 114330430.558 8      1821.016 8        51.523                  
  24991436.829 7 131330901.461 7     -1858.138 7        46.078                  
  20432695.872 9 107374593.399 9       847.781 9        57.088                  
 02  5 18 00 02  5.0000000  0  7G01G10G16G23G21G07G08                           
  23710807.804 7 124601139.582 7      3465.941 7        47.627                  
  21326429.529 9 112071142.263 9      -897.755 9        55.133                  
  23528336.632 8 123642250.043 8     -3662.011 8        50.267                  
  23045374.627 8 121104261.333 8     -2919.713 8        49.518                  
  21756006.130 8 114328606.596 8      1823.857 8        52.383                  
  24991792.530 7 131332754.816 7     -1853.106 7        44.707                  
  20432536.033 9 107373745.665 9       848.617 9        57.070                  
 02  5 18 00 02  6.0000000  0  7G01G10G16G23G21G07G08                           
  23710150.367 8 124597671.851 8      3466.888 8        48.394                  
  21326601.197 9 112072040.254 9      -898.159 9        55.234                  
  23529034.614 8 123645912.472 8     -3664.147 8        50.799                  
  23045930.872 8 121107178.411 8     -2916.227 8        50.447                  
  21755663.957 8 114326782.433 8      1823.002 8        53.683                  
  24992141.441 7 131334605.886 7     -1846.828 7        44.450                  
  20432376.141 9 107372897.133 9       847.990 9        55.865                  
 02  5 18 00 02  7.0000000  0  7G01G10G16G23G21G07G08                           
  23709487.605 8 124594204.819 8      3465.295 8        49.000                  
  21326770.524 9 112072938.594 9      -898.886 9        55.833                  
  23529731.452 8 123649579.246 8     -3669.034 8        50.172                  
  23046484.418 8 121110093.544 8     -2915.621 8        48.898                  
  21755312.473 9 114324958.494 9      1823.055 9        55.375                  
  24992499.053 7 131336455.835 7     -1851.944 7        44.457                  
  20432216.660 9 107372048.316 9       849.638 9        57.418                  
 02  5 18 00 02  8.0000000  0  7G01G10G16G23G21G07G08                           
  23708829.542 8 124590739.342 8      3467.080 8        48.005                  
  21326939.583 9 112073836.751 9      -897.195 9        54.735                  
  23530430.256 8 123653252.930 8     -3676.919 8        50.219                  
  23047040.395 8 121113004.890 8     -2908.578 8        50.419                  
  21754964.992 9 114323135.105 9      1823.848 9        54.347                  
  24992849.054 7 131338304.320 7     -1848.848 7        44.617                  
  20432056.447 9 107371198.843 9       849.535 9        55.018                  
 02  5 18 00 02  9.0000000  0  7G01G10G16G23G21G07G08                           
  23708170.640 7 124587276.255 7      3460.241 7        47.617                  
  21327109.660 9 112074734.263 9      -896.202 9        54.727                  
  23531131.830 8 123656934.469 8     -3686.853 8        49.004                  
  23047592.441 8 121115911.444 8     -2904.373 8        49.733                  
  21754622.228 8 114321312.812 8      1822.026 8        53.760                  
  24993197.625 7 131340151.842 7     -1851.481 7        44.887                  
  20431897.716 9 107370348.774 9       850.698 9        57.224                  
 02  5 18 00 02 10.0000000  0  7G01G10G16G23G21G07G08                           
  23707512.702 8 124583816.266 8      3458.971 8        48.763                  
  21327280.291 9 112075630.697 9      -895.272 9        55.983                  
  23531832.778 8 123660623.734 8     -3691.789 8        48.877                  
  23048145.916 8 121118812.725 8     -2900.276 8        48.649                  
  21754273.657 9 114319492.178 9      1819.655 9        54.164                  
  24993551.181 7 131341999.181 7     -1844.305 7        46.017                  
  20431737.735 9 107369498.311 9       850.161 9        57.421                  
 02  5 18 00 02 11.0000000  0  7G01G10G16G23G21G07G08                           
  23706854.658 8 124580358.955 8      3455.750 8        49.116                  
  21327454.496 9 112076526.266 9      -895.463 9        54.564                  
  23532535.799 8 123664318.510 8     -3699.746 8        48.059                  
  23048690.921 8 121121710.105 8     -2893.339 8        49.379                  
  21753923.746 9 114317673.136 9      1819.243 9        54.022                  
  24993904.130 7 131343847.000 7     -1846.341 7        46.253                  
  20431576.217 9 107368647.860 9       851.200 9        55.682                  
 02  5 18 00 02 12.0000000  0  7G01G10G16G23G21G07G08                           
  23706195.863 8 124576904.990 8      3447.595 8        48.067                  
  21327623.609 9 112077420.598 9      -892.899 9        54.751                  
  23533242.036 8 123668019.208 8     -3705.020 8        48.777                  
  23049247.166 8 121124602.915 8     -2891.133 8        50.776                  
  21753582.287 8 114315856.153 8      1814.995 8        53.234                  
  24994251.951 7 131345695.770 7     -1848.119 7        45.401                  
  20431412.912 9 107367797.467 9       849.422 9        55.501                  
 02  5 18 00 02 13.0000000  0  7G01G10G16G23G21G07G08                           
  23705541.302 7 124573458.033 7      3442.734 7        47.454                  
  21327794.097 8 112078311.530 8      -886.758 8        53.950                  
  23533946.755 8 123671727.934 8     -3711.329 8        49.422                  
  23049797.621 8 121127487.651 8     -2881.314 8        49.778                  
  21753237.182 8 114314043.727 8      1807.450 8        52.726                  
  24994605.990 7 131347548.455 7     -1861.127 7        46.021                  
  20431248.534 9 107366947.686 9       848.636 9        54.576                  
 02  5 18 00 02 14.0000000  0  7G01G10G16G23G21G07G08                           
  23704889.155 8 124570028.185 8      3425.449 8        48.728                  
  21327961.798 9 112079193.050 9      -877.989 9        55.440                  
  23534651.527 8 123675436.739 8     -3708.091 8        48.577                  
  23050340.714 8 121130361.158 8     -2867.888 8        50.412                  
  21752891.524 8 114312244.493 8      1795.402 8        52.390                  
  24994964.853 7 131349419.763 7     -1873.293 7        46.387                  
  20431085.462 9 107366103.087 9       842.901 9        56.052                  
 02  5 18 00 02 15.0000000  0  7G01G10G16G23G21G07G08                           
  23704235.559 8 124566606.458 8      3418.147 8        48.975                  
  21328126.568 9 112080070.464 9      -877.163 9        54.765                  
  23535358.658 8 123679149.753 8     -3715.100 8        49.985                  
  23050887.721 8 121133227.641 8     -2863.745 8        49.139                  
  21752552.674 8 114310451.104 8      1792.523 8        51.257                  
  24995318.428 7 131351298.024 7     -1879.048 7        46.995                  
  20430922.818 9 107365260.231 9       842.812 9        55.956                  
 02  5 18 00 02 16.0000000  0  7G01G10G16G23G21G07G08                           
  23703586.503 7 124563187.774 7      3417.729 7        45.910                  
  21328291.517 9 112080946.799 9      -876.893 9        54.163                  
  23536066.593 8 123682865.768 8     -3718.542 8        50.469                  
  23051430.278 8 121136091.140 8     -2863.784 8        50.297                  
  21752215.146 8 114308659.877 8      1790.699 8        51.711                  
  24995678.828 7 131353178.409 7     -1877.962 7        45.817                  
  20430760.138 9 107364418.040 9       841.517 9        56.848                  
 02  5 18 00 02 17.0000000  0  7G01G10G16G23G21G07G08                           
  23702936.875 7 124559773.247 7      3409.379 7        47.338                  
  21328458.789 9 112081821.409 9      -872.717 9        56.956                  
  23536773.116 8 123686584.620 8     -3718.873 8        49.632                  
  23051975.712 8 121138951.035 8     -2858.569 8        51.839                  
  21751870.327 8 114306871.675 8      1784.424 8        52.314                  
  24996034.207 7 131355062.131 7     -1890.947 7        46.613                  
  20430599.085 9 107363576.818 9       840.108 9        56.052                  
 02  5 18 00 02 18.0000000  0  7G01G10G16G23G21G07G08                           
  23702288.211 7 124556364.796 7      3410.012 7        47.090                  
  21328622.898 9 112082693.133 9      -872.440 9        57.444                  
  23537482.159 8 123690310.754 8     -3735.092 8        49.774                  
  23052521.521 8 121141803.808 8     -2849.738 8        51.420                  
  21751529.529 8 114305087.411 8      1785.731 8        52.224                  
  24996395.358 7 131356949.134 7     -1885.063 7        47.665                  
  20430440.461 9 107362736.124 9       843.380 9        56.432                  
 02  5 18 00 02 19.0000000  0  7G01G10G16G23G21G07G08                           
  23701639.834 7 124552956.878 7      3406.034 7        47.525                  
  21328790.831 9 112083565.285 9      -870.172 9        56.812                  
  23538195.705 8 123694054.600 8     -3749.905 8        50.159                  
  23053060.826 8 121144648.279 8     -2839.118 8        51.038                  
  21751193.341 8 114303301.663 8      1783.469 8        52.764                  
  24996754.186 8 131358828.394 8     -1880.564 8        48.393                  
  20430281.427 9 107361892.127 9       843.961 9        58.632                  
 02  5 18 00 02 20.0000000  0  7G01G10G16G23G21G07G08                           
  23700993.064 8 124549557.376 8      3397.726 8        48.113                  
  21328957.799 9 112084433.192 9      -867.139 9        54.658                  
  23538908.857 8 123697804.861 8     -3750.218 8        50.339                  
  23053600.614 8 121147484.453 8     -2836.276 8        48.681                  
  21750856.385 8 114301521.709 8      1777.070 8        53.869                  
  24997108.207 8 131360713.879 8     -1885.560 8        48.848                  
  20430122.500 9 107361049.495 9       842.079 9        57.176                  
 02  5 18 00 02 21.0000000  0  7G01G10G16G23G21G07G08                           
  23700346.063 8 124546163.285 8      3392.222 8        48.516                  
  21329123.356 9 112085298.578 9      -864.750 9        54.618                  
  23539622.689 8 123701557.652 8     -3752.833 8        50.101                  
  23054140.759 8 121150316.282 8     -2829.121 8        51.203                  
  21750514.122 8 114299745.779 8      1773.559 8        53.700                  
  24997469.876 7 131362604.249 7     -1894.450 7        47.144                  
  20429964.449 9 107360208.259 9       840.723 9        55.044                  
 02  5 18 00 02 22.0000000  0  7G01G10G16G23G21G07G08                           
  23699701.616 8 124542775.226 8      3383.658 8        48.769                  
  21329287.590 9 112086161.092 9      -859.965 9        54.761                  
  23540336.824 8 123705312.890 8     -3757.134 8        49.641                  
  23054676.740 8 121153143.351 8     -2823.318 8        51.744                  
  21750175.986 8 114297974.331 8      1767.964 8        52.396                  
  24997831.366 7 131364500.220 7     -1899.538 7        46.754                  
  20429805.843 9 107359368.646 9       838.180 9        57.267                  
 02  5 18 00 02 23.0000000  0  7G01G10G16G23G21G07G08                           
  23699059.672 8 124539395.525 8      3372.824 8        48.006                  
  21329451.127 8 112087019.343 8      -856.876 8        53.059                  
  23541052.479 8 123709070.867 8     -3759.050 8        50.268                  
  23055215.026 8 121155963.924 8     -2819.169 8        51.909                  
  21749844.248 8 114296209.088 8      1764.027 8        53.875                  
  24998196.502 7 131366404.155 7     -1910.358 7        47.581                  
  20429648.685 9 107358531.199 9       836.320 9        56.119                  
 02  5 18 00 02 24.0000000  0  7G01G10G16G23G21G07G08                           
  23698416.423 7 124536020.459 7      3371.435 7        47.254                  
  21329613.592 8 112087875.514 8      -854.761 8        52.758                  
  23541768.776 8 123712830.104 8     -3756.387 8        48.585                  
  23055750.007 8 121158781.247 8     -2815.681 8        49.733                  
  21749509.990 8 114294447.426 8      1759.832 8        53.417                  
  24998559.976 7 131368312.771 7     -1909.767 7        47.741                  
  20429491.223 9 107357695.220 9       835.551 9        55.132                  
 02  5 18 00 02 25.0000000  0  7G01G10G16G23G21G07G08                           
  23697774.550 8 124532651.686 8      3365.103 8        48.641                  
  21329774.646 9 112088728.670 9      -851.112 9        55.513                  
  23542483.662 8 123716590.645 8     -3762.757 8        48.834                  
  23056285.434 7 121161594.194 7     -2808.053 7        47.815                  
  21749172.123 8 114292690.591 8      1754.688 8        53.309                  
  24998920.894 7 131370227.810 7     -1922.212 7        45.524                  
  20429333.529 9 107356861.163 9       832.089 9        56.568                  
 02  5 18 00 02 26.0000000  0  7G01G10G16G23G21G07G08                           
  23697136.268 7 124529292.405 7      3354.175 7        46.239                  
  21329934.860 8 112089576.857 8      -845.910 8        53.404                  
  23543198.531 8 123720352.282 8     -3761.005 8        50.126                  
  23056820.683 8 121164400.606 8     -2805.851 8        49.881                  
  21748837.275 8 114290940.981 8      1746.000 8        53.429                  
  24999290.408 7 131372152.824 7     -1929.058 7        45.298                  
  20429174.638 8 107356029.926 8       829.381 8        53.959                  
 02  5 18 00 02 27.0000000  0  7G01G10G16G23G21G07G08                           
  23696499.380 8 124525941.814 8      3347.018 8        48.186                  
  21330094.966 8 112090420.607 8      -842.484 8        53.920                  
  23543915.150 8 123724113.991 8     -3761.875 8        50.387                  
  23057351.983 8 121167201.595 8     -2797.710 8        48.993                  
  21748507.699 8 114289198.166 8      1739.605 8        53.111                  
  24999655.257 7 131374087.463 7     -1936.712 7        45.204                  
  20429015.389 9 107355201.543 9       825.624 9        55.839                  
 02  5 18 00 02 28.0000000  0  7G01G10G16G23G21G07G08                           
  23695861.188 8 124522595.209 8      3351.609 8        48.056                  
  21330254.840 8 112091262.636 8      -843.237 8        53.594                  
  23544629.500 8 123727863.913 8     -3738.574 8        50.137                  
  23057887.249 8 121170006.044 8     -2813.791 8        49.956                  
  21748180.124 9 114287459.956 9      1739.269 9        54.254                  
  25000028.255 7 131376032.345 7     -1947.010 7        47.548                  
  20428857.355 9 107354377.304 9       822.186 9        56.532                  
 02  5 18 00 02 29.0000000  0  7G01G10G16G23G21G07G08                           
  23695222.353 8 124519240.347 8      3361.230 8        48.190                  
  21330416.180 8 112092110.156 8      -852.003 8        53.875                  
  23545338.096 8 123731590.729 8     -3716.153 8        50.566                  
  23058422.820 8 121172827.847 8     -2828.006 8        50.153                  
  21747848.046 8 114285718.427 8      1743.830 8        53.024                  
  25000396.608 7 131377979.803 7     -1943.448 7        47.537                  
  20428700.179 9 107353556.416 9       819.882 9        55.631                  
 02  5 18 00 02 30.0000000  0  7G01G10G16G23G21G07G08                           
  23694583.106 7 124515873.080 7      3373.711 7        47.939                  
  21330579.127 9 112092965.672 9      -859.604 9        54.635                  
  23546042.064 8 123735295.136 8     -3693.422 8        48.853                  
  23058964.537 8 121175669.529 8     -2850.553 8        50.624                  
  21747511.322 8 114283970.355 8      1751.036 8        52.438                  
  25000769.159 8 131379925.017 8     -1943.923 8        49.746                  
  20428543.129 9 107352737.579 9       818.545 9        56.206                  
 02  5 18 00 02 31.0000000  0  7G01G10G16G23G21G07G08                           
  23693940.697 8 124512494.671 8      3379.476 8        49.493                  
  21330742.968 9 112093828.413 9      -863.234 9        57.161                  
  23546744.370 8 123738981.358 8     -3682.625 8        50.538                  
  23059507.773 8 121178528.185 8     -2862.362 8        50.176                  
  21747177.296 8 114282216.213 8      1754.537 8        51.526                  
  25001135.313 8 131381867.271 8     -1939.620 8        48.207                  
  20428386.507 9 107351920.220 9       817.290 9        56.105                  
 02  5 18 00 02 32.0000000  0  7G01G10G16G23G21G07G08                           
  23693295.536 8 124509115.024 8      3378.557 8        48.547                  
  21330908.989 9 112094692.618 9      -864.284 9        55.004                  
  23547445.908 8 123742665.476 8     -3684.635 8        51.601                  
  23060055.495 8 121181389.305 8     -2858.857 8        49.567                  
  21746847.273 8 114280461.574 8      1754.050 8        50.737                  
  25001508.186 7 131383809.457 7     -1943.937 7        47.175                  
  20428231.189 9 107351103.445 9       816.591 9        55.388                  
 02  5 18 00 02 33.0000000  0  7G01G10G16G23G21G07G08                           
  23692653.305 8 124505735.548 8      3380.994 8        49.681                  
  21331075.207 9 112095557.425 9      -865.517 9        54.446                  
  23548145.730 8 123746349.794 8     -3684.201 8        50.980                  
  23060599.106 8 121184250.807 8     -2860.349 8        49.817                  
  21746514.892 8 114278707.231 8      1754.028 8        52.572                  
  25001876.145 7 131385751.981 7     -1944.591 7        45.144                  
  20428073.852 9 107350287.149 9       815.966 9        54.671                  
 02  5 18 00 02 34.0000000  0  7G01G10G16G23G21G07G08                           
  23692011.164 8 124502356.243 8      3375.345 8        49.077                  
  21331240.335 9 112096422.824 9      -866.706 9        54.834                  
  23548848.430 8 123750034.277 8     -3684.450 8        49.738                  
  23061141.252 8 121187112.695 8     -2863.331 8        49.889                  
  21746178.132 9 114276953.188 9      1753.544 9        54.096                  
  25002246.034 8 131387694.854 8     -1944.541 8        48.703                  
  20427916.533 9 107349471.329 9       816.299 9        56.614                  
 02  5 18 00 02 35.0000000  0  7G01G10G16G23G21G07G08                           
  23691367.004 7 124498977.089 7      3380.023 7        47.822                  
  21331405.284 9 112097288.818 9      -865.099 9        54.091                  
  23549549.539 8 123753718.964 8     -3682.770 8        50.625                  
  23061687.544 8 121189974.970 8     -2862.473 8        50.555                  
  21745841.355 8 114275199.439 8      1753.630 8        53.380                  
  25002616.244 7 131389638.073 7     -1947.461 7        46.936                  
  20427761.037 9 107348655.986 9       814.551 9        55.072                  
