     2.11           OBSERVATION DATA    G                   RINEX VERSION / TYPE
BLANK OR G = GPS,  R = GLONASS,  E = GALILEO,  M = MIXED    COMMENT             
GNSS-SDR            joel                17-APR-25 08:56     PGM / RUN BY / DATE 
GPS OBSERVATION DATA FILE GENERATED BY GNSS-SDR             COMMENT             
GNSS-SDR VERSION 0.0.16                                     COMMENT             
See https://gnss-sdr.org                                    COMMENT             
DEFAULT MARKER NAME                                         MARKER NAME         
joel                CTTC                                    OBSERVER / AGENCY   
GNSS-SDR            Software Receiver   0.0.16              REC # / TYPE / VERS 
Antenna number      Antenna type                            ANT # / TYPE        
        0.0000        0.0000        0.0000                  APPROX POSITION XYZ 
        0.0000        0.0000        0.0000                  ANTENNA: DELTA H/E/N
     1     1                                                WAVELENGTH FACT L1/2
     4    C1    L1    D1    S1                              # / TYPES OF OBSERV 
  2002    05    18    00    00   42.4000000     GPS         TIME OF FIRST OBS   
    18                                                      LEAP SECONDS        
                                                            END OF HEADER       
 02  5 18 00 00 43.0000000  0  7G01G16G10G23G21G07G08                           
  23763590.557 7 124878519.381 7      3399.696 7        46.684                  
  23471245.193 8 123342229.695 8     -3662.975 8        49.407                  
  21313658.681 9 112004045.667 9      -798.336 9        54.378                  
  23001127.174 8 120871745.352 8     -2818.484 8        49.978                  
  21783585.538 8 114473511.344 8      1786.636 8        53.260                  
  24961618.666 7 131174196.514 7     -1906.865 7        45.638                  
  20445704.806 9 107442930.360 9       868.249 9        55.799                  
 02  5 18 00 00 44.0000000  0  7G01G16G10G23G21G07G08                           
  23762945.592 7 124875122.259 7      3394.653 7        46.771                  
  23471943.872 8 123345893.470 8     -3663.423 8        50.489                  
  21313811.211 8 112004844.024 8      -799.526 8        53.913                  
  23001664.817 8 120874564.620 8     -2818.305 8        50.206                  
  21783249.386 9 114471724.133 9      1786.418 9        54.226                  
  24961982.032 7 131176101.041 7     -1909.812 7        46.109                  
  20445541.823 9 107442062.516 9       867.789 9        56.828                  
 02  5 18 00 00 45.0000000  0  7G01G16G10G23G21G07G08                           
  23762299.002 7 124871725.311 7      3394.043 7        47.507                  
  23472640.764 8 123349557.442 8     -3662.072 8        50.282                  
  21313963.044 9 112005643.022 9      -798.032 9        54.604                  
  23002198.993 8 120877384.250 8     -2818.289 8        51.033                  
  21782906.712 8 114469937.232 8      1786.910 8        53.223                  
  24962342.700 7 131178005.923 7     -1904.901 7        46.790                  
  20445380.198 9 107441195.149 9       867.250 9        57.369                  
 02  5 18 00 00 46.0000000  0  7G01G16G10G23G21G07G08                           
  23761651.160 8 124868328.515 8      3395.465 8        48.417                  
  23473337.673 8 123353221.599 8     -3665.612 8        49.297                  
  21314115.253 9 112006442.619 9      -799.383 9        54.144                  
  23002736.529 8 120880204.292 8     -2822.642 8        50.577                  
  21782563.555 8 114468150.641 8      1786.830 8        53.634                  
  24962709.087 7 131179911.164 7     -1905.451 7        45.005                  
  20445215.677 9 107440328.259 9       866.660 9        56.303                  
 02  5 18 00 00 47.0000000  0  7G01G16G10G23G21G07G08                           
  23761005.713 7 124864931.872 7      3392.840 7        47.629                  
  23474035.637 8 123356885.951 8     -3665.559 8        50.481                  
  21314268.462 8 112007242.812 8      -801.047 8        53.804                  
  23003272.582 8 120883024.723 8     -2822.779 8        49.774                  
  21782227.278 8 114466364.352 8      1785.611 8        52.245                  
  24963068.469 7 131181816.745 7     -1907.411 7        45.937                  
  20445048.388 9 107439461.823 9       865.979 9        55.630                  
 02  5 18 00 00 48.0000000  0  7G01G16G10G23G21G07G08                           
  23760360.070 7 124861535.391 7      3396.517 7        47.348                  
  23474732.958 8 123360550.505 8     -3664.552 8        50.438                  
  21314420.241 9 112008043.612 9      -801.060 9        56.882                  
  23003811.941 8 120885845.546 8     -2822.510 8        50.777                  
  21781887.784 8 114464578.358 8      1785.159 8        52.282                  
  24963433.175 7 131183722.683 7     -1905.886 7        46.243                  
  20444880.991 9 107438595.862 9       864.952 9        57.923                  
 02  5 18 00 00 49.0000000  0  7G01G16G10G23G21G07G08                           
  23759712.085 8 124858139.070 8      3396.604 8        49.105                  
  23475429.671 8 123364215.251 8     -3667.134 8        50.712                  
  21314573.522 9 112008845.055 9      -802.225 9        57.281                  
  23004345.867 8 120888666.780 8     -2821.148 8        49.432                  
  21781545.575 8 114462792.662 8      1785.502 8        53.589                  
  24963795.095 7 131185628.983 7     -1907.314 7        46.816                  
  20444713.272 9 107437730.377 9       865.611 9        57.235                  
 02  5 18 00 00 50.0000000  0  7G01G16G10G23G21G07G08                           
  23759066.317 7 124854742.906 7      3396.991 7        47.097                  
  23476128.386 8 123367880.173 8     -3665.728 8        48.833                  
  21314726.105 9 112009647.095 9      -801.909 9        56.271                  
  23004883.850 8 120891488.407 8     -2822.127 8        49.599                  
  21781204.919 8 114461007.265 8      1787.111 8        53.307                  
  24964157.050 7 131187535.626 7     -1905.313 7        47.782                  
  20444545.267 9 107436865.361 9       864.884 9        58.656                  
 02  5 18 00 00 51.0000000  0  7G01G16G10G23G21G07G08                           
  23758421.549 7 124851346.921 7      3393.905 7        47.527                  
  23476824.849 8 123371545.307 8     -3665.764 8        50.494                  
  21314878.993 9 112010449.732 9      -802.743 9        54.759                  
  23005422.261 8 120894310.419 8     -2821.814 8        49.856                  
  21780869.375 8 114459222.167 8      1783.615 8        53.157                  
  24964522.918 7 131189442.629 7     -1906.597 7        47.331                  
  20444381.391 9 107436000.807 9       863.709 9        54.628                  
 02  5 18 00 00 52.0000000  0  7G01G16G10G23G21G07G08                           
  23757774.333 8 124847951.075 8      3397.190 8        48.305                  
  23477522.152 8 123375210.640 8     -3666.343 8        49.676                  
  21315031.952 9 112011252.989 9      -804.183 9        54.026                  
  23005957.206 8 120897132.815 8     -2822.246 8        51.387                  
  21780530.221 8 114457437.364 8      1784.977 8        51.519                  
  24964882.460 7 131191349.991 7     -1911.302 7        46.037                  
  20444219.229 9 107435136.730 9       864.520 9        56.364                  
 02  5 18 00 00 53.0000000  0  7G01G16G10G23G21G07G08                           
  23757127.188 7 124844555.402 7      3393.063 7        47.985                  
  23478220.813 8 123378876.143 8     -3662.367 8        49.494                  
  21315184.857 9 112012056.876 9      -805.068 9        55.026                  
  23006496.976 8 120899955.603 8     -2823.619 8        49.660                  
  21780186.153 8 114455652.858 8      1784.931 8        51.849                  
  24965249.383 7 131193257.699 7     -1908.637 7        46.795                  
  20444056.979 9 107434273.131 9       863.371 9        57.122                  
 02  5 18 00 00 54.0000000  0  7G01G16G10G23G21G07G08                           
  23756482.528 7 124841159.887 7      3394.706 7        46.979                  
  23478916.865 8 123382541.856 8     -3666.087 8        50.115                  
  21315338.173 9 112012861.360 9      -805.104 9        54.014                  
  23007032.225 8 120902778.776 8     -2824.017 8        50.438                  
  21779846.981 8 114453868.667 8      1783.999 8        53.866                  
  24965609.104 7 131195165.759 7     -1906.379 7        46.831                  
  20443895.210 9 107433410.008 9       863.128 9        54.943                  
 02  5 18 00 00 55.0000000  0  7G01G16G10G23G21G07G08                           
  23755836.723 8 124837764.521 8      3394.965 8        48.820                  
  23479614.686 8 123386207.755 8     -3667.159 8        49.606                  
  21315491.221 9 112013666.441 9      -805.396 9        54.167                  
  23007570.725 8 120905602.340 8     -2822.359 8        49.872                  
  21779511.615 8 114452084.796 8      1782.432 8        53.359                  
  24965973.632 7 131197074.174 7     -1908.913 7        47.057                  
  20443734.175 9 107432547.338 9       862.160 9        56.864                  
 02  5 18 00 00 56.0000000  0  7G01G16G10G23G21G07G08                           
  23755189.239 7 124834369.326 7      3392.404 7        46.774                  
  23480314.097 7 123389873.845 7     -3668.050 7        47.429                  
  21315644.805 9 112014472.138 9      -806.163 9        54.592                  
  23008107.922 8 120908426.322 8     -2824.767 8        51.900                  
  21779171.568 9 114450301.209 9      1782.481 9        54.232                  
  24966337.589 7 131198982.942 7     -1904.840 7        46.367                  
  20443571.674 9 107431685.145 9       861.569 9        56.020                  
 02  5 18 00 00 57.0000000  0  7G01G16G10G23G21G07G08                           
  23754544.650 8 124830974.292 8      3395.846 8        48.709                  
  23481009.506 7 123393540.124 7     -3663.732 7        47.421                  
  21315798.336 9 112015278.470 9      -806.509 9        55.380                  
  23008644.386 8 120911250.685 8     -2824.402 8        50.930                  
  21778828.089 8 114448517.933 8      1784.772 8        51.743                  
  24966698.364 7 131200892.067 7     -1912.638 7        45.964                  
  20443405.277 9 107430823.429 9       861.553 9        58.263                  
 02  5 18 00 00 58.0000000  0  7G01G16G10G23G21G07G08                           
  23753898.202 8 124827579.410 8      3397.125 8        48.502                  
  23481707.827 7 123397206.601 7     -3665.604 7        47.739                  
  21315952.081 9 112016085.397 9      -806.609 9        55.501                  
  23009182.922 8 120914075.446 8     -2825.130 8        50.078                  
  21778490.329 8 114446734.946 8      1783.061 8        51.992                  
  24967065.037 7 131202801.535 7     -1911.458 7        45.919                  
  20443239.113 9 107429962.189 9       861.865 9        56.998                  
 02  5 18 00 00 59.0000000  0  7G01G16G10G23G21G07G08                           
  23753251.076 8 124824184.700 8      3395.359 8        49.096                  
  23482406.274 8 123400873.275 8     -3666.558 8        48.523                  
  21316105.969 9 112016892.921 9      -807.637 9        56.594                  
  23009718.796 8 120916900.586 8     -2824.324 8        49.960                  
  21778154.999 8 114444952.266 8      1782.947 8        50.761                  
  24967425.347 7 131204711.368 7     -1910.910 7        44.695                  
  20443072.681 9 107429101.403 9       860.777 9        55.321                  
 02  5 18 00 01  0.0000000  0  7G01G16G10G23G21G07G08                           
  23752605.825 8 124820790.142 8      3397.673 8        49.842                  
  23483102.773 8 123404540.131 8     -3670.428 8        48.699                  
  21316259.643 9 112017701.078 9      -807.977 9        57.438                  
  23010258.745 8 120919726.103 8     -2826.591 8        51.589                  
  21777813.522 8 114443169.873 8      1780.440 8        52.410                  
  24967791.144 7 131206621.536 7     -1908.935 7        46.978                  
  20442905.695 9 107428241.093 9       859.875 9        57.006                  
 02  5 18 00 01  1.0000000  0  7G01G16G10G23G21G07G08                           
  23751959.914 8 124817395.741 8      3396.173 8        50.109                  
  23483801.148 8 123408207.186 8     -3665.101 8        49.379                  
  21316414.138 9 112018509.852 9      -808.689 9        55.333                  
  23010795.155 8 120922552.020 8     -2823.873 8        49.271                  
  21777470.294 8 114441387.790 8      1782.212 8        53.968                  
  24968153.278 7 131208532.075 7     -1912.297 7        47.398                  
  20442740.425 9 107427381.259 9       859.801 9        56.643                  
 02  5 18 00 01  2.0000000  0  7G01G16G10G23G21G07G08                           
  23751313.180 8 124814001.510 8      3395.810 8        49.065                  
  23484499.755 8 123411874.434 8     -3666.529 8        49.124                  
  21316567.401 9 112019319.225 9      -810.838 9        54.343                  
  23011333.263 8 120925378.329 8     -2824.886 8        50.197                  
  21777134.678 8 114439605.991 8      1782.071 8        50.746                  
  24968517.806 7 131210442.945 7     -1912.135 7        45.641                  
  20442578.621 9 107426521.904 9       858.932 9        57.193                  
 02  5 18 00 01  3.0000000  0  7G01G16G10G23G21G07G08                           
  23750667.930 8 124810607.432 8      3396.392 8        48.964                  
  23485196.004 8 123415541.857 8     -3666.904 8        51.016                  
  21316721.039 9 112020129.192 9      -810.331 9        55.032                  
  23011872.085 8 120928205.043 8     -2826.686 8        50.884                  
  21776798.651 8 114437824.515 8      1781.650 8        51.973                  
  24968882.030 7 131212354.184 7     -1910.559 7        44.745                  
  20442416.924 9 107425663.000 9       858.104 9        55.570                  
 02  5 18 00 01  4.0000000  0  7G01G16G10G23G21G07G08                           
  23750023.180 8 124807213.508 8      3390.088 8        49.267                  
  23485895.344 8 123419209.501 8     -3668.042 8        52.162                  
  21316875.088 9 112020939.780 9      -810.880 9        54.673                  
  23012407.602 8 120931032.149 8     -2826.596 8        53.063                  
  21776456.387 9 114436043.350 9      1780.676 9        54.058                  
  24969242.842 7 131214265.774 7     -1910.283 7        45.142                  
  20442255.888 9 107424804.575 9       858.148 9        56.759                  
 02  5 18 00 01  5.0000000  0  7G01G16G10G23G21G07G08                           
  23749375.856 8 124803819.766 8      3389.047 8        48.139                  
  23486593.469 8 123422877.316 8     -3666.011 8        49.209                  
  21317028.833 9 112021750.999 9      -812.003 9        56.111                  
  23012947.782 8 120933859.640 8     -2827.707 8        51.188                  
  21776115.429 8 114434262.482 8      1779.828 8        53.746                  
  24969609.996 7 131216177.713 7     -1912.792 7        45.785                  
  20442094.638 9 107423946.625 9       858.151 9        56.299                  
 02  5 18 00 01  6.0000000  0  7G01G16G10G23G21G07G08                           
  23748729.552 8 124800426.169 8      3392.093 8        48.420                  
  23487290.468 8 123426545.329 8     -3664.421 8        48.789                  
  21317182.703 9 112022562.814 9      -812.129 9        56.325                  
  23013485.032 8 120936687.498 8     -2827.004 8        48.882                  
  21775779.938 8 114432481.913 8      1779.896 8        52.030                  
  24969970.879 7 131218089.992 7     -1910.492 7        46.430                  
  20441934.710 9 107423089.154 9       857.032 9        57.028                  
 02  5 18 00 01  7.0000000  0  7G01G16G10G23G21G07G08                           
  23748085.481 8 124797032.723 8      3392.592 8        49.177                  
  23487989.665 8 123430213.541 8     -3668.269 8        50.151                  
  21317336.662 9 112023375.226 9      -813.274 9        54.949                  
  23014023.247 8 120939515.762 8     -2827.343 8        48.924                  
  21775443.035 8 114430701.640 8      1779.829 8        52.924                  
  24970337.462 7 131220002.640 7     -1914.433 7        46.142                  
  20441772.817 9 107422232.146 9       856.574 9        57.068                  
 02  5 18 00 01  8.0000000  0  7G01G16G10G23G21G07G08                           
  23747438.568 8 124793639.467 8      3393.928 8        48.890                  
  23488687.414 8 123433881.933 8     -3666.720 8        50.798                  
  21317491.408 9 112024188.271 9      -813.296 9        57.848                  
  23014562.427 8 120942344.417 8     -2828.542 8        49.933                  
  21775100.897 8 114428921.669 8      1778.966 8        52.584                  
  24970700.042 8 131221915.639 8     -1914.162 8        48.190                  
  20441607.314 9 107421375.601 9       857.239 9        58.692                  
 02  5 18 00 01  9.0000000  0  7G01G16G10G23G21G07G08                           
  23746792.514 8 124790246.353 8      3391.219 8        48.029                  
  23489384.413 8 123437550.528 8     -3667.220 8        48.443                  
  21317645.475 9 112025001.930 9      -813.809 9        55.603                  
  23015099.338 8 120945173.476 8     -2829.959 8        50.448                  
  21774760.474 8 114427141.990 8      1780.312 8        53.912                  
  24971064.428 8 131223828.982 8     -1912.740 8        48.040                  
  20441442.580 9 107420519.537 9       855.923 9        57.488                  
 02  5 18 00 01 10.0000000  0  7G01G16G10G23G21G07G08                           
  23746148.764 8 124786853.394 8      3397.265 8        49.664                  
  23490083.825 8 123441219.312 8     -3669.609 8        49.564                  
  21317800.560 9 112025816.190 9      -814.380 9        54.983                  
  23015639.447 8 120948002.930 8     -2828.591 8        50.118                  
  21774425.144 8 114425362.613 8      1779.871 8        53.374                  
  24971429.742 8 131225742.682 8     -1914.151 8        48.427                  
  20441277.524 9 107419663.949 9       855.830 9        56.887                  
 02  5 18 00 01 11.0000000  0  7G01G16G10G23G21G07G08                           
  23745502.299 7 124783460.614 7      3393.349 7        47.540                  
  23490781.896 8 123444888.279 8     -3669.683 8        50.921                  
  21317955.324 9 112026631.045 9      -815.053 9        56.145                  
  23016176.500 8 120950832.753 8     -2827.748 8        50.588                  
  21774088.474 8 114423583.533 8      1779.056 8        51.793                  
  24971791.840 8 131227656.729 8     -1913.670 8        48.148                  
  20441111.842 9 107418808.837 9       854.973 9        57.308                  
 02  5 18 00 01 12.0000000  0  7G01G16G10G23G21G07G08                           
  23744855.905 8 124780067.977 8      3389.545 8        49.999                  
  23491479.467 8 123448557.446 8     -3669.312 8        51.403                  
  21318109.748 9 112027446.519 9      -816.640 9        57.107                  
  23016715.734 8 120953662.963 8     -2829.948 8        50.664                  
  21773745.228 8 114421804.764 8      1779.355 8        53.134                  
  24972158.744 7 131229571.130 7     -1918.454 7        47.875                  
  20440946.553 9 107417954.178 9       854.478 9        57.349                  
 02  5 18 00 01 13.0000000  0  7G01G16G10G23G21G07G08                           
  23744211.298 8 124776675.505 8      3391.713 8        48.966                  
  23492178.503 8 123452226.792 8     -3669.396 8        50.377                  
  21318266.030 9 112028262.629 9      -816.409 9        56.969                  
  23017255.235 8 120956493.562 8     -2828.608 8        50.187                  
  21773406.360 8 114420026.306 8      1778.243 8        52.769                  
  24972519.055 7 131231485.871 7     -1913.303 7        46.489                  
  20440784.410 9 107417099.995 9       854.123 9        56.040                  
 02  5 18 00 01 14.0000000  0  7G01G16G10G23G21G07G08                           
  23743565.815 8 124773283.202 8      3392.187 8        48.568                  
  23492876.306 8 123455896.338 8     -3670.833 8        49.976                  
  21318421.151 9 112029079.330 9      -816.833 9        54.918                  
  23017792.396 8 120959324.566 8     -2830.582 8        50.849                  
  21773072.709 8 114418248.155 8      1778.606 8        51.988                  
  24972887.372 7 131233400.973 7     -1915.976 7        46.569                  
  20440624.053 9 107416246.288 9       854.178 9        54.650                  
 02  5 18 00 01 15.0000000  0  7G01G16G10G23G21G07G08                           
  23742918.849 8 124769891.055 8      3390.615 8        48.706                  
  23493573.984 8 123459566.080 8     -3669.919 8        49.046                  
  21318576.308 9 112029896.630 9      -817.226 9        55.309                  
  23018333.863 8 120962155.968 8     -2830.898 8        50.297                  
  21772733.484 8 114416470.292 8      1778.187 8        52.843                  
  24973249.648 7 131235316.428 7     -1916.105 7        46.908                  
  20440463.804 9 107415393.060 9       853.195 9        55.708                  
 02  5 18 00 01 16.0000000  0  7G01G16G10G23G21G07G08                           
  23742273.813 8 124766499.061 8      3395.033 8        48.236                  
  23494273.932 8 123463235.995 8     -3672.089 8        49.590                  
  21318731.358 9 112030714.537 9      -818.504 9        55.978                  
  23018869.988 8 120964987.752 8     -2831.743 8        50.732                  
  21772392.310 8 114414692.739 8      1778.254 8        52.834                  
  24973615.838 7 131237232.229 7     -1915.940 7        46.185                  
  20440303.823 9 107414540.308 9       853.054 9        56.602                  
 02  5 18 00 01 17.0000000  0  7G01G16G10G23G21G07G08                           
  23741629.742 7 124763107.249 7      3388.898 7        46.926                  
  23494971.199 8 123466906.115 8     -3670.897 8        50.235                  
  21318887.979 9 112031533.086 9      -819.215 9        56.123                  
  23019409.257 8 120967819.905 8     -2834.098 8        50.226                  
  21772053.782 9 114412915.472 9      1777.477 9        54.416                  
  24973980.724 8 131239148.390 8     -1916.848 8        48.111                  
  20440143.252 9 107413688.011 9       852.009 9        57.662                  
 02  5 18 00 01 18.0000000  0  7G01G16G10G23G21G07G08                           
  23740983.956 7 124759715.579 7      3392.968 7        47.714                  
  23495669.449 8 123470576.416 8     -3672.516 8        49.397                  
  21319043.762 9 112032352.234 9      -820.193 9        55.371                  
  23019949.169 8 120970652.452 8     -2830.600 8        49.601                  
  21771719.292 8 114411138.520 8      1775.583 8        53.196                  
  24974342.553 7 131241064.889 7     -1914.788 7        47.697                  
  20439983.771 9 107412836.189 9       850.983 9        57.425                  
 02  5 18 00 01 19.0000000  0  7G01G16G10G23G21G07G08                           
  23740337.043 7 124756324.076 7      3392.726 7        47.748                  
  23496368.503 8 123474246.912 8     -3669.739 8        50.749                  
  21319200.973 9 112033171.975 9      -819.750 9        54.666                  
  23020485.776 8 120973485.406 8     -2832.118 8        50.264                  
  21771381.442 8 114409361.842 8      1774.968 8        52.675                  
  24974711.120 8 131242981.739 8     -1916.068 8        48.140                  
  20439822.199 9 107411984.844 9       850.792 9        56.585                  
 02  5 18 00 01 20.0000000  0  7G01G16G10G23G21G07G08                           
  23739693.759 7 124752932.999 7      3389.592 7        47.302                  
  23497066.682 8 123477917.470 8     -3671.965 8        50.064                  
  21319357.971 8 112033992.153 8      -819.463 8        53.410                  
  23021027.333 8 120976318.632 8     -2831.802 8        50.788                  
  21771039.572 8 114407585.703 8      1774.770 8        50.987                  
  24975072.396 7 131244899.296 7     -1918.442 7        47.202                  
  20439658.572 9 107411134.080 9       849.404 9        56.528                  
 02  5 18 00 01 21.0000000  0  7G01G16G10G23G21G07G08                           
  23739049.527 7 124749553.231 7      3371.484 7        46.109                  
  23497763.627 8 123481582.736 8     -3662.573 8        51.066                  
  21319513.610 9 112034806.294 9      -808.395 9        55.029                  
  23021565.083 8 120979147.139 8     -2823.977 8        51.715                  
  21770703.598 8 114405819.021 8      1759.755 8        51.102                  
  24975442.624 7 131246831.961 7     -1947.438 7        43.340                  
  20439496.053 9 107410288.178 9       841.554 9        57.228                  
 02  5 18 00 01 22.0000000  0  7G01G16G10G23G21G07G08                           
  23738412.764 6 124746192.769 6      3349.881 6        38.336                  
  23498461.680 8 123485239.012 8     -3651.707 8        50.825                  
  21319666.443 8 112035609.853 8      -796.465 8        51.522                  
  23022102.226 8 120981967.510 8     -2816.147 8        53.541                  
  21770374.916 7 114404068.355 7      1747.220 7        44.380                  
  24975813.263 7 131248790.035 7     -1970.371 7        44.384                  
  20439334.392 9 107409450.071 9       834.188 9        59.243                  
 02  5 18 00 01 23.0000000  0  7G01G16G10G23G21G07G08                           
  23737774.232 8 124742850.756 8      3334.400 8        49.890                  
  23499155.302 7 123488886.136 7     -3646.290 7        42.392                  
  21319818.080 7 112036402.464 7      -787.332 7        45.625                  
  23022637.081 7 120984779.720 7     -2812.133 7        45.955                  
  21770044.464 8 114402333.034 8      1728.480 8        51.546                  
  24976193.230 8 131250772.721 8     -1995.403 8        50.255                  
  20439175.072 9 107408619.778 9       827.557 9        56.871                  
 02  5 18 00 01 24.0000000  0  7G01G16G10G23G21G07G08                           
  23737141.312 8 124739522.647 8      3328.753 8        53.058                  
  23499850.747 6 123492526.885 6     -3642.731 6        38.557                  
  21319966.947 8 112037187.862 8      -785.873 8        53.277                  
  23023170.936 6 120987585.725 6     -2806.571 6        37.788                  
  21769713.780 9 114400609.236 9      1723.143 9        58.795                  
  24976571.821 7 131252773.934 7     -2007.614 7        45.547                  
  20439019.219 8 107407795.358 8       826.038 8        48.101                  
 02  5 18 00 01 25.0000000  0  7G01G16G10G23G21G07G08                           
  23736507.908 8 124736195.714 8      3326.200 8        49.831                  
  23500542.135 8 123496167.375 8     -3639.943 8        48.175                  
  21320116.528 9 112037973.288 9      -786.531 9        57.211                  
  23023704.613 7 120990391.944 7     -2805.584 7        47.397                  
  21769383.167 9 114398886.537 9      1722.620 9        59.509                  
  24976989.206 6 131254777.076 6     -2004.985 6        36.751                  
  20438859.737 7 107406971.757 7       820.769 7        45.355                  
 02  5 18 00 01 26.0000000  0  7G01G16G10G23G21G07G08                           
  23735874.987 7 124732869.688 7      3328.598 7        46.286                  
  23501230.932 7 123499809.100 7     -3641.954 7        47.234                  
  21320266.307 9 112038758.969 9      -786.964 9        54.566                  
  23024236.359 7 120993197.684 7     -2806.784 7        47.956                  
  21769056.146 8 114397164.434 8      1723.467 8        52.533                  
  24977333.614 7 131256780.107 7     -2001.735 7        45.565                  
  20438699.560 7 107406148.483 7       824.899 7        46.825                  
 02  5 18 00 01 27.0000000  0  7G01G16G10G23G21G07G08                           
  23735241.388 7 124729533.570 7      3345.539 7        43.281                  
  23501925.483 7 123503457.692 7     -3651.443 7        43.369                  
  21320416.389 8 112039550.682 8      -798.389 8        50.437                  
  23024778.684 7 120996009.303 7     -2827.147 7        42.778                  
  21768731.591 7 114395434.794 7      1738.363 7        47.530                  
  24977714.742 7 131258770.641 7     -1976.040 7        46.816                  
  20438543.134 6 107405321.667 6       823.459 6        41.133                  
 02  5 18 00 01 28.0000000  0  7G01G16G10G23G21G07G08                           
  23734599.068 6 124726176.544 6      3365.163 6        38.450                  
  23502623.161 6 123507113.579 6     -3659.907 6        37.945                  
  21320569.490 7 112040352.205 7      -810.373 7        44.007                  
  23025305.802 6 120998830.760 6     -2824.750 6        37.715                  
  21768400.567 7 114393689.951 7      1753.155 7        43.251                  
  24978088.615 7 131260736.261 7     -1953.180 7        43.670                  
  20438386.619 7 107404487.253 7       837.570 7        42.140                  
 02  5 18 00 01 29.0000000  0  7G01G16G10G23G21G07G08                           
  23733960.054 5 124722803.553 5      3372.110 5        35.928                  
  23503319.553 5 123510777.823 5     -3665.246 5        35.439                  
  21320723.736 6 112041168.042 6      -819.588 6        40.489                  
  23025843.320 5 121001656.882 5     -2829.472 5        35.362                  
  21768062.575 6 114391930.093 6      1761.135 6        39.665                  
  24978460.095 6 131262678.749 6     -1942.022 6        40.596                  
  20438227.335 7 107403647.523 7       840.961 7        43.576                  
 02  5 18 00 01 30.0000000  0  7G01G16G10G23G21G07G08                           
  23733326.382 5 124719432.405 5      3369.660 5        34.126                  
  23504021.430 5 123514441.694 5     -3670.506 5        34.074                  
  21320875.283 5 112041983.446 5      -807.885 5        35.608                  
  23026379.302 5 121004485.445 5     -2827.143 5        34.275                  
  21767728.871 5 114390171.903 5      1755.671 5        35.201                  
  24978828.893 5 131264623.715 5     -1952.051 5        35.671                  
  20438068.211 9 107402808.508 9       838.041 9        56.987                  
 02  5 18 00 01 31.0000000  0  7G01G16G10G23G21G07G08                           
  23732685.063 5 124716067.376 5      3362.896 5        33.959                  
  23504727.954 5 123518104.468 5     -3662.878 5        34.143                  
  21321028.009 5 112042795.948 5      -808.039 5        34.255                  
  23026910.637 5 121007310.921 5     -2821.623 5        33.991                  
  21767400.545 5 114388418.727 5      1752.723 5        34.059                  
  24979199.229 5 131266576.074 5     -1954.679 5        33.822                  
  20437910.714 8 107401972.390 8       834.999 8        53.531                  
 02  5 18 00 01 32.0000000  0  7G01G16G10G23G21G07G08                           
  23732054.215 5 124712710.520 5      3354.183 5        33.834                  
  23505426.293 5 123521767.634 5     -3661.569 5        34.110                  
  21321177.788 5 112043604.292 5      -811.557 5        34.201                  
  23027448.941 5 121010131.140 5     -2820.872 5        34.235                  
  21767079.993 5 114386671.891 5      1743.936 5        34.163                  
  24979576.944 5 131268537.301 5     -1967.824 5        33.635                  
  20437754.270 8 107401139.906 8       833.200 8        49.130                  
 02  5 18 00 01 33.0000000  0  7G01G16G10G23G21G07G08                           
  23731413.396 5 124709350.479 5      3365.011 5        34.162                  
  23506122.720 5 123525426.657 5     -3658.915 5        34.144                  
  21321327.727 5 112044415.164 5      -818.664 5        34.540                  
  23027980.598 5 121012956.153 5     -2831.979 5        34.141                  
  21766743.716 5 114384923.340 5      1746.734 5        34.427                  
  24979954.159 5 131270497.378 5     -1958.222 5        34.428                  
  20437595.987 8 107400306.904 8       832.913 8        53.069                  
 02  5 18 00 01 34.0000000  0  7G01G16G10G23G21G07G08                           
  23730773.632 5 124705986.843 5      3362.486 5        34.238                  
  23506820.434 5 123529081.852 5     -3648.167 5        34.073                  
  21321485.903 6 112045224.288 6      -804.460 6        36.124                  
  23028519.850 5 121015786.053 5     -2826.464 5        34.482                  
  21766411.441 5 114383175.298 5      1733.272 5        35.857                  
  24980324.298 6 131272455.793 6     -1961.010 6        37.634                  
  20437439.704 8 107399472.786 8       831.700 8        53.828                  
 02  5 18 00 01 35.0000000  0  7G01G16G10G23G21G07G08                           
  23730141.515 5 124702629.027 5      3359.267 5        34.436                  
  23507518.595 5 123532739.129 5     -3672.392 5        34.431                  
  21321635.199 6 112046028.808 6      -803.196 6        36.822                  
  23029055.170 5 121018611.906 5     -2800.901 5        34.477                  
  21766074.003 6 114381440.610 6      1740.919 6        36.229                  
  24980703.050 6 131274421.788 6     -1970.698 6        36.576                  
  20437283.493 8 107398642.487 8       831.209 8        51.055                  
 02  5 18 00 01 36.0000000  0  7G01G16G10G23G21G07G08                           
  23729500.678 5 124699274.487 5      3352.644 5        35.772                  
  23508213.271 6 123536405.295 6     -3652.489 6        36.069                  
  21321790.159 6 112046831.872 6      -800.900 6        40.585                  
  23029585.397 6 121021432.681 6     -2818.994 6        36.316                  
  21765746.892 6 114379703.385 6      1740.981 6        38.774                  
  24981075.119 6 131276395.550 6     -1970.879 6        39.157                  
  20437128.640 8 107397813.230 8       833.436 8        50.130                  
 02  5 18 00 01 37.0000000  0  7G01G16G10G23G21G07G08                           
  23728861.324 6 124695925.639 6      3352.310 6        40.712                  
  23508898.316 7 123540063.733 7     -3653.506 7        42.508                  
  21321955.787 7 112047638.744 7      -807.144 7        47.139                  
  23030125.131 6 121024252.188 6     -2813.240 6        41.562                  
  21765410.329 7 114377964.390 7      1739.408 7        45.381                  
  24981449.457 6 131278368.753 6     -1976.156 6        41.367                  
  20436965.675 7 107396985.128 7       828.156 7        45.515                  
 02  5 18 00 01 38.0000000  0  7G01G16G10G23G21G07G08                           
  23728233.550 7 124692574.582 7      3350.690 7        45.538                  
  23509592.867 7 123543714.211 7     -3652.663 7        43.684                  
  21322098.971 7 112048447.566 7      -810.100 7        47.551                  
  23030672.585 7 121027077.909 7     -2827.952 7        45.642                  
  21765086.364 8 114376224.996 8      1746.866 8        51.923                  
  24981825.564 7 131280344.271 7     -1972.171 7        43.155                  
  20436807.176 8 107396158.429 8       827.030 8        51.854                  
 02  5 18 00 01 39.0000000  0  7G01G16G10G23G21G07G08                           
  23727584.297 6 124689214.577 6      3358.080 6        39.474                  
  23510295.137 6 123547359.824 6     -3652.079 6        39.058                  
  21322252.931 7 112049262.496 7      -822.202 7        44.505                  
  23031203.187 6 121029913.171 6     -2835.926 6        38.748                  
  21764753.196 7 114374479.019 7      1757.964 7        43.621                  
  24982206.728 6 131282312.624 6     -1952.054 6        41.153                  
  20436648.857 8 107395330.891 8       828.464 8        51.701                  
 02  5 18 00 01 40.0000000  0  7G01G16G10G23G21G07G08                           
  23726944.979 5 124685855.952 5      3358.765 5        35.143                  
  23510993.208 6 123551005.344 6     -3642.369 6        36.814                  
  21322409.857 6 112050086.395 6      -819.574 6        38.547                  
  23031747.281 5 121032746.513 5     -2835.668 5        35.346                  
  21764418.098 6 114372722.848 6      1753.248 6        37.768                  
  24982577.403 6 131284267.679 6     -1963.348 6        36.609                  
  20436491.181 8 107394499.653 8       833.844 8        48.659                  
 02  5 18 00 01 41.0000000  0  7G01G16G10G23G21G07G08                           
  23726303.785 5 124682494.658 5      3349.504 5        34.379                  
  23511688.117 5 123554633.604 5     -3632.766 5        34.679                  
  21322566.246 6 112050913.842 6      -824.250 6        37.011                  
  23032286.550 5 121035580.501 5     -2842.912 5        34.437                  
  21764089.683 6 114370964.918 6      1757.071 6        36.296                  
  24982954.511 6 131286230.428 6     -1983.550 6        37.730                  
  20436330.467 8 107393671.594 8       826.940 8        50.936                  
 02  5 18 00 01 42.0000000  0  7G01G16G10G23G21G07G08                           
  23725665.575 5 124679132.986 5      3362.564 5        34.164                  
  23512385.366 5 123558255.069 5     -3610.750 5        34.297                  
  21322721.367 5 112051746.780 5      -842.673 5        35.226                  
  23032824.801 5 121038414.932 5     -2837.962 5        34.483                  
  21763756.658 5 114369201.884 5      1757.426 5        34.900                  
  24983323.167 5 131288191.289 5     -1963.742 5        35.379                  
  20436174.595 7 107392843.577 7       828.336 7        43.546                  
