     2.11           OBSERVATION DATA    G                   RINEX VERSION / TYPE
BLANK OR G = GPS,  R = GLONASS,  E = GALILEO,  M = MIXED    COMMENT             
GNSS-SDR            joel                19-APR-25 15:22     PGM / RUN BY / DATE 
GPS OBSERVATION DATA FILE GENERATED BY GNSS-SDR             COMMENT             
GNSS-SDR VERSION 0.0.16                                     COMMENT             
See https://gnss-sdr.org                                    COMMENT             
DEFAULT MARKER NAME                                         MARKER NAME         
joel                CTTC                                    OBSERVER / AGENCY   
GNSS-SDR            Software Receiver   0.0.16              REC # / TYPE / VERS 
Antenna number      Antenna type                            ANT # / TYPE        
        0.0000        0.0000        0.0000                  APPROX POSITION XYZ 
        0.0000        0.0000        0.0000                  ANTENNA: DELTA H/E/N
     1     1                                                WAVELENGTH FACT L1/2
     4    C1    L1    D1    S1                              # / TYPES OF OBSERV 
  2002    05    18    00    00   42.3600000     GPS         TIME OF FIRST OBS   
    18                                                      LEAP SECONDS        
                                                            END OF HEADER       
 02  5 18 00 00 43.0000000  0  7G01G16G23G21G10G07G08                           
  23763590.557 7 124878515.381 7      3399.695 7        46.684                  
  23471245.193 8 123342227.695 8     -3662.994 8        49.407                  
  23001127.174 8 120871745.352 8     -2818.485 8        49.978                  
  21783585.538 8 114473521.344 8      1786.635 8        53.259                  
  21313658.681 9 112004045.667 9      -798.336 9        54.378                  
  24961618.630 7 131174203.514 7     -1906.859 7        45.637                  
  20445704.806 9 107442936.360 9       868.248 9        55.798                  
 02  5 18 00 00 44.0000000  0  7G01G16G23G21G10G07G08                           
  23762945.610 7 124875118.259 7      3394.652 7        46.771                  
  23471943.872 8 123345891.470 8     -3663.426 8        50.487                  
  23001664.817 8 120874564.620 8     -2818.305 8        50.206                  
  21783249.386 9 114471734.133 9      1786.418 9        54.226                  
  21313811.211 8 112004844.024 8      -799.526 8        53.913                  
  24961981.978 7 131176108.041 7     -1909.805 7        46.107                  
  20445541.823 9 107442068.516 9       867.788 9        56.827                  
 02  5 18 00 00 45.0000000  0  7G01G16G23G21G10G07G08                           
  23762299.020 7 124871721.311 7      3394.041 7        47.506                  
  23472640.764 8 123349555.442 8     -3662.072 8        50.281                  
  23002198.975 8 120877384.250 8     -2818.289 8        51.032                  
  21782906.712 8 114469947.232 8      1786.910 8        53.224                  
  21313963.044 9 112005643.022 9      -798.033 9        54.604                  
  24962342.700 7 131178012.923 7     -1904.901 7        46.790                  
  20445380.198 9 107441201.149 9       867.251 9        57.368                  
 02  5 18 00 00 46.0000000  0  7G01G16G23G21G10G07G08                           
  23761651.178 8 124868324.515 8      3395.471 8        48.419                  
  23473337.638 8 123353219.599 8     -3665.614 8        49.298                  
  23002736.511 8 120880204.292 8     -2822.643 8        50.575                  
  21782563.537 8 114468160.641 8      1786.829 8        53.634                  
  21314115.253 9 112006442.619 9      -799.382 9        54.142                  
  24962709.051 7 131179918.164 7     -1905.457 7        45.007                  
  20445215.677 9 107440334.259 9       866.660 9        56.301                  
 02  5 18 00 00 47.0000000  0  7G01G16G23G21G10G07G08                           
  23761005.713 7 124864927.872 7      3392.840 7        47.628                  
  23474035.637 8 123356883.951 8     -3665.560 8        50.479                  
  23003272.582 8 120883024.723 8     -2822.780 8        49.775                  
  21782227.296 8 114466374.352 8      1785.611 8        52.245                  
  21314268.462 8 112007242.812 8      -801.048 8        53.803                  
  24963068.469 7 131181823.745 7     -1907.411 7        45.938                  
  20445048.388 9 107439467.823 9       865.980 9        55.630                  
 02  5 18 00 00 48.0000000  0  7G01G16G23G21G10G07G08                           
  23760360.034 7 124861531.391 7      3396.518 7        47.345                  
  23474732.958 8 123360548.505 8     -3664.552 8        50.440                  
  23003811.941 8 120885845.546 8     -2822.509 8        50.773                  
  21781887.784 8 114464588.358 8      1785.159 8        52.284                  
  21314420.241 9 112008043.612 9      -801.059 9        56.881                  
  24963433.175 7 131183729.683 7     -1905.886 7        46.243                  
  20444880.991 9 107438601.862 9       864.952 9        57.922                  
 02  5 18 00 00 49.0000000  0  7G01G16G23G21G10G07G08                           
  23759712.085 8 124858135.070 8      3396.604 8        49.105                  
  23475429.671 8 123364213.251 8     -3667.135 8        50.710                  
  23004345.867 8 120888666.780 8     -2821.147 8        49.429                  
  21781545.575 8 114462802.662 8      1785.502 8        53.589                  
  21314573.540 9 112008845.055 9      -802.225 9        57.280                  
  24963795.077 7 131185635.983 7     -1907.313 7        46.815                  
  20444713.272 9 107437736.377 9       865.610 9        57.234                  
 02  5 18 00 00 50.0000000  0  7G01G16G23G21G10G07G08                           
  23759066.281 7 124854738.906 7      3396.990 7        47.098                  
  23476128.386 8 123367878.173 8     -3665.729 8        48.834                  
  23004883.850 8 120891488.407 8     -2822.127 8        49.600                  
  21781204.937 8 114461017.265 8      1787.111 8        53.307                  
  21314726.105 9 112009647.095 9      -801.909 9        56.270                  
  24964157.050 7 131187542.626 7     -1905.316 7        47.779                  
  20444545.267 9 107436871.361 9       864.884 9        58.654                  
 02  5 18 00 00 51.0000000  0  7G01G16G23G21G10G07G08                           
  23758421.549 7 124851342.921 7      3393.905 7        47.528                  
  23476824.831 8 123371543.307 8     -3665.768 8        50.493                  
  23005422.261 8 120894310.419 8     -2821.813 8        49.856                  
  21780869.375 8 114459232.167 8      1783.596 8        53.160                  
  21314878.993 9 112010449.732 9      -802.743 9        54.759                  
  24964522.918 7 131189449.629 7     -1906.598 7        47.331                  
  20444381.391 9 107436006.807 9       863.708 9        54.627                  
 02  5 18 00 00 52.0000000  0  7G01G16G23G21G10G07G08                           
  23757774.333 8 124847947.075 8      3397.191 8        48.307                  
  23477522.152 8 123375208.640 8     -3666.343 8        49.675                  
  23005957.188 8 120897132.815 8     -2822.246 8        51.387                  
  21780530.221 8 114457447.364 8      1784.978 8        51.520                  
  21315031.952 9 112011252.989 9      -804.183 9        54.026                  
  24964882.460 7 131191356.991 7     -1911.302 7        46.040                  
  20444219.211 9 107435142.730 9       864.520 9        56.363                  
 02  5 18 00 00 53.0000000  0  7G01G16G23G21G10G07G08                           
  23757127.188 7 124844551.402 7      3393.063 7        47.985                  
  23478220.813 8 123378874.143 8     -3662.367 8        49.494                  
  23006496.958 8 120899955.603 8     -2823.608 8        49.658                  
  21780186.153 8 114455662.858 8      1784.931 8        51.848                  
  21315184.857 9 112012056.876 9      -805.068 9        55.025                  
  24965249.383 7 131193264.699 7     -1908.637 7        46.797                  
  20444056.979 9 107434279.131 9       863.372 9        57.121                  
 02  5 18 00 00 54.0000000  0  7G01G16G23G21G10G07G08                           
  23756482.528 7 124841155.887 7      3394.703 7        46.977                  
  23478916.865 8 123382539.856 8     -3666.087 8        50.114                  
  23007032.225 8 120902778.776 8     -2824.017 8        50.439                  
  21779846.981 8 114453878.667 8      1783.999 8        53.865                  
  21315338.191 9 112012861.360 9      -805.104 9        54.015                  
  24965609.086 7 131195172.759 7     -1906.378 7        46.831                  
  20443895.210 9 107433416.008 9       863.128 9        54.943                  
 02  5 18 00 00 55.0000000  0  7G01G16G23G21G10G07G08                           
  23755836.723 8 124837760.521 8      3394.964 8        48.813                  
  23479614.686 8 123386205.755 8     -3667.159 8        49.606                  
  23007570.725 8 120905602.340 8     -2822.360 8        49.873                  
  21779511.615 8 114452094.796 8      1782.432 8        53.359                  
  21315491.221 9 112013666.441 9      -805.396 9        54.168                  
  24965973.632 7 131197081.174 7     -1908.913 7        47.058                  
  20443734.175 9 107432553.338 9       862.160 9        56.863                  
 02  5 18 00 00 56.0000000  0  7G01G16G23G21G10G07G08                           
  23755189.275 7 124834365.326 7      3392.405 7        46.775                  
  23480314.079 7 123389871.845 7     -3668.049 7        47.430                  
  23008107.922 8 120908426.322 8     -2824.773 8        51.900                  
  21779171.568 9 114450311.209 9      1782.481 9        54.233                  
  21315644.805 9 112014472.138 9      -806.163 9        54.592                  
  24966337.589 7 131198989.942 7     -1904.841 7        46.367                  
  20443571.674 9 107431691.145 9       861.568 9        56.020                  
 02  5 18 00 00 57.0000000  0  7G01G16G23G21G10G07G08                           
  23754544.650 8 124830970.292 8      3395.849 8        48.707                  
  23481009.506 7 123393538.124 7     -3663.731 7        47.422                  
  23008644.386 8 120911250.685 8     -2824.402 8        50.931                  
  21778828.089 8 114448527.933 8      1784.773 8        51.743                  
  21315798.336 9 112015278.470 9      -806.510 9        55.378                  
  24966698.364 7 131200899.067 7     -1912.639 7        45.963                  
  20443405.277 9 107430829.429 9       861.552 9        58.265                  
 02  5 18 00 00 58.0000000  0  7G01G16G23G21G10G07G08                           
  23753898.202 8 124827575.410 8      3397.145 8        48.511                  
  23481707.827 7 123397204.601 7     -3665.607 7        47.741                  
  23009182.922 8 120914075.446 8     -2825.129 8        50.079                  
  21778490.329 8 114446744.946 8      1783.062 8        51.993                  
  21315952.081 9 112016085.397 9      -806.609 9        55.502                  
  24967065.037 7 131202808.535 7     -1911.459 7        45.918                  
  20443239.113 9 107429968.189 9       861.866 9        56.998                  
 02  5 18 00 00 59.0000000  0  7G01G16G23G21G10G07G08                           
  23753251.076 8 124824180.700 8      3395.359 8        49.098                  
  23482406.274 8 123400871.275 8     -3666.558 8        48.521                  
  23009718.796 8 120916900.586 8     -2824.324 8        49.960                  
  21778154.999 8 114444962.266 8      1782.947 8        50.760                  
  21316105.969 9 112016892.921 9      -807.637 9        56.593                  
  24967425.347 7 131204718.368 7     -1910.911 7        44.695                  
  20443072.681 9 107429107.403 9       860.774 9        55.323                  
 02  5 18 00 01  0.0000000  0  7G01G16G23G21G10G07G08                           
  23752605.843 8 124820786.142 8      3397.671 8        49.841                  
  23483102.773 8 123404538.131 8     -3670.428 8        48.696                  
  23010258.709 8 120919726.103 8     -2826.592 8        51.591                  
  21777813.522 8 114443179.873 8      1780.440 8        52.409                  
  21316259.643 9 112017701.078 9      -807.976 9        57.438                  
  24967791.144 7 131206628.536 7     -1908.935 7        46.979                  
  20442905.695 9 107428247.093 9       859.875 9        57.004                  
 02  5 18 00 01  1.0000000  0  7G01G16G23G21G10G07G08                           
  23751959.914 8 124817391.741 8      3396.173 8        50.105                  
  23483801.148 8 123408205.187 8     -3665.102 8        49.378                  
  23010795.155 8 120922552.020 8     -2823.873 8        49.272                  
  21777470.294 8 114441397.790 8      1782.212 8        53.965                  
  21316414.138 9 112018509.852 9      -808.687 9        55.335                  
  24968153.278 7 131208539.075 7     -1912.305 7        47.399                  
  20442740.425 9 107427387.259 9       859.802 9        56.643                  
 02  5 18 00 01  2.0000000  0  7G01G16G23G21G10G07G08                           
  23751313.180 8 124813997.510 8      3395.811 8        49.065                  
  23484499.755 8 123411872.434 8     -3666.528 8        49.124                  
  23011333.263 8 120925378.329 8     -2824.887 8        50.198                  
  21777134.696 8 114439615.992 8      1782.070 8        50.746                  
  21316567.401 9 112019319.225 9      -810.838 9        54.344                  
  24968517.806 7 131210449.945 7     -1912.133 7        45.641                  
  20442578.621 9 107426527.904 9       858.932 9        57.191                  
 02  5 18 00 01  3.0000000  0  7G01G16G23G21G10G07G08                           
  23750667.947 8 124810603.432 8      3396.392 8        48.962                  
  23485196.022 8 123415539.857 8     -3666.902 8        51.018                  
  23011872.085 8 120928205.043 8     -2826.686 8        50.887                  
  21776798.651 8 114437834.515 8      1781.649 8        51.973                  
  21316721.039 9 112020129.192 9      -810.329 9        55.033                  
  24968882.030 7 131212361.184 7     -1910.558 7        44.745                  
  20442416.924 9 107425669.000 9       858.103 9        55.570                  
 02  5 18 00 01  4.0000000  0  7G01G16G23G21G10G07G08                           
  23750023.180 8 124807209.508 8      3390.088 8        49.268                  
  23485895.362 8 123419207.501 8     -3668.045 8        52.166                  
  23012407.602 8 120931032.149 8     -2826.596 8        53.064                  
  21776456.387 9 114436053.350 9      1780.678 9        54.058                  
  21316875.088 9 112020939.780 9      -810.881 9        54.672                  
  24969242.824 7 131214272.774 7     -1910.279 7        45.142                  
  20442255.888 9 107424810.575 9       858.148 9        56.759                  
 02  5 18 00 01  5.0000000  0  7G01G16G23G21G10G07G08                           
  23749375.856 8 124803815.766 8      3389.048 8        48.139                  
  23486593.469 8 123422875.316 8     -3666.010 8        49.209                  
  23012947.782 8 120933859.640 8     -2827.707 8        51.189                  
  21776115.411 8 114434272.482 8      1779.852 8        53.745                  
  21317028.833 9 112021750.999 9      -812.003 9        56.108                  
  24969609.996 7 131216184.713 7     -1912.792 7        45.786                  
  20442094.638 9 107423952.625 9       858.151 9        56.298                  
 02  5 18 00 01  6.0000000  0  7G01G16G23G21G10G07G08                           
  23748729.552 8 124800422.169 8      3392.092 8        48.427                  
  23487290.468 8 123426543.329 8     -3664.422 8        48.788                  
  23013485.015 8 120936687.498 8     -2827.003 8        48.880                  
  21775779.938 8 114432491.913 8      1779.895 8        52.030                  
  21317182.703 9 112022562.814 9      -812.130 9        56.325                  
  24969970.879 7 131218096.992 7     -1910.493 7        46.428                  
  20441934.710 9 107423095.154 9       857.032 9        57.027                  
 02  5 18 00 01  7.0000000  0  7G01G16G23G21G10G07G08                           
  23748085.463 8 124797028.723 8      3392.591 8        49.178                  
  23487989.665 8 123430211.541 8     -3668.268 8        50.152                  
  23014023.247 8 120939515.762 8     -2827.344 8        48.923                  
  21775443.053 8 114430711.640 8      1779.829 8        52.923                  
  21317336.662 9 112023375.226 9      -813.274 9        54.948                  
  24970337.480 7 131220009.640 7     -1914.430 7        46.143                  
  20441772.817 9 107422238.146 9       856.574 9        57.068                  
 02  5 18 00 01  8.0000000  0  7G01G16G23G21G10G07G08                           
  23747438.568 8 124793635.467 8      3393.927 8        48.890                  
  23488687.414 8 123433879.933 8     -3666.720 8        50.796                  
  23014562.427 8 120942344.417 8     -2828.543 8        49.933                  
  21775100.897 8 114428931.669 8      1778.966 8        52.583                  
  21317491.426 9 112024188.271 9      -813.296 9        57.848                  
  24970700.025 8 131221922.639 8     -1914.162 8        48.190                  
  20441607.314 9 107421381.601 9       857.243 9        58.692                  
 02  5 18 00 01  9.0000000  0  7G01G16G23G21G10G07G08                           
  23746792.496 8 124790242.353 8      3391.218 8        48.027                  
  23489384.413 8 123437548.528 8     -3667.220 8        48.442                  
  23015099.338 8 120945173.476 8     -2829.959 8        50.451                  
  21774760.474 8 114427151.990 8      1780.312 8        53.914                  
  21317645.475 9 112025001.930 9      -813.810 9        55.602                  
  24971064.499 8 131223835.982 8     -1912.733 8        48.047                  
  20441442.562 9 107420525.537 9       855.923 9        57.489                  
 02  5 18 00 01 10.0000000  0  7G01G16G23G21G10G07G08                           
  23746148.782 8 124786849.394 8      3397.265 8        49.663                  
  23490083.825 8 123441217.312 8     -3669.608 8        49.564                  
  23015639.447 8 120948002.930 8     -2828.590 8        50.119                  
  21774425.126 8 114425372.613 8      1779.872 8        53.373                  
  21317800.560 9 112025816.190 9      -814.381 9        54.984                  
  24971429.760 8 131225749.682 8     -1914.153 8        48.425                  
  20441277.541 9 107419669.949 9       855.830 9        56.888                  
 02  5 18 00 01 11.0000000  0  7G01G16G23G21G10G07G08                           
  23745502.299 7 124783456.614 7      3393.348 7        47.540                  
  23490781.896 8 123444886.279 8     -3669.684 8        50.918                  
  23016176.500 8 120950832.753 8     -2827.748 8        50.589                  
  21774088.474 8 114423593.533 8      1779.056 8        51.791                  
  21317955.342 9 112026631.045 9      -815.053 9        56.144                  
  24971791.840 8 131227663.729 8     -1913.670 8        48.149                  
  20441111.842 9 107418814.837 9       854.972 9        57.310                  
 02  5 18 00 01 12.0000000  0  7G01G16G23G21G10G07G08                           
  23744855.887 8 124780063.977 8      3389.540 8        49.999                  
  23491479.467 8 123448555.446 8     -3669.312 8        51.403                  
  23016715.734 8 120953662.963 8     -2829.949 8        50.664                  
  21773745.228 8 114421814.764 8      1779.355 8        53.131                  
  21318109.748 9 112027446.519 9      -816.640 9        57.108                  
  24972158.744 7 131229578.130 7     -1918.453 7        47.877                  
  20440946.553 9 107417960.178 9       854.478 9        57.352                  
 02  5 18 00 01 13.0000000  0  7G01G16G23G21G10G07G08                           
  23744211.298 8 124776671.505 8      3391.713 8        48.966                  
  23492178.503 8 123452224.792 8     -3669.395 8        50.376                  
  23017255.253 8 120956493.562 8     -2828.607 8        50.184                  
  21773406.377 8 114420036.306 8      1778.243 8        52.767                  
  21318266.030 9 112028262.629 9      -816.410 9        56.969                  
  24972519.091 7 131231492.871 7     -1913.258 7        46.490                  
  20440784.410 9 107417105.995 9       854.123 9        56.038                  
 02  5 18 00 01 14.0000000  0  7G01G16G23G21G10G07G08                           
  23743565.815 8 124773279.202 8      3392.187 8        48.569                  
  23492876.288 8 123455894.338 8     -3670.832 8        49.975                  
  23017792.396 8 120959324.566 8     -2830.583 8        50.850                  
  21773072.709 8 114418258.155 8      1778.606 8        51.988                  
  21318421.151 9 112029079.330 9      -816.833 9        54.917                  
  24972887.372 7 131233407.973 7     -1915.977 7        46.570                  
  20440624.053 9 107416252.288 9       854.177 9        54.649                  
 02  5 18 00 01 15.0000000  0  7G01G16G23G21G10G07G08                           
  23742918.849 8 124769887.055 8      3390.615 8        48.708                  
  23493573.967 8 123459564.080 8     -3669.918 8        49.045                  
  23018333.863 8 120962155.968 8     -2830.898 8        50.294                  
  21772733.484 8 114416480.292 8      1778.188 8        52.841                  
  21318576.290 9 112029896.630 9      -817.226 9        55.310                  
  24973249.648 7 131235323.428 7     -1916.104 7        46.909                  
  20440463.804 9 107415399.060 9       853.195 9        55.707                  
 02  5 18 00 01 16.0000000  0  7G01G16G23G21G10G07G08                           
  23742273.795 8 124766495.061 8      3395.031 8        48.234                  
  23494273.932 8 123463233.996 8     -3672.086 8        49.588                  
  23018869.988 8 120964987.752 8     -2831.743 8        50.732                  
  21772392.310 8 114414702.739 8      1778.254 8        52.836                  
  21318731.358 9 112030714.537 9      -818.504 9        55.979                  
  24973615.838 7 131237239.229 7     -1915.940 7        46.184                  
  20440303.823 9 107414546.308 9       853.054 9        56.603                  
 02  5 18 00 01 17.0000000  0  7G01G16G23G21G10G07G08                           
  23741629.724 7 124763103.249 7      3388.895 7        46.926                  
  23494971.199 8 123466904.115 8     -3670.897 8        50.234                  
  23019409.275 8 120967819.905 8     -2834.098 8        50.225                  
  21772053.782 9 114412925.472 9      1777.477 9        54.415                  
  21318887.997 9 112031533.086 9      -819.215 9        56.123                  
  24973980.742 8 131239155.390 8     -1916.849 8        48.115                  
  20440143.252 9 107413694.011 9       852.010 9        57.662                  
 02  5 18 00 01 18.0000000  0  7G01G16G23G21G10G07G08                           
  23740983.938 7 124759711.579 7      3392.965 7        47.717                  
  23495669.449 8 123470574.416 8     -3672.517 8        49.397                  
  23019949.169 8 120970652.452 8     -2830.601 8        49.601                  
  21771719.292 8 114411148.520 8      1775.584 8        53.196                  
  21319043.762 9 112032352.234 9      -820.193 9        55.372                  
  24974342.553 7 131241071.889 7     -1914.785 7        47.700                  
  20439983.771 9 107412842.189 9       850.983 9        57.426                  
 02  5 18 00 01 19.0000000  0  7G01G16G23G21G10G07G08                           
  23740337.043 7 124756320.076 7      3392.727 7        47.747                  
  23496368.503 8 123474244.912 8     -3669.740 8        50.746                  
  23020485.776 8 120973485.406 8     -2832.119 8        50.265                  
  21771381.442 8 114409371.842 8      1774.968 8        52.676                  
  21319200.973 9 112033171.976 9      -819.745 9        54.665                  
  24974711.120 8 131242988.739 8     -1916.071 8        48.140                  
  20439822.199 9 107411990.844 9       850.792 9        56.584                  
 02  5 18 00 01 20.0000000  0  7G01G16G23G21G10G07G08                           
  23739693.741 7 124752928.998 7      3389.616 7        47.298                  
  23497066.682 8 123477915.470 8     -3671.967 8        50.065                  
  23021027.333 8 120976318.632 8     -2831.799 8        50.787                  
  21771039.554 8 114407595.703 8      1774.767 8        50.988                  
  21319357.971 8 112033992.153 8      -819.463 8        53.408                  
  24975072.396 7 131244906.295 7     -1918.432 7        47.203                  
  20439658.590 9 107411140.080 9       849.407 9        56.528                  
 02  5 18 00 01 21.0000000  0  7G01G16G23G21G10G07G08                           
  23739049.562 7 124749549.223 7      3371.588 7        46.106                  
  23497763.591 8 123481580.740 8     -3662.492 8        51.081                  
  23021565.083 8 120979147.142 8     -2824.014 8        51.717                  
  21770703.598 8 114405829.015 8      1759.725 8        51.092                  
  21319513.610 9 112034806.298 9      -808.372 9        55.022                  
  24975443.946 7 131246838.939 7     -1948.597 7        43.275                  
  20439496.053 9 107410294.176 9       841.542 9        57.239                  
 02  5 18 00 01 22.0000000  0  7G01G16G23G21G10G07G08                           
  23738414.051 6 124746189.265 6      3349.582 6        38.130                  
  23498461.663 8 123485237.021 8     -3651.744 8        50.819                  
  23022102.208 8 120981967.517 8     -2816.122 8        53.555                  
  21770372.110 7 114404078.397 7      1746.555 7        43.174                  
  21319666.461 8 112035609.872 8      -796.345 8        51.497                  
  24975812.888 7 131248797.039 7     -1970.304 7        44.150                  
  20439334.392 9 107409456.066 9       834.205 9        59.264                  
 02  5 18 00 01 23.0000000  0  7G01G16G23G21G10G07G08                           
  23737774.232 8 124742847.258 8      3334.398 8        49.900                  
  23499156.911 6 123488884.203 6     -3647.030 6        41.759                  
  23022636.742 7 120984779.741 7     -2812.227 7        45.824                  
  21770044.482 8 114402343.038 8      1728.490 8        51.359                  
  21319818.384 7 112036402.447 7      -787.260 7        44.624                  
  24976193.230 8 131250779.716 8     -1995.378 8        50.213                  
  20439174.911 9 107408625.765 9       827.499 9        56.866                  
 02  5 18 00 01 24.0000000  0  7G01G16G23G21G10G07G08                           
  23737141.294 8 124739519.145 8      3328.683 8        53.089                  
  23499854.303 6 123492524.921 6     -3642.426 6        36.067                  
  23023179.603 5 120987585.700 5     -2805.483 5        35.786                  
  21769713.780 9 114400619.238 9      1723.104 9        58.837                  
  21319966.965 8 112037187.854 8      -785.863 8        53.089                  
  24976571.375 7 131252780.920 7     -2008.077 7        45.500                  
  20439019.201 7 107407801.333 7       825.901 7        47.757                  
 02  5 18 00 01 25.0000000  0  7G01G16G23G21G10G07G08                           
  23736507.944 8 124736192.205 8      3326.181 8        49.834                  
  23500542.081 7 123496165.377 7     -3639.951 7        47.760                  
  23023704.648 7 120990391.942 7     -2805.599 7        47.052                  
  21769383.167 9 114398896.535 9      1722.639 9        59.594                  
  21320116.546 9 112037973.285 9      -786.500 9        57.200                  
  24976985.239 6 131254783.556 6     -2007.548 6        36.371                  
  20438859.702 7 107406977.727 7       820.739 7        44.680                  
 02  5 18 00 01 26.0000000  0  7G01G16G23G21G10G07G08                           
  23735875.238 7 124732865.665 7      3327.983 7        45.956                  
  23501231.093 7 123499806.603 7     -3641.899 7        46.843                  
  23024235.323 7 120993198.230 7     -2806.485 7        47.513                  
  21769056.289 8 114397174.434 8      1723.475 8        52.264                  
  21320266.592 9 112038758.957 9      -787.178 9        54.159                  
  24977333.578 7 131256786.603 7     -2001.728 7        45.477                  
  20438699.166 7 107406154.460 7       824.947 7        46.250                  
 02  5 18 00 01 27.0000000  0  7G01G16G23G21G10G07G08                           
  23735241.495 7 124729528.072 7      3346.163 7        43.198                  
  23501924.429 7 123503452.699 7     -3651.969 7        43.159                  
  23024779.542 7 120996010.347 7     -2820.743 7        42.700                  
  21768732.252 7 114395444.319 7      1738.580 7        47.057                  
  21320416.442 8 112039551.199 8      -797.977 8        49.982                  
  24977714.813 7 131258775.638 7     -1976.282 7        46.522                  
  20438541.115 6 107405327.671 6       819.697 6        38.251                  
 02  5 18 00 01 28.0000000  0  7G01G16G23G21G10G07G08                           
  23734598.228 6 124726171.044 6      3365.370 6        38.428                  
  23502622.572 6 123507108.579 6     -3659.567 6        38.048                  
  23025306.678 6 120998831.765 6     -2825.173 6        37.815                  
  21768400.692 7 114393697.453 7      1754.248 7        43.123                  
  21320569.991 7 112040355.746 7      -810.234 7        43.818                  
  24978088.580 7 131260739.729 7     -1950.674 7        43.311                  
  20438386.798 6 107404493.228 6       837.514 6        40.135                  
 02  5 18 00 01 29.0000000  0  7G01G16G23G21G10G07G08                           
  23733958.177 5 124722798.054 5      3372.561 5        35.839                  
  23503318.427 5 123510772.827 5     -3665.298 5        35.306                  
  23025844.106 5 121001660.859 5     -2830.656 5        35.175                  
  21768061.788 6 114391937.597 6      1761.514 6        39.700                  
  21320724.933 6 112041171.534 6      -819.330 6        40.492                  
  24978459.969 6 131262682.256 6     -1941.820 6        40.593                  
  20438228.747 7 107403653.542 7       840.895 7        42.333                  
 02  5 18 00 01 30.0000000  0  7G01G16G23G21G10G07G08                           
  23733324.756 5 124719426.906 5      3369.146 5        33.972                  
  23504020.501 5 123514436.694 5     -3669.730 5        33.907                  
  23026382.214 5 121004489.441 5     -2827.215 5        34.067                  
  21767727.691 5 114390179.404 5      1755.950 5        35.010                  
  21320876.855 5 112041986.949 5      -809.309 5        35.435                  
  24978826.463 5 131264627.213 5     -1951.726 5        35.528                  
  20438068.229 9 107402814.509 9       838.050 9        56.828                  
 02  5 18 00 01 31.0000000  0  7G01G16G23G21G10G07G08                           
  23732681.418 5 124716061.878 5      3363.161 5        33.749                  
  23504722.164 5 123518099.439 5     -3666.740 5        33.901                  
  23026915.229 5 121007314.915 5     -2822.034 5        33.755                  
  21767396.132 5 114388426.215 5      1749.613 5        33.865                  
  21321030.082 5 112042799.443 5      -808.745 5        34.074                  
  24979197.406 5 131266579.579 5     -1954.448 5        33.672                  
  20437910.642 8 107401978.384 8       835.017 8        53.297                  
 02  5 18 00 01 32.0000000  0  7G01G16G23G21G10G07G08                           
  23732047.389 5 124712705.020 5      3354.824 5        33.558                  
  23505420.110 5 123521762.637 5     -3661.669 5        33.812                  
  23027454.445 5 121010135.139 5     -2821.775 5        33.916                  
  21767075.043 5 114386679.393 5      1744.229 5        33.943                  
  21321180.700 5 112043607.790 5      -810.817 5        33.974                  
  24979572.155 5 131268540.796 5     -1966.912 5        33.464                  
  20437754.806 8 107401145.913 8       833.345 8        48.690                  
 02  5 18 00 01 33.0000000  0  7G01G16G23G21G10G07G08                           
  23731407.142 5 124709344.984 5      3364.377 5        33.805                  
  23506115.733 5 123525421.659 5     -3658.321 5        33.758                  
  23027986.424 5 121012960.153 5     -2831.089 5        33.759                  
  21766740.928 5 114384930.839 5      1748.183 5        34.109                  
  21321332.676 5 112044418.678 5      -815.777 5        34.137                  
  24979950.693 5 131270500.893 5     -1956.793 5        34.232                  
  20437595.915 8 107400312.912 8       832.869 8        52.890                  
 02  5 18 00 01 34.0000000  0  7G01G16G23G21G10G07G08                           
  23730767.520 5 124705981.352 5      3362.476 5        33.801                  
  23506812.268 5 123529076.832 5     -3650.925 5        33.690                  
  23028527.247 5 121015790.037 5     -2825.788 5        34.017                  
  21766405.008 5 114383180.181 5      1753.780 5        35.497                  
  21321489.691 5 112045232.364 5      -806.856 5        35.521                  
  24980320.760 6 131272459.284 6     -1958.009 6        37.410                  
  20437439.793 8 107399478.787 8       831.712 8        53.566                  
 02  5 18 00 01 35.0000000  0  7G01G16G23G21G10G07G08                           
  23730134.385 5 124702623.531 5      3358.710 5        33.904                  
  23507509.678 5 123532733.128 5     -3655.405 5        33.841                  
  23029062.603 5 121018615.970 5     -2848.280 5        33.991                  
  21766067.945 5 114381434.040 5      1742.611 5        35.765                  
  21321641.578 6 112046043.350 6      -808.065 6        36.103                  
  24980697.850 6 131274423.690 6     -1968.396 6        36.460                  
  20437282.957 8 107398648.504 8       831.370 8        50.511                  
 02  5 18 00 01 36.0000000  0  7G01G16G23G21G10G07G08                           
  23729494.674 5 124699268.992 5      3353.083 5        35.232                  
  23508205.730 5 123536387.174 5     -3652.012 5        35.442                  
  23029597.191 5 121021436.684 5     -2820.477 5        35.479                  
  21765741.299 6 114379690.852 6      1741.503 6        38.377                  
  21321796.092 6 112046851.002 6      -815.018 6        39.787                  
  24981071.652 6 131276393.008 6     -1971.075 6        38.862                  
  20437128.747 8 107397819.177 8       846.694 8        49.816                  
 02  5 18 00 01 37.0000000  0  6G16G23G21G10G07G08                              
  23508894.331 6 123540040.712 6     -3652.487 6        41.783                  
  23030136.603 6 121024258.201 6     -2810.125 6        40.536                  
  21765407.613 7 114377951.878 7      1740.006 7        44.735                  
  21321958.485 7 112047658.762 7      -807.481 7        46.282                  
  24981442.631 6 131278364.740 6     -1972.421 6        41.045                  
  20436966.068 7 107396991.131 7       828.138 7        44.500                  
 02  5 18 00 01 38.0000000  0  6G16G23G21G10G07G08                              
  23509589.168 7 123543692.262 7     -3652.880 7        43.102                  
  23030679.732 7 121027083.304 7     -2824.287 7        44.900                  
  21765080.038 8 114376212.525 8      1747.459 8        51.708                  
  21322099.239 7 112048467.566 7      -810.015 7        46.958                  
  24981821.419 7 131280339.778 7     -1972.048 7        42.865                  
  20436807.105 8 107396164.431 8       827.021 8        51.511                  
 02  5 18 00 01 39.0000000  0  6G16G23G21G10G07G08                              
  23510288.597 6 123547345.417 6     -3655.005 6        38.328                  
  23031210.871 6 121029910.054 6     -2827.634 6        37.788                  
  21764746.209 7 114374467.514 7      1758.342 7        42.920                  
  21322258.292 7 112049281.738 7      -815.595 7        43.725                  
  24982200.885 6 131282310.993 6     -1966.937 6        40.637                  
  20436648.911 8 107395336.892 8       828.428 8        51.423                  
 02  5 18 00 01 40.0000000  0  6G16G23G21G10G07G08                              
  23510985.739 6 123551001.914 6     -3656.114 6        36.019                  
  23031755.179 5 121032739.501 5     -2834.571 5        34.721                  
  21764412.666 6 114372717.554 6      1746.354 6        37.205                  
  21322414.592 6 112050096.818 6      -817.656 6        37.908                  
  24982573.347 6 131284275.633 6     -1962.511 6        36.358                  
  20436492.217 8 107394506.582 8       822.200 8        48.055                  
 02  5 18 00 01 41.0000000  0  6G16G23G21G10G07G08                              
  23511680.094 5 123554653.783 5     -3647.225 5        34.195                  
  23032294.288 5 121035573.493 5     -2840.957 5        33.981                  
  21764084.055 5 114370970.452 5      1745.777 5        35.963                  
  21322569.963 6 112050914.036 6      -819.400 6        36.285                  
  24982952.635 6 131286239.933 6     -1981.556 6        37.354                  
  20436330.306 8 107393678.574 8       826.947 8        50.643                  
 02  5 18 00 01 42.0000000  0  6G16G23G21G10G07G08                              
  23512377.575 5 123558306.525 5     -3655.746 5        33.820                  
  23032831.556 5 121038407.931 5     -2837.020 5        33.995                  
  21763753.174 5 114369223.174 5      1752.079 5        34.491                  
  21322725.209 5 112051732.192 5      -807.028 5        34.700                  
  24983320.540 5 131288203.815 5     -1960.779 5        35.038                  
  20436173.988 7 107392850.617 7       827.106 7        42.499                  
