     2.11           OBSERVATION DATA    G                   RINEX VERSION / TYPE
BLANK OR G = GPS,  R = GLONASS,  E = GALILEO,  M = MIXED    COMMENT             
GNSS-SDR            joel                 5-MAY-25 09:50     PGM / RUN BY / DATE 
GPS OBSERVATION DATA FILE GENERATED BY GNSS-SDR             COMMENT             
GNSS-SDR VERSION 0.0.16                                     COMMENT             
See https://gnss-sdr.org                                    COMMENT             
DEFAULT MARKER NAME                                         MARKER NAME         
joel                CTTC                                    OBSERVER / AGENCY   
GNSS-SDR            Software Receiver   0.0.16              REC # / TYPE / VERS 
Antenna number      Antenna type                            ANT # / TYPE        
        0.0000        0.0000        0.0000                  APPROX POSITION XYZ 
        0.0000        0.0000        0.0000                  ANTENNA: DELTA H/E/N
     1     1                                                WAVELENGTH FACT L1/2
     4    C1    L1    D1    S1                              # / TYPES OF OBSERV 
  2002    05    18    00    00   42.1200000     GPS         TIME OF FIRST OBS   
    18                                                      LEAP SECONDS        
                                                            END OF HEADER       
 02  5 18 00 00 43.0000000  0  7G01G16G10G23G21G07G08                           
  23763590.575 7 124878514.381 7      3399.658 7        46.685                  
  23471245.318 8 123342230.695 8     -3662.957 8        49.410                  
  21313658.628 9 112004039.667 9      -798.322 9        54.378                  
  23001127.120 8 120871743.352 8     -2818.427 8        49.977                  
  21783585.556 8 114473515.344 8      1786.660 8        53.262                  
  24961618.666 7 131174189.514 7     -1906.862 7        45.648                  
  20445704.806 9 107442908.360 9       868.245 9        55.799                  
 02  5 18 00 00 44.0000000  0  7G01G16G10G23G21G07G08                           
  23762945.646 7 124875117.259 7      3394.704 7        46.773                  
  23471943.997 8 123345894.470 8     -3663.464 8        50.498                  
  21313811.158 8 112004838.024 8      -799.547 8        53.922                  
  23001664.781 8 120874562.620 8     -2818.296 8        50.208                  
  21783249.386 9 114471728.133 9      1786.420 9        54.225                  
  24961982.050 7 131176094.041 7     -1909.754 7        46.113                  
  20445541.823 9 107442040.516 9       867.788 9        56.824                  
 02  5 18 00 00 45.0000000  0  7G01G16G10G23G21G07G08                           
  23762299.037 7 124871720.310 7      3394.047 7        47.508                  
  23472640.942 8 123349558.442 8     -3662.051 8        50.284                  
  21313963.009 9 112005637.022 9      -798.023 9        54.603                  
  23002198.958 8 120877382.250 8     -2818.292 8        51.042                  
  21782906.747 8 114469941.232 8      1786.937 8        53.223                  
  24962342.718 7 131177998.923 7     -1904.919 7        46.798                  
  20445380.215 9 107441173.149 9       867.240 9        57.366                  
 02  5 18 00 00 46.0000000  0  7G01G16G10G23G21G07G08                           
  23761651.268 8 124868323.515 8      3395.411 8        48.425                  
  23473337.638 8 123353222.599 8     -3665.622 8        49.296                  
  21314115.217 9 112006436.619 9      -799.387 9        54.140                  
  23002736.494 8 120880202.292 8     -2822.658 8        50.580                  
  21782563.591 8 114468154.641 8      1786.863 8        53.642                  
  24962709.087 7 131179904.164 7     -1905.523 7        45.000                  
  20445215.677 9 107440306.259 9       866.657 9        56.301                  
 02  5 18 00 00 47.0000000  0  7G01G16G10G23G21G07G08                           
  23761005.749 7 124864926.872 7      3392.826 7        47.631                  
  23474035.762 8 123356886.951 8     -3665.608 8        50.495                  
  21314268.426 8 112007236.812 8      -801.053 8        53.806                  
  23003272.493 8 120883022.723 8     -2822.778 8        49.775                  
  21782227.313 8 114466368.352 8      1785.595 8        52.255                  
  24963068.451 7 131181809.745 7     -1907.404 7        45.935                  
  20445048.388 9 107439439.823 9       865.998 9        55.628                  
 02  5 18 00 00 48.0000000  0  7G01G16G10G23G21G07G08                           
  23760360.123 7 124861530.391 7      3396.570 7        47.363                  
  23474732.958 8 123360551.505 8     -3664.554 8        50.449                  
  21314420.188 9 112008037.612 9      -801.065 9        56.892                  
  23003811.887 8 120885843.546 8     -2822.551 8        50.782                  
  21781887.784 8 114464582.358 8      1785.175 8        52.289                  
  24963433.193 7 131183715.684 7     -1905.931 7        46.249                  
  20444880.991 9 107438573.862 9       864.960 9        57.933                  
 02  5 18 00 00 49.0000000  0  7G01G16G10G23G21G07G08                           
  23759712.157 8 124858134.070 8      3396.770 8        49.099                  
  23475429.636 8 123364216.251 8     -3667.129 8        50.706                  
  21314573.522 9 112008839.055 9      -802.222 9        57.283                  
  23004345.813 8 120888664.780 8     -2821.045 8        49.418                  
  21781545.610 8 114462796.662 8      1785.497 8        53.600                  
  24963795.166 7 131185621.983 7     -1907.277 7        46.822                  
  20444713.254 9 107437708.377 9       865.600 9        57.248                  
 02  5 18 00 00 50.0000000  0  7G01G16G10G23G21G07G08                           
  23759066.335 7 124854737.906 7      3396.926 7        47.095                  
  23476128.439 8 123367881.173 8     -3665.716 8        48.822                  
  21314726.070 9 112009641.095 9      -801.916 9        56.273                  
  23004883.796 8 120891486.407 8     -2822.126 8        49.604                  
  21781204.973 8 114461011.265 8      1787.108 8        53.316                  
  24964157.067 7 131187528.626 7     -1905.260 7        47.789                  
  20444545.267 9 107436843.361 9       864.888 9        58.655                  
 02  5 18 00 00 51.0000000  0  7G01G16G10G23G21G07G08                           
  23758421.620 7 124851341.914 7      3393.947 7        47.524                  
  23476824.831 8 123371546.307 8     -3665.741 8        50.493                  
  21314878.957 9 112010443.732 9      -802.751 9        54.768                  
  23005422.226 8 120894308.419 8     -2821.818 8        49.868                  
  21780869.393 8 114459226.167 8      1783.619 8        53.154                  
  24964522.918 7 131189435.629 7     -1906.473 7        47.338                  
  20444381.391 9 107435978.807 9       863.698 9        54.644                  
 02  5 18 00 00 52.0000000  0  7G01G16G10G23G21G07G08                           
  23757774.351 8 124847946.068 8      3397.273 8        48.302                  
  23477522.152 8 123375211.640 8     -3666.266 8        49.679                  
  21315031.934 9 112011246.989 9      -804.177 9        54.030                  
  23005957.170 8 120897130.815 8     -2822.210 8        51.388                  
  21780530.257 8 114457441.363 8      1784.993 8        51.515                  
  24964882.460 7 131191342.991 7     -1911.225 7        46.034                  
  20444219.229 9 107435114.730 9       864.513 9        56.365                  
 02  5 18 00 00 53.0000000  0  7G01G16G10G23G21G07G08                           
  23757127.170 7 124844550.395 7      3392.968 7        47.983                  
  23478221.009 8 123378877.143 8     -3662.337 8        49.511                  
  21315184.839 9 112012050.876 9      -805.067 9        55.026                  
  23006496.904 8 120899953.603 8     -2823.639 8        49.662                  
  21780186.189 8 114455656.858 8      1784.911 8        51.856                  
  24965249.383 7 131193250.699 7     -1908.671 7        46.804                  
  20444056.979 9 107434251.131 9       863.388 9        57.117                  
 02  5 18 00 00 54.0000000  0  7G01G16G10G23G21G07G08                           
  23756482.563 7 124841154.880 7      3394.631 7        46.983                  
  23478916.865 8 123382542.856 8     -3665.984 8        50.116                  
  21315338.173 9 112012855.360 9      -805.135 9        54.012                  
  23007032.135 8 120902776.776 8     -2824.037 8        50.434                  
  21779846.999 8 114453872.667 8      1784.016 8        53.871                  
  24965609.122 7 131195158.759 7     -1906.411 7        46.840                  
  20443895.228 9 107433388.008 9       863.164 9        54.953                  
 02  5 18 00 00 55.0000000  0  7G01G16G10G23G21G07G08                           
  23755836.777 8 124837759.514 8      3394.894 8        48.819                  
  23479614.686 8 123386208.755 8     -3667.142 8        49.607                  
  21315491.185 9 112013660.441 9      -805.411 9        54.168                  
  23007570.690 8 120905600.340 8     -2822.342 8        49.875                  
  21779511.633 8 114452088.796 8      1782.391 8        53.362                  
  24965973.632 7 131197067.174 7     -1908.902 7        47.059                  
  20443734.175 9 107432525.338 9       862.138 9        56.855                  
 02  5 18 00 00 56.0000000  0  7G01G16G10G23G21G07G08                           
  23755189.418 7 124834364.319 7      3392.531 7        46.764                  
  23480314.133 7 123389874.845 7     -3668.111 7        47.431                  
  21315644.788 9 112014466.138 9      -806.159 9        54.596                  
  23008107.868 8 120908424.322 8     -2824.754 8        51.900                  
  21779171.585 9 114450305.209 9      1782.477 9        54.236                  
  24966337.571 7 131198975.942 7     -1904.863 7        46.364                  
  20443571.674 9 107431663.145 9       861.547 9        56.023                  
 02  5 18 00 00 57.0000000  0  7G01G16G10G23G21G07G08                           
  23754544.704 8 124830969.285 8      3395.870 8        48.678                  
  23481009.542 7 123393541.124 7     -3663.698 7        47.427                  
  21315798.318 9 112015272.470 9      -806.512 9        55.392                  
  23008644.314 8 120911248.685 8     -2824.430 8        50.932                  
  21778828.107 8 114448521.933 8      1784.755 8        51.746                  
  24966698.364 7 131200885.067 7     -1912.589 7        45.970                  
  20443405.295 9 107430801.429 9       861.562 9        58.269                  
 02  5 18 00 00 58.0000000  0  7G01G16G10G23G21G07G08                           
  23753898.238 8 124827574.403 8      3397.161 8        48.508                  
  23481707.827 7 123397207.601 7     -3665.660 7        47.746                  
  21315952.063 9 112016079.397 9      -806.614 9        55.505                  
  23009182.815 8 120914073.446 8     -2825.113 8        50.082                  
  21778490.347 8 114446738.946 8      1783.066 8        51.998                  
  24967065.072 7 131202794.535 7     -1911.451 7        45.927                  
  20443239.113 9 107429940.189 9       861.866 9        57.003                  
 02  5 18 00 00 59.0000000  0  7G01G16G10G23G21G07G08                           
  23753251.183 8 124824179.693 8      3395.399 8        49.064                  
  23482406.435 8 123400874.282 8     -3666.671 8        48.539                  
  21316105.951 9 112016886.921 9      -807.614 9        56.594                  
  23009718.689 8 120916898.586 8     -2824.304 8        49.974                  
  21778155.035 8 114444956.266 8      1782.957 8        50.761                  
  24967425.401 7 131204704.368 7     -1910.958 7        44.704                  
  20443072.681 9 107429079.403 9       860.785 9        55.328                  
 02  5 18 00 01  0.0000000  0  7G01G16G10G23G21G07G08                           
  23752605.950 8 124820785.135 8      3397.684 8        49.810                  
  23483102.791 8 123404541.138 8     -3670.332 8        48.678                  
  21316259.607 9 112017695.078 9      -807.984 9        57.453                  
  23010258.637 8 120919724.103 8     -2826.644 8        51.599                  
  21777813.558 8 114443173.873 8      1780.452 8        52.415                  
  24967791.180 7 131206614.536 7     -1908.942 7        46.991                  
  20442905.695 9 107428219.093 9       859.881 9        57.009                  
 02  5 18 00 01  1.0000000  0  7G01G16G10G23G21G07G08                           
  23751959.949 8 124817390.734 8      3396.033 8        50.113                  
  23483801.255 8 123408208.194 8     -3665.182 8        49.371                  
  21316414.085 9 112018503.852 9      -808.682 9        55.348                  
  23010795.048 8 120922550.020 8     -2823.870 8        49.266                  
  21777470.329 8 114441391.790 8      1782.227 8        53.962                  
  24968153.278 7 131208525.075 7     -1912.366 7        47.389                  
  20442740.407 9 107427359.259 9       859.802 9        56.639                  
 02  5 18 00 01  2.0000000  0  7G01G16G10G23G21G07G08                           
  23751313.252 8 124813996.503 8      3395.663 8        49.060                  
  23484499.898 8 123411875.442 8     -3666.629 8        49.139                  
  21316567.383 9 112019313.225 9      -810.821 9        54.344                  
  23011333.155 8 120925376.329 8     -2824.965 8        50.188                  
  21777134.713 8 114439609.991 8      1782.118 8        50.755                  
  24968517.824 7 131210435.945 7     -1912.135 7        45.646                  
  20442578.603 9 107426499.904 9       858.941 9        57.195                  
 02  5 18 00 01  3.0000000  0  7G01G16G10G23G21G07G08                           
  23750668.001 8 124810602.425 8      3396.409 8        48.964                  
  23485196.111 8 123415542.864 8     -3666.802 8        51.017                  
  21316721.003 9 112020123.192 9      -810.318 9        55.029                  
  23011872.049 8 120928203.043 8     -2826.670 8        50.902                  
  21776798.669 8 114437828.515 8      1781.647 8        51.977                  
  24968882.066 7 131212347.184 7     -1910.573 7        44.744                  
  20442416.924 9 107425641.000 9       858.083 9        55.571                  
 02  5 18 00 01  4.0000000  0  7G01G16G10G23G21G07G08                           
  23750023.197 8 124807208.501 8      3390.052 8        49.242                  
  23485895.415 8 123419210.508 8     -3667.957 8        52.149                  
  21316875.052 9 112020933.780 9      -810.894 9        54.687                  
  23012407.513 8 120931030.149 8     -2826.555 8        53.056                  
  21776456.405 9 114436047.350 9      1780.653 9        54.057                  
  24969242.842 7 131214258.774 7     -1910.250 7        45.160                  
  20442255.888 9 107424782.575 9       858.137 9        56.761                  
 02  5 18 00 01  5.0000000  0  7G01G16G10G23G21G07G08                           
  23749375.928 8 124803814.759 8      3389.176 8        48.125                  
  23486593.486 8 123422878.323 8     -3665.979 8        49.201                  
  21317028.779 9 112021744.999 9      -811.946 9        56.110                  
  23012947.729 8 120933857.640 8     -2827.675 8        51.165                  
  21776115.482 8 114434266.482 8      1779.854 8        53.735                  
  24969609.978 7 131216170.713 7     -1912.811 7        45.794                  
  20442094.638 9 107423924.625 9       858.141 9        56.314                  
 02  5 18 00 01  6.0000000  0  7G01G16G10G23G21G07G08                           
  23748729.552 8 124800421.162 8      3391.866 8        48.453                  
  23487290.628 8 123426546.336 8     -3664.359 8        48.784                  
  21317182.667 9 112022556.814 9      -812.118 9        56.330                  
  23013484.979 8 120936685.498 8     -2827.081 8        48.887                  
  21775779.956 8 114432485.913 8      1779.910 8        52.021                  
  24969970.915 7 131218082.992 7     -1910.562 7        46.439                  
  20441934.710 9 107423067.154 9       857.048 9        57.043                  
 02  5 18 00 01  7.0000000  0  7G01G16G10G23G21G07G08                           
  23748085.516 8 124797027.716 8      3392.539 8        49.214                  
  23487989.665 8 123430214.549 8     -3668.239 8        50.144                  
  21317336.645 9 112023369.226 9      -813.297 9        54.965                  
  23014023.122 8 120939513.762 8     -2827.325 8        48.926                  
  21775443.071 8 114430705.640 8      1779.793 8        52.927                  
  24970337.462 7 131219995.640 7     -1914.443 7        46.129                  
  20441772.817 9 107422210.146 9       856.592 9        57.080                  
 02  5 18 00 01  8.0000000  0  7G01G16G10G23G21G07G08                           
  23747438.676 8 124793634.460 8      3393.827 8        48.852                  
  23488687.450 8 123433882.940 8     -3666.765 8        50.790                  
  21317491.390 9 112024182.271 9      -813.302 9        57.858                  
  23014562.356 8 120942342.417 8     -2828.534 8        49.935                  
  21775100.933 8 114428925.669 8      1778.950 8        52.590                  
  24970700.025 8 131221908.639 8     -1914.161 8        48.176                  
  20441607.314 9 107421353.601 9       857.243 9        58.686                  
 02  5 18 00 01  9.0000000  0  7G01G16G10G23G21G07G08                           
  23746792.550 8 124790241.345 8      3391.576 8        48.039                  
  23489384.413 8 123437551.535 8     -3667.067 8        48.445                  
  21317645.457 9 112024995.930 9      -813.801 9        55.610                  
  23015099.284 8 120945171.476 8     -2829.934 8        50.440                  
  21774760.510 8 114427145.990 8      1780.310 8        53.920                  
  24971064.571 8 131223821.982 8     -1912.750 8        48.038                  
  20441442.580 9 107420497.537 9       855.912 9        57.485                  
 02  5 18 00 01 10.0000000  0  7G01G16G10G23G21G07G08                           
  23746148.764 8 124786848.386 8      3397.285 8        49.633                  
  23490083.896 8 123441220.319 8     -3669.533 8        49.551                  
  21317800.542 9 112025810.190 9      -814.374 9        54.991                  
  23015639.340 8 120948000.930 8     -2828.596 8        50.124                  
  21774425.162 8 114425366.613 8      1779.838 8        53.374                  
  24971429.813 8 131225735.682 8     -1914.135 8        48.429                  
  20441277.524 9 107419641.949 9       855.832 9        56.891                  
 02  5 18 00 01 11.0000000  0  7G01G16G10G23G21G07G08                           
  23745502.335 7 124783455.607 7      3393.358 7        47.507                  
  23490781.950 8 123444889.285 8     -3669.782 8        50.926                  
  21317955.306 9 112026625.045 9      -815.046 9        56.142                  
  23016176.465 8 120950830.753 8     -2827.732 8        50.592                  
  21774088.474 8 114423587.533 8      1779.040 8        51.794                  
  24971791.876 8 131227649.729 8     -1913.684 8        48.150                  
  20441111.842 9 107418786.837 9       854.971 9        57.310                  
 02  5 18 00 01 12.0000000  0  7G01G16G10G23G21G07G08                           
  23744856.012 8 124780062.970 8      3389.707 8        50.026                  
  23491479.556 8 123448558.453 8     -3669.289 8        51.393                  
  21318109.712 9 112027440.512 9      -816.643 9        57.084                  
  23016715.680 8 120953660.963 8     -2829.884 8        50.660                  
  21773745.246 8 114421808.764 8      1779.370 8        53.133                  
  24972158.816 7 131229564.130 7     -1918.428 7        47.876                  
  20440946.553 9 107417932.178 9       854.466 9        57.355                  
 02  5 18 00 01 13.0000000  0  7G01G16G10G23G21G07G08                           
  23744211.280 8 124776670.498 8      3391.687 8        48.963                  
  23492178.539 8 123452227.799 8     -3669.361 8        50.380                  
  21318266.030 9 112028256.621 9      -816.416 9        56.968                  
  23017255.182 8 120956491.562 8     -2828.594 8        50.192                  
  21773406.431 8 114420030.306 8      1778.206 8        52.767                  
  24972519.073 7 131231478.871 7     -1913.254 7        46.499                  
  20440784.410 9 107417077.994 9       854.141 9        56.039                  
 02  5 18 00 01 14.0000000  0  7G01G16G10G23G21G07G08                           
  23743565.886 8 124773278.195 8      3392.242 8        48.580                  
  23492876.324 8 123455897.345 8     -3670.736 8        49.964                  
  21318421.116 9 112029073.323 9      -816.897 9        54.918                  
  23017792.325 8 120959322.566 8     -2830.558 8        50.850                  
  21773072.727 8 114418252.155 8      1778.648 8        51.982                  
  24972887.443 7 131233393.973 7     -1916.045 7        46.564                  
  20440624.053 9 107416224.288 9       854.212 9        54.648                  
 02  5 18 00 01 15.0000000  0  7G01G16G10G23G21G07G08                           
  23742918.921 8 124769886.048 8      3390.711 8        48.731                  
  23493574.020 8 123459567.087 8     -3670.030 8        49.049                  
  21318576.290 9 112029890.622 9      -817.238 9        55.319                  
  23018333.792 8 120962153.968 8     -2830.890 8        50.294                  
  21772733.519 8 114416474.292 8      1778.176 8        52.863                  
  24973249.648 7 131235309.428 7     -1916.198 7        46.912                  
  20440463.804 9 107415371.060 9       853.170 9        55.705                  
 02  5 18 00 01 16.0000000  0  7G01G16G10G23G21G07G08                           
  23742273.760 8 124766494.053 8      3395.013 8        48.228                  
  23494274.021 8 123463237.003 8     -3672.110 8        49.586                  
  21318731.340 9 112030708.530 9      -818.497 9        55.985                  
  23018869.880 8 120964985.752 8     -2831.757 8        50.713                  
  21772392.328 8 114414696.739 8      1778.235 8        52.845                  
  24973615.838 7 131237225.229 7     -1915.954 7        46.177                  
  20440303.823 9 107414518.308 9       853.057 9        56.602                  
 02  5 18 00 01 17.0000000  0  7G01G16G10G23G21G07G08                           
  23741629.706 7 124763102.242 7      3388.853 7        46.905                  
  23494971.271 8 123466907.122 8     -3670.721 8        50.234                  
  21318887.962 9 112031527.079 9      -819.291 9        56.137                  
  23019409.221 8 120967817.905 8     -2834.133 8        50.229                  
  21772053.835 9 114412919.472 9      1777.480 9        54.426                  
  24973980.742 8 131239141.390 8     -1917.000 8        48.105                  
  20440143.234 9 107413666.011 9       852.037 9        57.652                  
 02  5 18 00 01 18.0000000  0  7G01G16G10G23G21G07G08                           
  23740983.991 7 124759710.571 7      3392.881 7        47.708                  
  23495669.556 8 123470577.424 8     -3672.592 8        49.382                  
  21319043.744 9 112032346.227 9      -820.208 9        55.380                  
  23019949.062 8 120970650.452 8     -2830.501 8        49.602                  
  21771719.327 8 114411142.520 8      1775.607 8        53.201                  
  24974342.553 7 131241057.890 7     -1914.807 7        47.696                  
  20439983.771 9 107412814.189 9       851.011 9        57.420                  
 02  5 18 00 01 19.0000000  0  7G01G16G10G23G21G07G08                           
  23740337.061 7 124756319.068 7      3392.516 7        47.757                  
  23496368.503 8 123474247.919 8     -3669.741 8        50.732                  
  21319200.920 9 112033165.968 9      -819.823 9        54.671                  
  23020485.812 8 120973483.406 8     -2832.143 8        50.273                  
  21771381.478 8 114409365.842 8      1774.924 8        52.677                  
  24974711.156 8 131242974.739 8     -1916.122 8        48.140                  
  20439822.199 9 107411962.844 9       850.782 9        56.586                  
 02  5 18 00 01 20.0000000  0  7G01G16G10G23G21G07G08                           
  23739693.776 7 124752928.031 7      3388.147 7        47.303                  
  23497066.807 8 123477918.462 8     -3671.795 8        50.066                  
  21319357.953 8 112033986.129 8      -819.448 8        53.404                  
  23021027.243 8 120976316.608 8     -2832.049 8        50.798                  
  21771039.590 8 114407589.733 8      1774.829 8        50.977                  
  24975072.467 7 131244892.342 7     -1919.260 7        47.155                  
  20439658.572 9 107411112.088 9       849.274 9        56.546                  
 02  5 18 00 01 21.0000000  0  7G01G16G10G23G21G07G08                           
  23739049.813 7 124749549.125 7      3369.804 7        46.802                  
  23497763.681 8 123481583.796 8     -3660.596 8        53.346                  
  21319513.538 8 112034799.627 8      -809.385 8        50.386                  
  23021565.190 7 120979144.384 7     -2823.182 7        47.445                  
  21770703.563 8 114405823.781 8      1758.589 8        48.971                  
  24975443.107 7 131246825.829 7     -1944.256 7        47.148                  
  20439495.821 9 107410266.297 9       840.634 9        57.768                  
 02  5 18 00 01 22.0000000  0  7G01G16G10G23G21G07G08                           
  23738409.583 7 124746189.674 7      3349.945 7        46.760                  
  23498460.447 8 123485240.552 8     -3652.663 8        51.599                  
  21319665.818 8 112035602.501 8      -794.629 8        52.650                  
  23022101.851 8 120981963.679 8     -2816.664 8        50.626                  
  21770374.648 8 114404073.626 8      1742.809 8        52.217                  
  24975811.691 7 131248784.696 7     -1968.547 7        45.701                  
  20439334.428 8 107409428.625 8       833.934 8        49.884                  
 02  5 18 00 01 23.0000000  0  7G01G16G10G23G21G07G08                           
  23737774.375 7 124742849.200 7      3328.672 7        46.713                  
  23499154.284 7 123488889.181 7     -3657.642 7        46.566                  
  21319816.972 8 112036394.457 8      -787.175 8        50.694                  
  23022636.170 7 120984774.092 7     -2804.368 7        45.688                  
  21770045.339 8 114402339.302 8      1726.611 8        51.563                  
  24976193.320 7 131250768.592 7     -1992.992 7        45.009                  
  20439174.929 9 107408598.479 9       826.903 9        54.928                  
 02  5 18 00 01 24.0000000  0  7G01G16G10G23G21G07G08                           
  23737142.813 7 124739522.811 7      3327.168 7        47.572                  
  23499850.300 7 123492531.930 7     -3648.402 7        46.914                  
  21319966.125 8 112037178.870 8      -784.805 8        51.441                  
  23023170.150 7 120987578.386 7     -2804.939 7        47.657                  
  21769714.584 8 114400616.585 8      1720.652 8        51.258                  
  24976570.142 7 131252770.680 7     -2004.424 7        43.370                  
  20439016.342 9 107407774.022 9       824.631 9        56.655                  
 02  5 18 00 01 25.0000000  0  7G01G16G10G23G21G07G08                           
  23736509.356 7 124736196.528 7      3329.202 7        42.952                  
  23500541.224 7 123496176.394 7     -3645.018 7        45.251                  
  21320116.046 8 112037964.156 8      -786.974 8        53.010                  
  23023700.306 7 120990382.122 7     -2806.635 7        46.365                  
  21769384.543 8 114398893.976 8      1731.467 8        53.033                  
  24976955.737 7 131254772.176 7     -1993.125 7        45.176                  
  20438858.165 9 107406949.509 9       823.628 9        54.347                  
 02  5 18 00 01 26.0000000  0  7G01G16G10G23G21G07G08                           
  23735875.506 6 124732856.794 6      3346.966 6        40.818                  
  23501236.490 6 123499831.214 6     -3657.965 6        39.674                  
  21320267.647 7 112038757.953 7      -793.611 7        46.481                  
  23024237.127 8 120993190.992 8     -2817.619 8        48.634                  
  21769055.074 7 114397160.120 7      1739.994 7        43.511                  
  24977328.842 6 131256754.268 6     -1967.058 6        37.810                  
  20438698.559 7 107406119.482 7       838.690 7        46.855                  
 02  5 18 00 01 27.0000000  0  7G01G16G10G23G21G07G08                           
  23735237.653 7 124729510.960 7      3349.029 7        43.598                  
  23501932.899 6 123503496.420 6     -3676.659 6        37.096                  
  21320418.729 8 112039556.515 8      -794.016 8        51.616                  
  23024772.019 7 120995999.866 7     -2803.710 7        43.301                  
  21768728.875 7 114395420.326 7      1739.318 7        47.948                  
  24977707.469 6 131258724.763 6     -1967.446 6        40.304                  
  20438540.829 8 107405285.924 8       833.616 8        48.098                  
 02  5 18 00 01 28.0000000  0  7G01G16G10G23G21G07G08                           
  23734600.873 6 124726167.504 6      3334.213 6        37.628                  
  23502633.400 6 123507168.210 6     -3668.351 6        36.704                  
  21320570.938 7 112040354.133 7      -798.282 7        42.651                  
  23025303.747 6 120998804.432 6     -2803.836 6        37.219                  
  21768397.744 6 114393681.988 6      1732.058 6        41.661                  
  24978079.163 6 131260695.152 6     -1967.243 6        40.571                  
  20438381.652 8 107404451.859 8       834.654 8        53.506                  
 02  5 18 00 01 29.0000000  0  7G01G16G10G23G21G07G08                           
  23733962.966 5 124722820.785 5      3352.535 5        35.271                  
  23503331.132 6 123510847.752 6     -3672.387 6        36.338                  
  21320722.217 6 112041154.659 6      -803.609 6        38.805                  
  23025842.463 5 121001608.179 5     -2818.350 5        35.518                  
  21768063.361 6 114391940.258 6      1754.681 6        37.708                  
  24978460.845 6 131262658.365 6     -1954.770 6        37.009                  
  20438223.529 8 107403615.553 8       839.911 8        50.194                  
 02  5 18 00 01 30.0000000  0  7G01G16G10G23G21G07G08                           
  23733322.701 5 124719454.722 5      3358.823 5        35.963                  
  23504035.404 5 123514532.056 5     -3687.838 5        35.460                  
  21320877.231 6 112041967.322 6      -819.993 6        39.951                  
  23026377.836 5 121004423.514 5     -2812.810 5        35.281                  
  21767726.244 6 114390183.571 6      1756.997 6        39.658                  
  24978821.853 7 131264598.599 7     -1941.961 7        42.233                  
  20438066.210 8 107402773.185 8       848.965 8        49.877                  
 02  5 18 00 01 31.0000000  0  7G01G16G10G23G21G07G08                           
  23732681.186 5 124716091.670 5      3369.921 5        35.252                  
  23504736.620 5 123518231.922 5     -3701.432 5        35.577                  
  21321032.852 6 112042779.082 6      -812.080 6        37.600                  
  23026910.333 5 121007230.015 5     -2804.936 5        35.342                  
  21767395.935 6 114388427.478 6      1746.746 6        37.812                  
  24979191.313 7 131266534.944 7     -1934.453 7        42.231                  
  20437906.711 7 107401928.414 7       847.284 7        45.691                  
 02  5 18 00 01 32.0000000  0  7G01G16G10G23G21G07G08                           
  23732045.567 5 124712732.130 5      3348.813 5        35.378                  
  23505443.233 6 123521952.238 6     -3723.868 6        36.029                  
  21321186.257 6 112043589.750 6      -819.133 6        37.954                  
  23027441.722 5 121010025.040 5     -2800.255 5        35.738                  
  21767064.465 6 114386671.783 6      1762.519 6        39.559                  
  24979557.074 6 131268464.877 6     -1926.413 6        39.809                  
  20437748.213 7 107401080.681 7       853.261 7        42.122                  
 02  5 18 00 01 33.0000000  0  7G01G16G10G23G21G07G08                           
  23731409.000 6 124709359.795 6      3374.565 6        39.998                  
  23506153.562 6 123525667.227 6     -3705.039 6        36.447                  
  21321348.955 7 112044408.747 7      -824.990 7        45.199                  
  23027977.203 5 121012831.974 5     -2821.372 5        35.906                  
  21766720.772 7 114384907.272 7      1770.848 7        46.522                  
  24979926.105 6 131270383.927 6     -1894.456 6        36.491                  
  20437589.018 6 107400230.927 6       843.930 6        40.655                  
 02  5 18 00 01 34.0000000  0  7G01G16G10G23G21G07G08                           
  23730761.749 7 124705973.491 7      3391.567 7        43.440                  
  23506855.118 6 123529370.717 6     -3701.777 6        36.767                  
  21321499.412 7 112045236.321 7      -830.065 7        47.432                  
  23028515.919 6 121015654.479 6     -2827.263 6        37.056                  
  21766384.673 7 114383133.594 7      1776.688 7        42.122                  
  24980288.346 5 131272294.281 5     -1899.585 5        35.115                  
  20437427.875 6 107399380.514 6       856.156 6        39.264                  
 02  5 18 00 01 35.0000000  0  7G01G16G10G23G21G07G08                           
  23730111.781 6 124702576.632 6      3400.816 6        38.119                  
  23507564.036 6 123533088.451 6     -3729.512 6        37.328                  
  21321660.323 6 112046070.983 6      -833.664 6        41.620                  
  23029048.701 6 121018478.147 6     -2816.158 6        39.260                  
  21766048.253 6 114381350.432 6      1781.975 6        37.269                  
  24980648.746 5 131274186.230 5     -1868.541 5        35.018                  
  20437263.390 6 107398524.286 6       864.893 6        37.469                  
 02  5 18 00 01 36.0000000  0  7G01G16G10G23G21G07G08                           
  23729463.779 5 124699168.140 5      3400.351 5        35.462                  
  23508274.722 6 123536822.498 6     -3740.835 6        38.087                  
  21321818.839 6 112046913.565 6      -849.408 6        37.256                  
  23029593.742 7 121021302.739 7     -2825.903 7        42.337                  
  21765708.367 5 114379556.670 5      1786.114 5        35.275                  
  24981008.146 5 131276057.917 5     -1859.819 5        35.154                  
  20437097.137 5 107397661.645 5       871.161 5        35.907                  
 02  5 18 00 01 37.0000000  0  7G01G16G10G23G21G07G08                           
  23728810.648 5 124695755.502 5      3438.214 5        34.790                  
  23508984.587 6 123540561.386 6     -3735.034 6        38.934                  
  21321979.356 5 112047759.229 5      -851.041 5        35.742                  
  23030146.824 7 121024128.396 7     -2823.479 7        46.796                  
  21765364.549 5 114377759.396 5      1793.994 5        35.012                  
  24981361.667 5 131277923.119 5     -1870.921 5        35.621                  
  20436929.847 5 107396797.231 5       863.752 5        35.778                  
 02  5 18 00 01 38.0000000  0  7G01G16G10G23G21G07G08                           
  23728165.058 5 124692343.943 5      3405.084 5        34.804                  
  23509697.919 6 123544301.031 6     -3742.314 6        39.740                  
  21322138.801 5 112048604.982 5      -847.750 5        35.416                  
  23030646.156 7 121026953.451 7     -2824.355 7        46.558                  
  21765020.159 5 114375962.994 5      1794.558 5        35.123                  
  24981722.263 6 131279789.463 6     -1874.361 6        36.033                  
  20436762.700 5 107395933.437 5       864.514 5        35.879                  
 02  5 18 00 01 39.0000000  0  7G01G16G10G23G21G07G08                           
  23727515.966 5 124688934.905 5      3396.284 5        34.876                  
  23510410.875 6 123548042.045 6     -3744.862 6        40.631                  
  21322299.122 5 112049449.911 5      -851.087 5        35.297                  
  23031196.987 7 121029776.801 7     -2823.180 7        46.255                  
  21764681.773 5 114374168.544 5      1796.309 5        35.309                  
  24982073.211 6 131281657.999 6     -1859.800 6        36.589                  
  20436595.375 6 107395070.456 6       864.476 6        36.261                  
 02  5 18 00 01 40.0000000  0  6G01G16G10G23G07G08                              
  23726866.874 5 124685526.574 5      3397.108 5        34.929                  
  23511122.937 6 123551783.553 6     -3740.843 6        41.708                  
  21322460.104 5 112050295.105 5      -849.267 5        35.276                  
  23031743.457 7 121032599.858 7     -2819.464 7        44.202                  
  24982424.373 6 131283527.417 6     -1861.772 6        37.434                  
  20436433.946 6 107394208.135 6       866.642 6        36.546                  
 02  5 18 00 01 41.0000000  0  5G16G10G23G07G08                                 
  23511833.231 7 123555525.324 7     -3740.263 7        42.432                  
  21322619.103 5 112051140.867 5      -837.414 5        35.453                  
  23032280.689 6 121035423.283 6     -2819.430 6        41.929                  
  24982785.095 6 131285397.316 6     -1863.019 6        38.085                  
  20436272.839 6 107393346.327 6       861.756 6        36.930                  
 02  5 18 00 02  1.0000000  0  7G01G16G10G23G21G07G08                           
  23713344.240 6 124614454.956 6      3295.669 6        38.013                  
  23526042.535 8 123630184.025 8     -3732.905 8        48.672                  
  21325811.779 6 112067900.502 6      -799.064 6        36.564                  
  23042995.349 6 121091760.533 6     -2774.775 6        39.357                  
  21757256.319 6 114335151.206 6      1717.747 6        39.171                  
  24990025.462 7 131323468.047 7     -1984.812 7        45.041                  
  20433049.071 7 107376387.995 7       824.283 7        45.022                  
 02  5 18 00 02  2.0000000  0  7G01G16G10G23G21G07G08                           
  23712714.196 6 124611145.894 6      3313.051 6        37.175                  
  23526752.597 8 123633916.905 8     -3737.178 8        48.801                  
  21325965.989 6 112068701.904 6      -800.747 6        36.160                  
  23043523.914 6 121094532.025 6     -2776.268 6        40.598                  
  21756928.940 6 114333438.377 6      1714.344 6        38.367                  
  24990404.625 7 131325454.935 7     -1983.102 7        44.269                  
  20432891.734 7 107375565.699 7       822.444 7        43.749                  
 02  5 18 00 02  3.0000000  0  7G01G16G10G23G21G07G08                           
  23712083.527 6 124607833.951 6      3325.527 6        36.210                  
  23527462.747 8 123637654.126 8     -3741.235 8        49.569                  
  21326120.091 5 112069505.786 5      -797.807 5        35.756                  
  23044049.156 7 121097304.047 7     -2773.754 7        42.077                  
  21756605.350 6 114331723.015 6      1720.398 6        37.663                  
  24990778.785 7 131327436.860 7     -1978.880 7        45.440                  
  20432731.270 7 107374742.129 7       824.917 7        43.124                  
 02  5 18 00 02  4.0000000  0  7G01G16G10G23G21G07G08                           
  23711451.035 5 124604519.474 5      3305.965 5        35.429                  
  23528175.203 8 123641394.638 8     -3742.161 8        48.639                  
  21326273.050 5 112070311.823 5      -807.740 5        35.389                  
  23044579.027 7 121100076.791 7     -2773.790 7        44.628                  
  21756280.420 6 114330005.527 6      1722.414 6        37.183                  
  24991156.589 7 131329414.723 7     -1983.069 7        44.956                  
  20432575.023 7 107373917.538 7       825.973 7        42.552                  
 02  5 18 00 02  5.0000000  0  7G01G16G10G23G21G07G08                           
  23710819.848 5 124601206.554 5      3303.425 5        35.114                  
  23528888.713 8 123645133.825 8     -3737.681 8        48.793                  
  21326426.527 5 112071117.656 5      -792.215 5        35.104                  
  23045104.358 7 121102849.699 7     -2775.051 7        46.500                  
  21755954.578 6 114328289.547 6      1722.306 6        36.465                  
  24991533.822 7 131331395.196 7     -1987.622 7        45.028                  
  20432415.864 6 107373094.186 6       821.128 6        41.319                  
 02  5 18 00 02  6.0000000  0  7G01G16G10G23G21G07G08                           
  23710189.357 5 124597895.489 5      3316.548 5        35.287                  
  23529598.453 8 123648871.138 8     -3735.625 8        48.009                  
  21326580.469 5 112071923.047 5      -815.161 5        35.148                  
  23045633.317 7 121105622.755 7     -2774.956 7        47.232                  
  21755624.931 6 114326575.420 6      1722.397 6        36.008                  
  24991914.325 7 131333378.891 7     -1983.083 7        43.079                  
  20432260.278 6 107372272.200 6       823.812 6        40.552                  
 02  5 18 00 02  7.0000000  0  7G01G16G10G23G21G07G08                           
  23709557.687 5 124594584.837 5      3303.092 5        35.990                  
  23530308.300 7 123652608.336 7     -3736.726 7        47.856                  
  21326734.017 5 112072728.854 5      -799.634 5        35.520                  
  23046158.666 7 121108396.165 7     -2772.439 7        47.336                  
  21755296.033 5 114324861.773 5      1715.847 5        35.482                  
  24992289.182 6 131335363.359 6     -1989.941 6        40.975                  
  20432100.940 6 107371450.854 6       820.653 6        40.171                  
 02  5 18 00 02  8.0000000  0  6G01G16G23G21G07G08                              
  23708925.499 6 124591272.475 6      3316.792 6        36.702                  
  23531020.649 7 123656345.461 7     -3735.520 7        46.620                  
  23046690.430 7 121111171.376 7     -2780.971 7        45.523                  
  21754969.513 5 114323147.072 5      1727.264 5        35.038                  
  24992669.667 6 131337346.335 6     -1973.089 6        40.155                  
  20431946.641 6 107370629.541 6       823.512 6        39.776                  
 02  5 18 00 02  9.0000000  0  6G01G16G23G21G07G08                              
  23708293.061 6 124587941.915 6      3337.630 6        37.773                  
  23531729.816 7 123660072.378 7     -3720.048 7        46.617                  
  23047219.997 8 121113964.592 8     -2804.438 8        48.822                  
  21754643.439 5 114321419.910 5      1745.386 5        35.230                  
  24993045.738 6 131339314.987 6     -1957.526 6        38.888                  
  20431791.503 6 107369805.988 6       825.819 6        40.015                  
 02  5 18 00 02 10.0000000  0  6G01G16G23G21G07G08                              
  23707655.404 6 124584587.383 6      3364.083 6        38.420                  
  23532435.321 7 123663785.584 7     -3703.346 7        47.022                  
  23047753.905 8 121116781.436 8     -2822.972 8        48.320                  
  21754315.471 5 114319676.434 5      1742.947 5        35.581                  
  24993415.734 6 131341264.838 6     -1944.119 6        38.208                  
  20431635.327 6 107368979.436 6       830.726 6        40.489                  
 02  5 18 00 02 11.0000000  0  5G01G16G23G07G08                                 
  23707016.247 6 124581224.108 6      3362.624 6        39.735                  
  23533143.095 7 123667502.339 7     -3722.778 7        46.685                  
  23048293.621 7 121119603.170 7     -2814.976 7        47.852                  
  24993786.624 6 131343203.836 6     -1931.345 6        37.496                  
  20431477.508 6 107368150.145 6       830.862 6        41.166                  
 02  5 18 00 02 12.0000000  0  5G01G16G23G07G08                                 
  23706376.751 6 124577862.735 6      3354.497 6        40.706                  
  23533855.587 8 123671241.341 8     -3745.560 8        48.547                  
  23048827.226 7 121122413.530 7     -2809.284 7        47.496                  
  24994152.313 6 131345134.396 6     -1928.343 6        37.232                  
  20431319.474 7 107367316.943 7       831.848 7        42.513                  
 02  5 18 00 02 13.0000000  0  5G01G16G23G07G08                                 
  23705734.788 6 124574501.341 6      3361.948 6        40.890                  
  23534568.132 7 123674987.009 7     -3742.607 7        47.314                  
  23049363.386 8 121125221.298 8     -2809.307 8        49.175                  
  24994519.897 6 131347061.833 6     -1935.427 6        36.453                  
  20431163.192 7 107366482.731 7       836.793 7        42.844                  
 02  5 18 00 02 14.0000000  0  5G01G16G23G07G08                                 
  23705097.579 7 124571140.348 7      3360.670 7        42.648                  
  23535277.479 8 123678721.300 8     -3730.358 8        49.181                  
  23049897.956 8 121128034.830 8     -2814.414 8        48.846                  
  24994885.676 6 131348995.639 6     -1935.770 6        36.077                  
  20431004.408 7 107365651.593 7       827.387 7        43.883                  
 02  5 18 00 02 15.0000000  0  5G01G16G23G07G08                                 
  23704462.657 7 124567790.415 7      3340.562 7        44.046                  
  23535989.345 8 123682461.464 8     -3749.863 8        49.272                  
  23050431.221 8 121130838.475 8     -2791.471 8        48.395                  
  24995254.921 5 131350938.737 5     -1949.024 5        35.556                  
  20430849.662 7 107364822.670 7       823.203 7        43.673                  
 02  5 18 00 02 16.0000000  0  5G01G16G23G07G08                                 
  23703825.555 7 124564453.881 7      3337.934 7        43.759                  
  23536705.178 8 123686217.157 8     -3757.733 8        48.100                  
  23050960.287 7 121133626.022 7     -2786.074 7        47.352                  
  24995625.811 5 131352889.006 5     -1954.535 5        35.675                  
  20430695.006 7 107363994.411 7       821.915 7        43.389                  
 02  5 18 00 02 17.0000000  0  5G01G16G23G07G08                                 
  23703190.382 7 124561119.405 7      3337.638 7        45.685                  
  23537420.654 7 123689973.869 7     -3757.278 7        47.878                  
  23051492.730 8 121136412.264 8     -2783.896 8        48.044                  
  24995997.540 5 131354841.241 5     -1944.971 5        35.191                  
  20430542.243 7 107363167.016 7       831.661 7        43.695                  
 02  5 18 00 02 18.0000000  0  5G01G16G23G07G08                                 
  23702556.604 7 124557785.783 7      3329.207 7        46.044                  
  23538133.878 7 123693730.517 7     -3755.579 7        47.530                  
  23052021.618 8 121139198.505 8     -2785.950 8        49.855                  
  24996365.106 5 131356794.781 5     -1957.856 5        34.959                  
  20430384.120 7 107362340.341 7       831.183 7        43.165                  
 02  5 18 00 02 19.0000000  0  5G01G16G23G07G08                                 
  23701923.951 7 124554452.587 7      3335.983 7        45.950                  
  23538848.728 8 123697487.271 8     -3755.296 8        48.237                  
  23052553.132 8 121141984.944 8     -2784.979 8        50.194                  
  24996740.588 5 131358749.023 5     -1958.691 5        35.140                  
  20430224.336 6 107361514.262 6       831.095 6        41.571                  
 02  5 18 00 02 20.0000000  0  5G01G16G23G07G08                                 
  23701288.815 7 124551119.213 7      3334.268 7        45.683                  
  23539565.097 8 123701244.316 8     -3759.713 8        48.282                  
  23053082.823 8 121144771.922 8     -2784.833 8        49.912                  
  24997108.332 5 131360703.171 5     -1969.288 5        34.820                  
  20430064.819 6 107360688.567 6       830.093 6        41.654                  
 02  5 18 00 02 21.0000000  0  5G01G16G23G07G08                                 
  23700652.856 7 124547784.693 7      3333.250 7        45.902                  
  23540283.414 8 123705001.982 8     -3758.391 8        48.000                  
  23053611.836 8 121147559.995 8     -2791.321 8        48.197                  
  24997483.939 5 131362656.180 5     -1947.716 5        34.958                  
  20429904.534 6 107359862.849 6       823.544 6        41.879                  
 02  5 18 00 02 22.0000000  0  5G01G16G23G07G08                                 
  23700018.524 7 124544449.825 7      3335.321 7        46.951                  
  23540997.675 8 123708760.026 8     -3755.662 8        48.354                  
  23054145.226 7 121150348.695 7     -2788.013 7        47.527                  
  24997853.899 5 131364608.859 5     -1961.308 5        34.929                  
  20429744.570 7 107359037.532 7       824.171 7        42.654                  
 02  5 18 00 02 23.0000000  0  4G01G16G23G08                                    
  23699386.514 7 124541115.396 7      3331.161 7        47.390                  
  23541707.468 8 123712518.164 8     -3757.262 8        48.204                  
  23054672.451 8 121153137.596 8     -2788.027 8        49.612                  
  20429587.680 7 107358212.652 7       820.555 7        43.430                  
 02  5 18 00 02 24.0000000  0  4G01G16G23G08                                    
  23698751.681 7 124537781.550 7      3333.340 7        45.881                  
  23542421.621 7 123716276.366 7     -3757.786 7        47.006                  
  23055207.146 8 121155926.654 8     -2789.201 8        49.533                  
  20429435.097 7 107357388.479 7       824.137 7        43.902                  
 02  5 18 00 02 25.0000000  0  4G01G16G23G08                                    
  23698114.794 7 124534447.068 7      3334.529 7        46.188                  
  23543138.920 8 123720035.010 8     -3760.305 8        49.631                  
  23055735.176 8 121158716.506 8     -2789.191 8        48.995                  
  20429276.027 7 107356564.509 7       822.461 7        45.265                  
 02  5 18 00 02 26.0000000  0  4G01G16G23G08                                    
  23697479.961 7 124531110.965 7      3341.803 7        46.755                  
  23543855.664 8 123723794.367 8     -3761.602 8        49.187                  
  23056268.227 8 121161507.663 8     -2793.395 8        48.487                  
  20429104.127 7 107355740.577 7       820.861 7        46.414                  
 02  5 18 00 02 27.0000000  0  4G01G16G23G08                                    
  23696847.254 7 124527774.589 7      3336.117 7        45.362                  
  23544572.337 8 123727554.020 8     -3758.284 8        48.137                  
  23056797.346 7 121164299.432 7     -2790.296 7        47.568                  
  20428973.611 8 107354916.723 8       823.921 8        49.893                  
 02  5 18 00 02 28.0000000  0  4G01G16G23G08                                    
  23696212.386 7 124524438.729 7      3335.778 7        47.539                  
  23545285.239 8 123731313.778 8     -3759.557 8        49.485                  
  23057330.612 7 121167091.384 7     -2791.171 7        46.843                  
  20428770.423 8 107354093.628 8       821.746 8        50.982                  
 02  5 18 00 02 29.0000000  0  4G01G16G23G08                                    
  23695576.499 7 124521102.442 7      3338.366 7        46.873                  
  23546000.965 7 123735069.502 7     -3746.944 7        47.841                  
  23057861.840 8 121169886.119 8     -2803.014 8        48.009                  
  20428600.059 8 107353271.771 8       821.247 8        53.687                  
 02  5 18 00 02 30.0000000  0  4G01G16G23G08                                    
  23694938.628 7 124517755.565 7      3352.268 7        47.466                  
  23546712.778 8 123738805.080 8     -3724.475 8        48.067                  
  23058396.409 8 121172698.417 8     -2823.195 8        49.231                  
  20428442.204 8 107352451.999 8       819.006 8        52.948                  
 02  5 18 00 02 33.0000000  0  6G01G16G10G23G21G08                              
  23693019.174 7 124507665.510 7      3350.970 7        47.529                  
  23548828.524 8 123749924.176 8     -3714.446 8        48.837                  
  21330858.777 8 112094430.049 8      -846.781 8        48.625                  
  23060018.291 7 121181214.910 7     -2828.217 7        47.383                  
  21746707.252 7 114279710.271 7      1738.256 7        45.459                  
  20428039.454 9 107350001.306 9       815.282 9        56.322                  
 02  5 18 00 02 34.0000000  0  6G01G16G10G23G21G08                              
  23692380.892 8 124504314.946 8      3353.905 8        48.529                  
  23549534.654 8 123753636.434 8     -3703.329 8        48.387                  
  21331020.992 8 112095277.763 8      -851.259 8        48.544                  
  23060556.077 7 121184043.246 7     -2834.069 7        47.816                  
  21746378.980 7 114277974.547 7      1737.592 7        46.158                  
  20427883.833 8 107349187.522 8       812.341 8        53.577                  
 02  5 18 00 02 35.0000000  0  6G01G16G10G23G21G08                              
  23691742.450 7 124500952.712 7      3368.767 7        46.604                  
  23550234.280 8 123757328.666 8     -3682.659 8        49.031                  
  21331171.825 8 112096133.022 8      -858.192 8        50.246                  
  23061094.775 8 121186889.827 8     -2853.003 8        50.072                  
  21746042.774 8 114276232.604 8      1745.945 8        48.980                  
  20427696.727 8 107348375.630 8       810.373 8        50.692                  
 02  5 18 00 02 36.0000000  0  6G01G16G10G23G21G08                              
  23691103.847 7 124497590.464 7      3359.553 7        46.534                  
  23550936.693 8 123761006.383 8     -3672.413 8        48.325                  
  21331351.480 8 112096989.035 8      -854.449 8        50.364                  
  23061640.924 8 121189743.981 8     -2856.405 8        50.596                  
  21745713.591 7 114274492.563 7      1735.181 7        47.824                  
  20427564.674 7 107347567.183 7       805.959 7        47.688                  
 02  5 18 00 02 37.0000000  0  6G01G16G10G23G21G08                              
  23690458.882 8 124494234.598 8      3354.062 8        50.771                  
  23551634.318 8 123764662.233 8     -3644.861 8        49.492                  
  21331508.727 8 112097841.918 8      -851.781 8        53.065                  
  23062184.303 8 121192604.815 8     -2865.227 8        50.673                  
  21745382.371 8 114272760.154 8      1730.256 8        53.164                  
  20427411.519 9 107346765.710 9       799.616 9        55.294                  
 02  5 18 00 02 38.0000000  0  6G01G16G10G23G21G08                              
  23689825.425 8 124490884.986 8      3346.983 8        48.096                  
  23552323.651 8 123768297.913 8     -3630.006 8        50.188                  
  21331671.550 8 112098691.810 8      -848.316 8        53.704                  
  23062730.988 8 121195471.608 8     -2867.693 8        50.991                  
  21745058.137 8 114271035.053 8      1720.440 8        52.505                  
  20427259.811 9 107345970.833 9       792.723 9        55.811                  
 02  5 18 00 02 39.0000000  0  6G01G16G10G23G21G08                              
  23689190.610 8 124487540.689 8      3343.037 8        48.523                  
  23553014.450 8 123771924.590 8     -3624.150 8        51.667                  
  21331831.996 8 112099539.297 8      -847.454 8        53.929                  
  23063277.798 8 121198339.716 8     -2866.480 8        49.343                  
  21744733.136 8 114269315.204 8      1719.816 8        52.837                  
  20427109.604 9 107345179.807 9       791.453 9        55.138                  
 02  5 18 00 02 40.0000000  0  6G01G16G10G23G21G08                              
  23688554.152 8 124484194.302 8      3348.718 8        50.437                  
  23553702.979 8 123775549.832 8     -3624.439 8        48.995                  
  21331995.355 8 112100388.698 8      -850.918 8        52.349                  
  23063820.891 8 121201210.502 8     -2874.381 8        49.768                  
  21744404.757 8 114267594.164 8      1723.750 8        52.668                  
  20426959.075 9 107344388.961 9       790.983 9        54.574                  
 02  5 18 00 02 41.0000000  0  6G01G16G10G23G21G08                              
  23687914.137 7 124480842.464 7      3350.664 7        47.628                  
  23554394.224 8 123779171.778 8     -3621.616 8        50.184                  
  21332156.980 8 112101242.066 8      -853.654 8        51.635                  
  23064370.328 8 121204087.217 8     -2878.996 8        50.051                  
  21744074.305 8 114265869.593 8      1724.992 8        52.310                  
  20426808.600 8 107343597.816 8       790.033 8        53.097                  
 02  5 18 00 02 42.0000000  0  6G01G16G10G23G21G08                              
  23687276.141 8 124477493.101 8      3346.204 8        48.578                  
  23555083.629 8 123782795.278 8     -3626.176 8        49.884                  
  21332317.944 8 112102094.698 8      -850.622 8        52.804                  
  23064917.906 8 121206962.067 8     -2871.393 8        48.889                  
  21743743.728 8 114264146.888 8      1719.050 8        53.729                  
  20426658.304 9 107342807.461 9       789.147 9        54.946                  
 02  5 18 00 02 43.0000000  0  7G01G16G10G23G21G07G08                           
  23686641.827 7 124474148.836 7      3341.981 7        46.844                  
  23555773.194 8 123786422.066 8     -3625.834 8        50.442                  
  21332478.426 8 112102945.032 8      -849.557 8        53.695                  
  23065462.661 8 121209832.424 8     -2869.126 8        50.770                  
  21743417.976 8 114262427.839 8      1719.373 8        50.900                  
  25005733.227 7 131403803.266 7     -2008.529 7        47.126                  
  20426508.043 9 107342018.198 9       789.077 9        55.299                  
 02  5 18 00 02 44.0000000  0  7G01G16G10G23G21G07G08                           
  23686006.208 7 124470805.387 7      3341.894 7        46.127                  
  23556463.725 8 123790049.435 8     -3628.211 8        51.431                  
  21332639.783 9 112103795.626 9      -850.672 9        54.212                  
  23066008.988 8 121212702.546 8     -2872.156 8        50.924                  
  21743094.511 8 114260709.534 8      1717.999 8        51.318                  
  25006112.265 7 131405815.437 7     -2013.911 7        46.408                  
  20426358.212 9 107341229.462 9       789.465 9        56.878                  
 02  5 18 00 02 45.0000000  0  7G01G16G10G23G21G07G08                           
  23685367.604 7 124467462.186 7      3342.952 7        46.787                  
  23557152.647 8 123793677.061 8     -3627.612 8        50.193                  
  21332801.337 8 112104646.753 8      -850.395 8        53.646                  
  23066556.263 8 121215572.965 8     -2870.200 8        50.116                  
  21742768.383 8 114258991.599 8      1715.701 8        51.901                  
  25006498.861 7 131407827.990 7     -2013.601 7        46.896                  
  20426208.165 9 107340441.215 9       787.765 9        58.906                  
 02  5 18 00 02 46.0000000  0  7G01G16G10G23G21G07G08                           
  23684732.450 8 124464121.739 8      3336.058 8        48.678                  
  23557845.626 8 123797306.655 8     -3626.743 8        48.757                  
  21332962.801 9 112105497.004 9      -849.635 9        54.673                  
  23067102.322 8 121218441.122 8     -2866.514 8        50.125                  
  21742439.343 8 114257275.676 8      1714.470 8        50.929                  
  25006879.328 7 131409842.805 7     -2013.663 7        45.577                  
  20426058.316 9 107339653.709 9       786.689 9        55.006                  
 02  5 18 00 02 47.0000000  0  7G01G16G10G23G21G07G08                           
  23684097.349 8 124460782.517 8      3338.609 8        48.264                  
  23558535.853 8 123800937.191 8     -3629.949 8        49.707                  
  21333124.319 8 112106347.278 8      -852.586 8        53.258                  
  23067648.972 8 121221308.586 8     -2868.492 8        50.174                  
  21742110.410 8 114255560.775 8      1715.609 8        52.901                  
  25007264.084 7 131411858.714 7     -2013.189 7        47.354                  
  20425908.448 9 107338866.759 9       786.568 9        54.620                  
 02  5 18 00 02 48.0000000  0  7G01G16G10G23G21G07G08                           
  23683462.445 8 124457441.855 8      3342.518 8        48.801                  
  23559225.507 8 123804566.720 8     -3629.612 8        50.968                  
  21333287.964 8 112107199.109 8      -850.641 8        51.613                  
  23068192.244 8 121224178.116 8     -2871.722 8        50.137                  
  21741783.460 8 114253845.078 8      1715.689 8        51.771                  
  25007648.268 7 131413873.775 7     -2016.321 7        47.976                  
  20425758.742 9 107338080.097 9       785.894 9        55.767                  
 02  5 18 00 02 49.0000000  0  7G01G16G10G23G21G07G08                           
  23682826.897 8 124454102.547 8      3336.303 8        48.357                  
  23559917.503 8 123808197.289 8     -3633.885 8        51.002                  
  21333451.340 8 112108050.859 8      -852.349 8        53.165                  
  23068737.910 8 121227046.828 8     -2865.296 8        51.087                  
  21741459.888 8 114252130.519 8      1712.725 8        53.133                  
  25008031.130 8 131415890.020 8     -2016.898 8        48.179                  
  20425609.035 9 107337294.031 9       784.920 9        55.249                  
 02  5 18 00 02 50.0000000  0  7G01G16G10G23G21G07G08                           
  23682189.974 7 124450764.979 7      3337.495 7        47.555                  
  23560608.159 8 123811833.943 8     -3645.509 8        48.624                  
  21333613.931 8 112108902.305 8      -852.666 8        53.055                  
  23069284.809 8 121229911.985 8     -2866.457 8        50.411                  
  21741136.423 9 114250416.700 9      1716.123 9        54.045                  
  25008416.368 8 131417905.426 8     -2013.118 8        49.032                  
  20425459.418 9 107336507.531 9       789.674 9        55.787                  
 02  5 18 00 02 51.0000000  0  7G01G16G10G23G21G07G08                           
  23681555.499 8 124447421.160 8      3347.588 8        48.920                  
  23561304.104 8 123815489.264 8     -3662.874 8        49.687                  
  21333775.842 9 112109758.156 9      -858.202 9        54.408                  
  23069827.170 8 121232773.020 8     -2861.537 8        49.572                  
  21740808.634 9 114248696.152 9      1723.998 9        54.144                  
  25008793.583 8 131419905.458 8     -1992.408 8        48.500                  
  20425308.389 9 107335715.779 9       795.522 9        56.349                  
 02  5 18 00 02 52.0000000  0  7G01G16G10G23G21G07G08                           
  23680918.789 8 124444069.431 8      3358.688 8        48.908                  
  23562005.248 8 123819165.964 8     -3686.659 8        49.476                  
  21333941.523 9 112110619.345 9      -865.482 9        55.333                  
  23070372.497 8 121235629.812 8     -2856.552 8        50.089                  
  21740476.466 8 114246967.307 8      1732.345 8        52.823                  
  25009172.782 7 131421886.996 7     -1970.847 7        47.742                  
  20425156.699 9 107334917.697 9       801.024 9        57.358                  
 02  5 18 00 02 53.0000000  0  7G01G16G10G23G21G07G08                           
  23680278.846 8 124440714.457 8      3347.743 8        49.071                  
  23562705.839 8 123822856.796 8     -3698.300 8        51.406                  
  21334105.740 9 112111483.148 9      -858.842 9        55.903                  
  23070915.304 8 121238482.587 8     -2842.931 8        49.875                  
  21740144.371 8 114245234.520 8      1726.899 8        52.820                  
  25009541.044 7 131423858.542 7     -1981.320 7        45.832                  
  20425004.901 9 107334116.150 9       800.336 9        57.630                  
 02  5 18 00 02 54.0000000  0  7G01G16G10G23G21G07G08                           
  23679644.228 8 124437379.505 8      3323.504 8        48.870                  
  23563411.541 8 123826565.670 8     -3716.964 8        51.842                  
  21334266.829 8 112112335.759 8      -845.774 8        52.282                  
  23071452.947 8 121241313.453 8     -2820.107 8        50.716                  
  21739819.279 8 114243514.922 8      1712.010 8        53.006                  
  25009927.140 7 131425843.309 7     -1990.215 7        46.677                  
  20424853.676 8 107333316.529 8       797.598 8        53.806                  
 02  5 18 00 02 55.0000000  0  7G01G16G10G23G21G07G08                           
  23679013.648 8 124434065.637 8      3303.539 8        50.095                  
  23564122.245 8 123830294.643 8     -3734.360 8        50.330                  
  21334425.488 8 112113176.530 8      -833.632 8        52.935                  
  23071988.106 8 121244120.631 8     -2796.143 8        49.821                  
  21739498.477 8 114241809.073 8      1698.935 8        52.775                  
  25010304.034 7 131427841.409 7     -2007.154 7        47.802                  
  20424702.093 9 107332518.685 9       795.965 9        54.559                  
 02  5 18 00 02 56.0000000  0  7G01G16G10G23G21G07G08                           
  23678386.552 8 124430765.950 8      3300.395 8        48.602                  
  23564833.986 8 123834034.819 8     -3739.872 8        50.818                  
  21334583.593 8 112114009.551 8      -834.498 8        51.510                  
  23072518.548 8 121246913.189 8     -2791.202 8        49.068                  
  21739176.138 8 114240112.816 8      1696.202 8        53.701                  
  25010689.200 7 131429849.737 7     -2009.582 7        47.606                  
  20424551.207 9 107331722.713 9       796.472 9        56.047                  
 02  5 18 00 02 57.0000000  0  7G01G16G10G23G21G07G08                           
  23677758.689 8 124427467.241 8      3299.584 8        49.657                  
  23565544.923 8 123837775.118 8     -3743.196 8        48.563                  
  21334741.734 8 112114842.703 8      -832.801 8        52.548                  
  23073052.350 8 121249705.585 8     -2791.990 8        50.145                  
  21738852.226 9 114238417.456 9      1694.687 9        54.966                  
  25011068.596 7 131431859.349 7     -2008.412 7        45.975                  
  20424400.124 9 107330927.430 9       795.492 9        56.558                  
 02  5 18 00 02 58.0000000  0  7G01G16G10G23G21G07G08                           
  23677130.092 8 124424168.992 8      3300.665 8        48.371                  
  23566256.754 8 123841515.082 8     -3742.259 8        49.296                  
  21334900.393 9 112115676.285 9      -833.703 9        54.368                  
  23073581.577 8 121252498.405 8     -2791.912 8        49.281                  
  21738526.813 9 114236722.680 9      1695.587 9        54.268                  
  25011453.298 7 131433869.876 7     -2009.049 7        45.708                  
  20424249.220 9 107330132.830 9       794.486 9        56.168                  
 02  5 18 00 02 59.0000000  0  7G01G16G10G23G21G07G08                           
  23676501.871 8 124420870.852 8      3300.296 8        49.084                  
  23566969.442 8 123845255.260 8     -3741.668 8        48.090                  
  21335058.856 9 112116510.454 9      -834.488 9        54.056                  
  23074114.252 8 121255291.601 8     -2795.447 8        50.045                  
  21738202.544 8 114235028.169 8      1694.065 8        51.327                  
  25011834.837 7 131435880.733 7     -2008.694 7        47.277                  
  20424098.334 9 107329338.694 9       794.594 9        57.531                  
 02  5 18 00 03  0.0000000  0  7G01G16G10G23G21G07G08                           
  23675875.043 8 124417572.848 8      3296.174 8        49.468                  
  23567680.986 8 123848995.726 8     -3743.574 8        49.988                  
  21335217.318 9 112117345.228 9      -835.865 9        54.165                  
  23074645.284 8 121258085.152 8     -2795.679 8        51.408                  
  21737880.901 8 114233333.892 8      1694.719 8        51.861                  
  25012217.592 7 131437891.861 7     -2017.763 7        44.865                  
  20423947.466 9 107328544.973 9       792.606 9        55.083                  
 02  5 18 00 03  1.0000000  0  7G01G16G10G23G21G07G08                           
  23675248.502 8 124414274.967 8      3299.022 8        48.283                  
  23568391.798 8 123852736.407 8     -3740.677 8        50.959                  
  21335376.370 9 112118180.599 9      -835.230 9        54.718                  
  23075177.691 8 121260879.086 8     -2794.172 8        51.538                  
  21737561.546 8 114231639.869 8      1694.563 8        53.357                  
  25012601.204 7 131439903.288 7     -2013.795 7        47.673                  
  20423796.937 9 107327751.720 9       792.215 9        56.961                  
 02  5 18 00 03  2.0000000  0  7G01G16G10G23G21G07G08                           
  23674620.924 8 124410977.200 8      3298.086 8        48.807                  
  23569103.986 8 123856477.340 8     -3743.543 8        49.676                  
  21335536.405 9 112119016.591 9      -836.791 9        54.418                  
  23075709.152 8 121263673.371 8     -2795.217 8        50.316                  
  21737241.065 8 114229946.108 8      1693.269 8        53.855                  
  25012982.332 7 131441915.015 7     -2011.728 7        47.718                  
  20423646.159 9 107326958.942 9       792.207 9        57.803                  
 02  5 18 00 03  3.0000000  0  7G01G16G10G23G21G07G08                           
  23673992.631 8 124407679.406 8      3297.628 8        48.722                  
  23569816.888 8 123860218.793 8     -3742.473 8        50.389                  
  21335696.851 9 112119853.270 9      -835.794 9        56.028                  
  23076239.969 8 121266467.994 8     -2793.364 8        48.557                  
  21736918.923 9 114228252.429 9      1694.752 9        54.799                  
  25013367.642 7 131443926.709 7     -2011.833 7        47.674                  
  20423495.398 9 107326166.486 9       792.606 9        58.352                  
 02  5 18 00 03  4.0000000  0  7G01G16G10G23G21G07G08                           
  23673363.141 8 124404375.226 8      3312.028 8        48.267                  
  23570527.807 8 123863958.263 8     -3736.163 8        51.565                  
  21335857.905 9 112120694.445 9      -848.126 9        56.496                  
  23076774.396 8 121269268.553 8     -2811.264 8        48.251                  
  21736593.885 8 114226554.371 8      1703.997 8        53.429                  
  25013746.322 7 131445932.755 7     -2001.574 7        44.625                  
  20423344.655 9 107325373.231 9       794.836 9        57.568                  
 02  5 18 00 03  5.0000000  0  7G01G16G10G23G21G07G08                           
  23672730.024 7 124401047.232 7      3342.441 7        47.635                  
  23571236.332 8 123867687.107 8     -3722.092 8        50.672                  
  21336021.013 9 112121550.415 9      -863.858 9        55.967                  
  23077309.716 8 121272091.261 8     -2833.099 8        49.292                  
  21736264.237 8 114224839.780 8      1724.521 8        51.673                  
  25014128.058 7 131447918.488 7     -1974.406 7        46.777                  
  20423193.500 9 107324576.363 9       798.640 9        56.096                  
 02  5 18 00 03  6.0000000  0  7G01G16G10G23G21G07G08                           
  23672093.029 7 124397694.213 7      3363.694 7        47.970                  
  23571945.053 8 123871403.806 8     -3714.319 8        49.358                  
  21336187.088 9 112122421.937 9      -876.795 9        54.657                  
  23077854.828 8 121274937.674 8     -2854.208 8        49.173                  
  21735934.554 8 114223107.925 8      1739.035 8        53.034                  
  25014498.322 8 131449883.283 8     -1959.001 8        48.207                  
  20423041.417 9 107323775.873 9       802.033 9        58.205                  
 02  5 18 00 03  7.0000000  0  7G01G16G10G23G21G07G08                           
  23671452.710 8 124394331.636 8      3361.112 8        48.909                  
  23572653.560 8 123875125.088 8     -3732.787 8        51.682                  
  21336354.878 9 112123299.828 9      -878.846 9        54.899                  
  23078395.045 8 121277789.051 8     -2847.471 8        50.171                  
  21735607.283 9 114221368.530 9      1742.472 9        54.641                  
  25014873.322 7 131451835.843 7     -1944.901 7        47.414                  
  20422888.673 9 107322972.329 9       806.344 9        57.008                  
 02  5 18 00 03  8.0000000  0  7G01G16G10G23G21G07G08                           
  23670811.105 8 124390964.058 8      3368.066 8        48.280                  
  23573365.033 8 123878868.260 8     -3750.153 8        48.557                  
  21336519.845 9 112124181.262 9      -883.510 9        56.526                  
  23078937.066 8 121280633.824 8     -2842.566 8        50.208                  
  21735278.100 9 114219622.952 9      1749.035 9        54.371                  
  25015238.368 7 131453772.931 7     -1928.996 7        47.413                  
  20422734.588 9 107322163.243 9       812.139 9        56.083                  
 02  5 18 00 03  9.0000000  0  7G01G16G10G23G21G07G08                           
  23670170.161 8 124387591.280 8      3373.897 8        48.432                  
  23574080.723 8 123882630.783 8     -3768.963 8        48.778                  
  21336687.331 9 112125066.331 9      -886.715 9        55.059                  
  23079477.371 8 121283473.395 8     -2840.652 8        50.654                  
  21734940.107 8 114217871.373 8      1754.045 8        53.392                  
  25015608.006 7 131455695.561 7     -1918.066 7        47.977                  
  20422578.788 9 107321349.155 9       815.177 9        55.851                  
 02  5 18 00 03 10.0000000  0  7G01G16G10G23G21G07G08                           
  23669528.324 7 124384216.586 7      3376.251 7        47.907                  
  23574797.342 8 123886397.236 8     -3767.790 8        50.974                  
  21336855.747 9 112125953.176 9      -887.813 9        55.223                  
  23080015.586 8 121286312.948 8     -2840.479 8        51.992                  
  21734604.455 8 114216118.103 8      1752.923 8        52.852                  
  25015969.229 7 131457614.551 7     -1917.704 7        46.819                  
  20422422.756 9 107320534.194 9       814.302 9        55.274                  
 02  5 18 00 03 11.0000000  0  7G01G16G10G23G21G07G08                           
  23668885.003 8 124380841.652 8      3374.065 8        49.884                  
  23575515.087 8 123890163.763 8     -3768.988 8        49.209                  
  21337024.377 9 112126840.868 9      -888.575 9        56.269                  
  23080557.107 8 121289153.199 8     -2842.045 8        50.000                  
  21734273.235 8 114214364.825 8      1753.265 8        51.158                  
  25016335.758 8 131459533.483 8     -1920.546 8        48.773                  
  20422266.527 9 107319719.647 9       813.957 9        55.727                  
 02  5 18 00 03 12.0000000  0  7G01G16G10G23G21G07G08                           
  23668242.791 7 124377466.774 7      3378.222 7        47.292                  
  23576231.564 7 123893930.452 7     -3769.070 7        47.467                  
  21337195.615 8 112127729.178 8      -886.605 8        53.644                  
  23081097.020 8 121291993.898 8     -2840.389 8        48.977                  
  21733942.980 8 114212611.790 8      1752.947 8        52.819                  
  25016702.824 7 131461452.703 7     -1919.614 7        47.600                  
  20422110.656 9 107318905.567 9       813.558 9        57.013                  
 02  5 18 00 03 13.0000000  0  7G01G16G10G23G21G07G08                           
  23667601.793 7 124374092.031 7      3374.294 7        47.679                  
  23576947.415 7 123897697.336 7     -3766.649 7        47.733                  
  21337366.140 9 112128618.076 9      -890.455 9        55.758                  
  23081638.165 8 121294834.988 8     -2842.066 8        50.440                  
  21733607.936 8 114210859.031 8      1752.491 8        52.784                  
  25017064.779 7 131463372.286 7     -1917.334 7        47.655                  
  20421955.213 9 107318091.988 9       812.360 9        56.413                  
 02  5 18 00 03 14.0000000  0  7G01G16G10G23G21G07G08                           
  23666960.045 7 124370717.456 7      3372.339 7        47.640                  
  23577663.820 8 123901464.397 8     -3767.147 8        49.272                  
  21337535.020 9 112129507.569 9      -890.121 9        54.894                  
  23082182.491 7 121297676.438 7     -2841.603 7        47.653                  
  21733271.176 9 114209106.559 9      1752.309 9        54.125                  
  25017432.880 7 131465292.196 7     -1918.796 7        47.042                  
  20421799.163 9 107317278.920 9       812.984 9        55.789                  
 02  5 18 00 03 15.0000000  0  7G01G16G10G23G21G07G08                           
  23666316.456 8 124367343.034 8      3375.088 8        48.858                  
  23578382.119 8 123905231.647 8     -3767.645 8        48.011                  
  21337704.775 9 112130397.655 9      -889.746 9        56.703                  
  23082718.830 8 121300518.236 8     -2843.043 8        50.953                  
  21732937.115 8 114207354.375 8      1751.458 8        52.064                  
  25017797.980 7 131467212.456 7     -1918.172 7        45.975                  
  20421643.756 9 107316466.354 9       812.887 9        57.644                  
 02  5 18 00 03 16.0000000  0  7G01G16G10G23G21G07G08                           
  23665675.351 7 124363968.743 7      3373.692 7        47.736                  
  23579099.792 8 123908999.076 8     -3765.681 8        49.610                  
  21337872.566 9 112131288.339 9      -890.781 9        55.726                  
  23083260.958 8 121303360.434 8     -2843.393 8        49.013                  
  21732607.199 8 114205602.473 8      1752.617 8        53.379                  
  25018164.778 7 131469133.036 7     -1920.335 7        45.015                  
  20421488.474 9 107315654.252 9       811.741 9        58.569                  
 02  5 18 00 03 17.0000000  0  7G01G16G10G23G21G07G08                           
  23665032.853 7 124360594.525 7      3372.006 7        46.609                  
  23579815.858 8 123912766.663 8     -3766.945 8        49.378                  
  21338040.785 9 112132179.656 9      -891.471 9        55.253                  
  23083801.943 8 121306203.063 8     -2843.875 8        48.777                  
  21732275.657 9 114203850.800 9      1751.223 9        54.366                  
  25018526.197 7 131471053.934 7     -1922.499 7        47.105                  
  20421333.460 9 107314842.628 9       810.952 9        57.195                  
 02  5 18 00 03 18.0000000  0  7G01G16G10G23G21G07G08                           
  23664390.050 7 124357220.078 7      3377.138 7        47.201                  
  23580532.441 8 123916534.357 8     -3768.486 8        50.830                  
  21338210.183 9 112133071.794 9      -892.191 9        55.857                  
  23084342.302 8 121309046.371 8     -2843.104 8        51.147                  
  21731939.291 8 114202099.150 8      1752.691 8        53.091                  
  25018894.370 8 131472974.826 8     -1919.387 8        48.047                  
  20421178.143 9 107314031.433 9       811.656 9        56.698                  
 02  5 18 00 03 19.0000000  0  7G01G16G10G23G21G07G08                           
  23663747.588 7 124353843.954 7      3374.746 7        47.623                  
  23581248.256 8 123920298.001 8     -3755.173 8        50.035                  
  21338380.832 9 112133965.627 9      -894.853 9        54.075                  
  23084886.164 8 121311893.368 8     -2851.558 8        49.299                  
  21731603.371 8 114200346.932 8      1752.800 8        53.930                  
  25019259.077 7 131474896.090 7     -1921.419 7        47.807                  
  20421022.468 9 107313221.170 9       808.415 9        58.445                  
 02  5 18 00 03 20.0000000  0  7G01G16G10G23G21G07G08                           
  23663105.625 7 124350463.701 7      3383.008 7        47.645                  
  23581961.749 8 123924040.397 8     -3732.696 8        50.577                  
  21338553.429 8 112134862.725 8      -897.580 8        53.407                  
  23085428.614 8 121314754.099 8     -2869.596 8        50.143                  
  21731271.686 8 114198594.305 8      1753.247 8        53.554                  
  25019626.160 7 131476823.174 7     -1929.139 7        46.331                  
  20420868.187 9 107312414.766 9       804.322 9        56.875                  
 02  5 18 00 03 21.0000000  0  7G01G16G10G23G21G07G08                           
  23662461.661 8 124347079.417 8      3387.525 8        48.737                  
  23582668.593 8 123927759.352 8     -3712.045 8        49.812                  
  21338726.097 9 112135763.054 9      -901.820 9        54.543                  
  23085976.192 8 121317629.526 8     -2879.935 8        51.009                  
  21730941.091 8 114196841.600 8      1754.207 8        52.147                  
  25019994.387 7 131478757.252 7     -1935.148 7        45.910                  
  20420714.602 9 107311612.795 9       799.697 9        55.180                  
 02  5 18 00 03 22.0000000  0  7G01G16G10G23G21G07G08                           
  23661813.677 8 124343683.986 8      3403.840 8        48.014                  
  23583374.080 8 123931471.961 8     -3713.119 8        49.568                  
  21338898.212 9 112136670.719 9      -913.797 9        55.055                  
  23086526.415 8 121320516.267 8     -2896.201 8        49.472                  
  21730605.868 9 114195081.431 9      1769.391 9        54.524                  
  25020365.795 8 131480682.565 8     -1911.869 8        48.530                  
  20420561.554 9 107310809.691 9       804.878 9        56.257                  
 02  5 18 00 03 23.0000000  0  7G01G16G10G23G21G07G08                           
  23661164.674 8 124340264.672 8      3430.919 8        48.531                  
  23584082.265 8 123935186.907 8     -3717.088 8        49.278                  
  21339071.863 9 112137593.241 9      -929.833 9        55.844                  
  23087077.514 8 121323418.967 8     -2911.736 8        50.629                  
  21730262.622 8 114193303.201 8      1787.526 8        53.066                  
  25020723.943 7 131482581.263 7     -1885.186 7        46.812                  
  20420407.184 9 107310000.224 9       811.981 9        58.914                  
 02  5 18 00 03 24.0000000  0  7G01G16G10G23G21G07G08                           
  23660509.971 7 124336825.751 7      3440.849 7        46.508                  
  23584790.057 8 123938903.397 8     -3715.556 8        51.287                  
  21339249.249 9 112138528.052 9      -936.839 9        55.854                  
  23087632.579 8 121326335.011 8     -2917.598 8        51.137                  
  21729923.611 8 114191510.230 8      1794.037 8        53.238                  
  25021079.072 7 131484458.389 7     -1868.425 7        46.749                  
  20420252.492 9 107309185.733 9       814.946 9        56.781                  
 02  5 18 00 03 25.0000000  0  7G01G16G10G23G21G07G08                           
  23659854.035 7 124333384.023 7      3441.131 7        47.968                  
  23585496.295 8 123942619.280 8     -3716.531 8        50.083                  
  21339426.706 8 112139465.215 8      -937.472 8        53.871                  
  23088190.289 8 121329253.865 8     -2921.237 8        50.927                  
  21729586.030 8 114189715.442 8      1794.355 8        52.402                  
  25021437.704 7 131486333.016 7     -1875.459 7        47.581                  
  20420098.800 9 107308371.102 9       814.760 9        55.944                  
 02  5 18 00 03 26.0000000  0  7G01G16G10G23G21G07G08                           
  23659200.797 8 124329942.286 8      3442.303 8        49.864                  
  23586202.979 8 123946335.071 8     -3715.597 8        49.210                  
  21339608.255 8 112140403.093 8      -938.217 8        53.976                  
  23088743.907 8 121332173.357 8     -2917.504 8        49.802                  
  21729241.229 8 114187920.864 8      1793.400 8        53.677                  
  25021794.066 7 131488207.940 7     -1877.410 7        47.281                  
  20419944.680 9 107307556.986 9       813.685 9        56.120                  
 02  5 18 00 03 27.0000000  0  7G01G16G10G23G21G07G08                           
  23658545.165 8 124326500.678 8      3444.183 8        49.207                  
  23586911.396 8 123950051.003 8     -3716.746 8        50.058                  
  21339787.910 9 112141341.569 9      -939.316 9        57.045                  
  23089298.937 8 121335093.268 8     -2918.999 8        50.635                  
  21728896.660 9 114186126.552 9      1794.036 9        54.039                  
  25022148.105 7 131490083.190 7     -1879.243 7        47.320                  
  20419790.738 9 107306743.369 9       813.008 9        56.098                  
 02  5 18 00 03 28.0000000  0  7G01G16G10G23G21G07G08                           
  23657889.514 7 124323059.239 7      3438.041 7        47.478                  
  23587618.223 8 123953767.100 8     -3713.477 8        50.462                  
  21339964.814 9 112142280.664 9      -939.256 9        55.499                  
  23089856.254 8 121338013.549 8     -2921.465 8        49.907                  
  21728559.472 9 114184332.568 9      1794.428 9        54.378                  
  25022507.611 8 131491958.765 8     -1875.923 8        48.305                  
  20419636.475 9 107305930.280 9       812.867 9        56.390                  
 02  5 18 00 03 29.0000000  0  7G01G16G10G23G21G07G08                           
  23657235.848 7 124319617.947 7      3442.310 7        47.393                  
  23588323.943 8 123957483.395 8     -3716.915 8        50.647                  
  21340142.092 9 112143220.380 9      -940.040 9        56.413                  
  23090411.534 8 121340934.213 8     -2920.796 8        50.102                  
  21728219.996 8 114182538.883 8      1793.771 8        53.713                  
  25022862.740 7 131493834.687 7     -1873.913 7        46.131                  
  20419482.265 9 107305117.691 9       811.271 9        57.031                  
 02  5 18 00 03 30.0000000  0  7G01G16G10G23G21G07G08                           
  23656579.733 8 124316176.822 8      3440.309 8        48.988                  
  23589031.913 8 123961199.852 8     -3719.411 8        49.244                  
  21340320.121 9 112144160.678 9      -941.450 9        57.381                  
  23090966.117 8 121343855.260 8     -2919.073 8        49.527                  
  21727873.462 8 114180745.501 8      1794.892 8        53.799                  
  25023219.245 7 131495710.962 7     -1876.486 7        45.405                  
  20419328.806 9 107304305.565 9       811.302 9        57.210                  
 02  5 18 00 03 31.0000000  0  7G01G16G10G23G21G07G08                           
  23655925.566 8 124312735.878 8      3442.085 8        49.257                  
  23589740.349 8 123964916.496 8     -3716.425 8        52.032                  
  21340501.992 9 112145101.585 9      -941.326 9        57.275                  
  23091523.255 8 121346776.663 8     -2920.652 8        49.900                  
  21727532.253 8 114178952.452 8      1791.794 8        53.449                  
  25023580.986 7 131497587.564 7     -1874.301 7        45.574                  
  20419174.972 9 107303493.952 9       810.050 9        56.515                  
 02  5 18 00 03 32.0000000  0  7G01G16G10G23G21G07G08                           
  23655270.952 7 124309295.096 7      3442.836 7        47.920                  
  23590445.996 8 123968633.324 8     -3713.825 8        50.271                  
  21340682.237 9 112146043.087 9      -941.837 9        55.289                  
  23092079.768 8 121349698.456 8     -2923.191 8        50.615                  
  21727195.690 8 114177159.698 8      1793.660 8        52.930                  
  25023933.148 7 131499464.516 7     -1876.294 7        45.310                  
  20419021.745 9 107302682.840 9       809.990 9        57.302                  
 02  5 18 00 03 33.0000000  0  7G01G16G10G23G21G07G08                           
  23654614.873 7 124305854.455 7      3441.151 7        47.608                  
  23591153.360 8 123972350.331 8     -3719.482 8        49.858                  
  21340860.516 9 112146985.200 9      -943.368 9        54.972                  
  23092634.440 8 121352620.608 8     -2922.163 8        51.286                  
  21726853.499 9 114175367.257 9      1791.707 9        54.119                  
  25024292.602 7 131501341.813 7     -1877.157 7        47.103                  
  20418868.071 9 107301872.228 9       811.189 9        56.093                  
 02  5 18 00 03 34.0000000  0  7G01G16G10G23G21G07G08                           
  23653962.189 7 124302413.980 7      3440.409 7        47.274                  
  23591861.723 8 123976067.527 8     -3718.327 8        50.304                  
  21341037.581 8 112147927.906 8      -943.083 8        53.625                  
  23093191.185 8 121355543.146 8     -2922.880 8        50.840                  
  21726508.090 9 114173575.123 9      1790.142 9        54.318                  
  25024649.285 7 131503219.453 7     -1875.521 7        46.997                  
  20418714.255 9 107301062.107 9       809.656 9        58.054                  
 02  5 18 00 03 35.0000000  0  7G01G16G10G23G21G07G08                           
  23653306.610 8 124298973.681 8      3440.519 8        48.561                  
  23592569.140 8 123979784.900 8     -3717.460 8        48.381                  
  21341216.467 9 112148871.211 9      -943.776 9        54.578                  
  23093747.591 7 121358466.072 7     -2922.788 7        47.455                  
  21726170.241 8 114171783.299 8      1791.077 8        53.370                  
  25025004.843 7 131505097.430 7     -1881.484 7        45.748                  
  20418561.046 9 107300252.497 9       809.586 9        56.793                  
 02  5 18 00 03 36.0000000  0  7G01G16G10G23G21G07G08                           
  23652651.979 8 124295533.528 8      3439.649 8        48.010                  
  23593276.021 8 123983502.454 8     -3717.397 8        48.269                  
  21341398.338 8 112149815.121 8      -944.388 8        53.928                  
  23094304.568 8 121361389.358 8     -2922.090 8        48.973                  
  21725832.159 8 114169991.783 8      1791.061 8        53.560                  
  25025366.316 7 131506975.726 7     -1879.489 7        45.208                  
  20418407.676 9 107299443.379 9       807.612 9        54.620                  
 02  5 18 00 03 37.0000000  0  7G01G16G10G23G21G07G08                           
  23651997.972 8 124292093.556 8      3435.496 8        48.149                  
  23593983.295 8 123987220.185 8     -3715.801 8        48.592                  
  21341579.887 9 112150759.629 9      -945.934 9        55.965                  
  23094859.437 8 121364313.028 8     -2922.566 8        51.852                  
  21725487.197 8 114168200.584 8      1791.496 8        53.985                  
  25025718.925 7 131508854.357 7     -1875.308 7        45.588                  
  20418254.503 9 107298634.732 9       808.308 9        57.860                  
 02  5 18 00 03 38.0000000  0  7G01G16G10G23G21G07G08                           
  23651341.983 7 124288653.745 7      3442.991 7        47.947                  
  23594692.355 8 123990938.122 8     -3719.358 8        49.396                  
  21341758.721 9 112151704.744 9      -945.324 9        57.478                  
  23095417.076 8 121367237.063 8     -2924.353 8        52.178                  
  21725144.827 9 114166409.704 9      1790.999 9        54.415                  
  25026078.414 7 131510733.343 7     -1877.317 7        45.152                  
  20418101.990 9 107297826.608 9       807.327 9        56.997                  
 02  5 18 00 03 39.0000000  0  7G01G16G10G23G21G07G08                           
  23650687.101 8 124285214.078 8      3438.417 8        50.731                  
  23595398.896 8 123994656.223 8     -3717.913 8        50.033                  
  21341937.715 9 112152650.454 9      -947.432 9        55.265                  
  23095971.105 8 121370161.470 8     -2924.499 8        51.217                  
  21724807.692 8 114164619.117 8      1791.286 8        53.551                  
  25026437.689 7 131512612.656 7     -1880.470 7        45.449                  
  20417949.389 9 107297018.992 9       807.943 9        57.535                  
 02  5 18 00 03 40.0000000  0  7G01G16G10G23G21G07G08                           
  23650033.738 8 124281774.593 8      3439.632 8        48.909                  
  23596105.723 8 123998374.493 8     -3718.251 8        51.381                  
  21342115.779 9 112153596.785 9      -945.307 9        55.372                  
  23096528.958 8 121373086.258 8     -2925.334 8        51.542                  
  21724468.002 8 114162828.831 8      1790.548 8        53.873                  
  25026792.317 7 131514492.310 7     -1877.304 7        45.891                  
  20417796.037 9 107296211.885 9       808.149 9        55.934                  
 02  5 18 00 03 41.0000000  0  7G01G16G10G23G21G07G08                           
  23649377.534 8 124278335.293 8      3438.651 8        48.590                  
  23596814.266 8 124002092.951 8     -3717.113 8        50.529                  
  21342298.973 9 112154543.689 9      -947.327 9        54.574                  
  23097085.239 8 121376011.398 8     -2924.240 8        50.930                  
  21724123.005 8 114161038.869 8      1789.679 8        52.724                  
  25027154.898 7 131516372.315 7     -1880.114 7        46.036                  
  20417643.185 9 107295405.268 9       805.713 9        55.894                  
 02  5 18 00 03 42.0000000  0  7G01G16G10G23G21G07G08                           
  23648724.671 7 124274896.125 7      3444.597 7        47.509                  
  23597522.558 8 124005811.593 8     -3721.486 8        48.909                  
  21342480.182 9 112155491.199 9      -946.970 9        55.916                  
  23097642.341 8 121378936.929 8     -2925.507 8        51.082                  
  21723784.297 8 114159249.221 8      1789.667 8        52.403                  
  25027510.402 7 131518252.652 7     -1879.934 7        45.513                  
  20417488.654 9 107294599.125 9       805.698 9        56.490                  
 02  5 18 00 03 43.0000000  0  7G01G16G10G23G21G07G08                           
  23648069.629 7 124271457.137 7      3435.065 7        47.702                  
  23598228.849 8 124009530.411 8     -3719.219 8        49.955                  
  21342659.570 9 112156439.306 9      -948.925 9        56.001                  
  23098200.927 8 121381862.825 8     -2926.756 8        49.687                  
  21723447.967 8 114157459.862 8      1790.060 8        53.285                  
  25027867.371 7 131520133.330 7     -1880.414 7        46.353                  
  20417335.141 9 107293793.523 9       804.945 9        58.072                  
 02  5 18 00 03 44.0000000  0  7G01G16G10G23G21G07G08                           
  23647414.443 8 124268018.306 8      3437.920 8        50.357                  
  23598936.445 8 124013249.417 8     -3717.574 8        51.707                  
  21342838.045 9 112157388.022 9      -949.259 9        54.815                  
  23098755.635 8 121384789.104 8     -2926.515 8        50.558                  
  21723105.435 8 114155670.847 8      1788.101 8        53.560                  
  25028227.807 7 131522014.353 7     -1879.305 7        46.613                  
  20417181.861 9 107292988.410 9       805.434 9        56.793                  
 02  5 18 00 03 45.0000000  0  7G01G16G10G23G21G07G08                           
  23646762.742 8 124264579.641 8      3435.662 8        49.626                  
  23599645.702 8 124016968.602 8     -3716.887 8        51.155                  
  21343017.897 9 112158337.345 9      -950.033 9        55.353                  
  23099313.452 8 121387715.755 8     -2925.467 8        50.794                  
  21722760.170 9 114153882.128 9      1789.023 9        55.760                  
  25028582.096 7 131523895.683 7     -1879.629 7        46.017                  
  20417028.294 9 107292183.802 9       804.618 9        54.412                  
 02  5 18 00 03 46.0000000  0  7G01G16G10G23G21G07G08                           
  23646108.664 8 124261141.149 8      3434.533 8        49.158                  
  23600352.583 8 124020687.990 8     -3718.789 8        50.737                  
  21343201.305 9 112159287.263 9      -950.684 9        55.293                  
  23099872.109 8 121390642.769 8     -2927.257 8        50.722                  
  21722423.250 9 114152093.715 9      1789.258 9        55.608                  
  25028943.515 7 131525777.385 7     -1885.059 7        45.459                  
  20416874.674 9 107291379.700 9       804.090 9        55.335                  
 02  5 18 00 03 47.0000000  0  7G01G16G10G23G21G07G08                           
  23645452.156 7 124257702.850 7      3440.990 7        47.432                  
  23601059.463 8 124024407.633 8     -3717.974 8        50.866                  
  21343383.372 9 112160237.757 9      -951.151 9        57.148                  
  23100427.586 8 121393570.098 8     -2927.904 8        51.770                  
  21722086.526 9 114150305.635 9      1788.518 9        55.117                  
  25029300.521 7 131527659.422 7     -1882.373 7        47.610                  
  20416720.715 9 107290576.099 9       803.528 9        56.342                  
 02  5 18 00 03 48.0000000  0  7G01G16G10G23G21G07G08                           
  23644799.847 8 124254264.954 8      3436.176 8        48.088                  
  23601768.846 8 124028127.788 8     -3721.072 8        50.403                  
  21343562.259 9 112161188.711 9      -950.254 9        56.239                  
  23100983.473 8 121396497.471 8     -2928.983 8        50.353                  
  21721743.387 8 114148517.983 8      1787.212 8        53.701                  
  25029656.722 7 131529541.867 7     -1881.211 7        47.444                  
  20416566.881 9 107289772.965 9       803.250 9        56.282                  
 02  5 18 00 03 49.0000000  0  7G01G16G10G23G21G07G08                           
  23644144.573 7 124250831.778 7      3428.467 7        47.832                  
  23602476.799 8 124031848.772 8     -3720.480 8        49.523                  
  21343741.896 9 112162137.528 9      -943.324 9        54.865                  
  23101540.951 8 121399421.718 8     -2918.873 8        51.072                  
  21721400.748 9 114146734.014 9      1777.612 9        54.412                  
  25030022.340 7 131531429.302 7     -1898.636 7        45.119                  
  20416414.118 9 107288971.403 9       798.887 9        56.855                  
 02  5 18 00 03 50.0000000  0  7G01G16G10G23G21G07G08                           
  23643496.088 8 124247420.382 8      3396.820 8        48.876                  
  23603183.769 8 124035568.457 8     -3716.017 8        49.707                  
  21343919.765 9 112163074.189 9      -929.584 9        54.149                  
  23102094.640 8 121402332.138 8     -2904.312 8        49.089                  
  21721067.723 9 114144966.785 9      1756.987 9        54.077                  
  25030377.236 7 131533341.011 7     -1925.967 7        44.194                  
  20416263.572 9 107288176.311 9       791.796 9        55.778                  
 02  5 18 00 03 51.0000000  0  7G01G16G10G23G21G07G08                           
  23642852.231 8 124244033.365 8      3376.059 8        48.498                  
  23603890.953 8 124039285.989 8     -3715.312 8        49.667                  
  21344097.293 9 112163997.111 9      -917.976 9        55.433                  
  23102645.489 8 121405227.378 8     -2889.871 8        49.485                  
  21720736.986 8 114143218.301 8      1739.994 8        51.115                  
  25030751.003 7 131535280.262 7     -1947.031 7        42.384                  
  20416113.454 9 107287388.530 9       785.338 9        55.492                  
 02  5 18 00 03 52.0000000  0  7G01G16G10G23G21G07G08                           
  23642209.179 8 124240658.216 8      3369.994 8        49.183                  
  23604600.639 8 124043010.419 8     -3734.100 8        50.099                  
  21344272.856 9 112164913.594 9      -914.303 9        56.176                  
  23103194.908 8 121408111.631 8     -2877.557 8        50.386                  
  21720404.550 9 114141478.117 9      1737.621 9        54.539                  
  25031120.212 7 131537229.358 7     -1947.485 7        43.553                  
  20415964.391 9 107286602.890 9       786.559 9        57.587                  
 02  5 18 00 03 53.0000000  0  7G01G16G10G23G21G07G08                           
  23641567.681 7 124237290.973 7      3359.556 7        47.906                  
  23605314.113 8 124046759.290 8     -3760.221 8        50.335                  
  21344447.222 9 112165825.738 9      -908.277 9        56.653                  
  23103740.181 8 121410979.041 8     -2857.818 8        49.814                  
  21720070.274 8 114139741.211 8      1736.119 8        52.026                  
  25031493.193 7 131539175.909 7     -1943.471 7        45.622                  
  20415813.451 9 107285814.749 9       790.415 9        56.607                  
 02  5 18 00 03 54.0000000  0  7G01G16G10G23G21G07G08                           
  23640929.739 8 124233931.912 8      3357.095 8        48.152                  
  23606030.715 8 124050530.989 8     -3777.851 8        49.440                  
  21344617.103 9 112166733.421 9      -906.893 9        55.598                  
  23104282.524 8 121413830.224 8     -2845.495 8        49.180                  
  21719740.323 8 114138007.952 8      1732.645 8        53.252                  
  25031859.740 7 131541120.970 7     -1946.000 7        43.699                  
  20415663.173 9 107285024.570 9       790.606 9        55.850                  
 02  5 18 00 03 55.0000000  0  7G01G16G10G23G21G07G08                           
  23640290.957 8 124230575.825 8      3356.042 8        48.852                  
  23606749.514 8 124054308.362 8     -3775.779 8        48.712                  
  21344788.825 9 112167639.926 9      -907.344 9        58.277                  
  23104825.724 8 121416677.135 8     -2848.642 8        50.015                  
  21719415.536 9 114136276.465 9      1730.162 9        54.106                  
  25032233.256 7 131543066.891 7     -1946.604 7        44.389                  
  20415513.162 9 107284234.464 9       790.167 9        58.319                  
 02  5 18 00 03 56.0000000  0  7G01G16G10G23G21G07G08                           
  23639651.800 8 124227220.333 8      3354.406 8        48.379                  
  23607469.028 7 124058086.011 7     -3777.009 7        47.726                  
  21344960.725 9 112168546.763 9      -906.836 9        55.728                  
  23105365.905 8 121419524.068 8     -2845.148 8        49.867                  
  21719087.639 9 114134545.594 9      1729.670 9        54.291                  
  25032602.216 7 131545013.587 7     -1947.261 7        45.332                  
  20415362.526 9 107283444.952 9       788.717 9        58.157                  
 02  5 18 00 03 57.0000000  0  7G01G16G10G23G21G07G08                           
  23639013.036 8 124223865.077 8      3357.257 8        48.400                  
  23608188.703 8 124061863.860 8     -3780.441 8        50.104                  
  21345134.912 9 112169454.137 9      -907.580 9        55.967                  
  23105908.587 8 121422371.287 8     -2848.300 8        48.394                  
  21718755.436 8 114132815.082 8      1730.369 8        53.014                  
  25032972.873 7 131546960.743 7     -1948.439 7        45.008                  
  20415212.158 9 107282655.964 9       788.413 9        56.948                  
 02  5 18 00 03 58.0000000  0  7G01G16G10G23G21G07G08                           
  23638376.202 8 124220509.995 8      3352.340 8        48.165                  
  23608907.395 8 124065641.888 8     -3775.754 8        51.594                  
  21345309.367 9 112170362.082 9      -906.996 9        56.650                  
  23106450.626 8 121425218.826 8     -2847.572 8        52.387                  
  21718423.483 8 114131084.855 8      1730.361 8        51.545                  
  25033344.459 7 131548908.248 7     -1948.107 7        45.573                  
  20415062.130 9 107281867.467 9       787.333 9        55.498                  
 02  5 18 00 03 59.0000000  0  7G01G16G10G23G21G07G08                           
  23637737.938 8 124217155.062 8      3355.099 8        50.657                  
  23609625.355 8 124069420.097 8     -3778.952 8        50.952                  
  21345483.054 9 112171270.599 9      -908.794 9        54.789                  
  23106991.039 8 121428066.764 8     -2849.128 8        52.199                  
  21718094.407 8 114129354.923 8      1729.933 8        51.318                  
  25033714.133 7 131550856.133 7     -1946.411 7        44.043                  
  20414912.138 9 107281079.469 9       787.665 9        54.188                  
 02  5 18 00 04  0.0000000  0  7G01G16G10G23G21G07G08                           
  23637098.102 8 124213800.298 8      3353.934 8        49.563                  
  23610344.404 8 124073198.481 8     -3778.316 8        51.830                  
  21345655.258 8 112172179.701 8      -909.530 8        53.218                  
  23107534.471 8 121430915.067 8     -2849.248 8        50.655                  
  21717768.405 8 114127625.277 8      1730.475 8        51.713                  
  25034086.971 7 131552804.360 7     -1947.495 7        45.198                  
  20414762.413 9 107280291.948 9       786.776 9        55.448                  
 02  5 18 00 04  1.0000000  0  7G01G16G10G23G21G07G08                           
  23636460.196 8 124210445.703 8      3354.894 8        51.275                  
  23611063.775 8 124076977.074 8     -3780.574 8        50.370                  
  21345826.229 9 112173089.388 9      -910.185 9        54.136                  
  23108075.867 8 121433763.738 8     -2849.948 8        50.524                  
  21717441.455 8 114125895.931 8      1729.576 8        52.559                  
  25034456.431 7 131554752.951 7     -1951.850 7        44.511                  
  20414612.492 9 107279504.941 9       787.638 9        55.632                  
 02  5 18 00 04  2.0000000  0  7G01G16G10G23G21G07G08                           
  23635822.611 8 124207091.268 8      3358.066 8        49.426                  
  23611783.915 8 124080755.838 8     -3777.817 8        50.936                  
  21345998.861 9 112173999.634 9      -910.559 9        54.210                  
  23108617.549 8 121436612.733 8     -2849.334 8        51.996                  
  21717110.449 8 114124166.912 8      1728.660 8        53.821                  
  25034827.945 7 131556701.910 7     -1947.198 7        46.229                  
  20414463.000 9 107278718.434 9       785.655 9        56.179                  
 02  5 18 00 04  3.0000000  0  7G01G16G10G23G21G07G08                           
  23635184.062 8 124203737.100 8      3355.552 8        48.564                  
  23612502.178 8 124084534.812 8     -3782.519 8        50.571                  
  21346171.958 9 112174910.417 9      -912.019 9        54.529                  
  23109160.892 8 121439462.002 8     -2850.294 8        51.451                  
  21716777.925 9 114122438.245 9      1728.027 9        55.032                  
  25035196.065 7 131558651.334 7     -1949.312 7        46.232                  
  20414313.507 9 107277932.439 9       786.765 9        54.497                  
 02  5 18 00 04  4.0000000  0  7G01G16G10G23G21G07G08                           
  23634544.797 8 124200383.688 8      3353.592 8        48.121                  
  23613220.531 8 124088314.043 8     -3780.068 8        49.008                  
  21346347.700 8 112175821.424 8      -909.627 8        50.737                  
  23109701.358 8 121442311.184 8     -2849.372 8        49.797                  
  21716449.171 8 114120710.296 8      1726.530 8        53.907                  
  25035571.154 7 131560601.717 7     -1952.472 7        46.049                  
  20414164.069 8 107277147.114 8       783.698 8        52.765                  
 02  5 18 00 04  5.0000000  0  7G01G16G10G23G21G07G08                           
  23633907.088 7 124197031.583 7      3348.948 7        45.792                  
  23613938.043 8 124092084.733 8     -3763.119 8        49.079                  
  21346521.923 9 112176732.436 9      -911.830 9        54.253                  
  23110245.488 8 121445164.190 8     -2858.872 8        48.457                  
  21716123.668 9 114118984.552 9      1724.267 9        54.273                  
  25035938.988 7 131562557.735 7     -1960.850 7        45.881                  
  20414015.184 9 107276364.350 9       780.633 9        55.482                  
 02  5 18 00 04  6.0000000  0  7G01G16G10G23G21G07G08                           
  23633270.665 7 124193681.278 7      3347.035 7        47.304                  
  23614653.376 8 124095835.246 8     -3747.838 8        49.658                  
  21346695.878 9 112177643.382 9      -909.837 9        55.270                  
  23110790.690 8 121448026.437 8     -2863.054 8        48.208                  
  21715799.042 8 114117262.718 8      1719.284 8        53.193                  
  25036318.579 7 131564525.235 7     -1972.812 7        46.057                  
  20413867.497 9 107275586.675 9       775.906 9        56.501                  
 02  5 18 00 04  7.0000000  0  7G01G16G10G23G21G07G08                           
  23632635.314 7 124190341.551 7      3331.445 7        47.224                  
  23615367.923 8 124099590.175 8     -3765.167 8        50.218                  
  21346866.241 9 112178548.654 9      -899.613 9        55.154                  
  23111331.246 8 121450879.779 8     -2844.387 8        50.500                  
  21715471.056 8 114115548.492 8      1710.068 8        53.287                  
  25036690.988 7 131566502.355 7     -1984.701 7        46.340                  
  20413720.345 9 107274811.326 9       774.871 9        58.023                  
 02  5 18 00 04  8.0000000  0  7G01G16G10G23G21G07G08                           
  23632001.517 8 124187017.108 8      3321.525 8        48.467                  
  23616085.185 8 124103364.693 8     -3779.143 8        49.366                  
  21347035.479 9 112179445.257 9      -894.863 9        54.089                  
  23111873.517 8 121453713.507 8     -2830.380 8        50.550                  
  21715144.178 8 114113843.637 8      1701.933 8        53.862                  
  25037070.561 7 131568487.256 7     -1986.248 7        46.243                  
  20413573.426 9 107274036.431 9       774.453 9        56.851                  
 02  5 18 00 04  9.0000000  0  7G01G16G10G23G21G07G08                           
  23631369.794 8 124183696.807 8      3322.640 8        49.213                  
  23616803.520 8 124107143.196 8     -3777.631 8        50.542                  
  21347204.984 9 112180340.006 9      -895.091 9        54.848                  
  23112410.088 8 121456542.967 8     -2829.373 8        49.667                  
  21714817.979 8 114112141.578 8      1702.045 8        52.170                  
  25037446.293 7 131570475.003 7     -1989.086 7        46.832                  
  20413426.400 9 107273262.286 9       773.911 9        57.782                  
 02  5 18 00 04 10.0000000  0  7G01G16G10G23G21G07G08                           
  23630738.177 8 124180376.981 8      3318.755 8        49.393                  
  23617522.730 8 124110921.801 8     -3778.695 8        51.099                  
  21347376.259 9 112181235.149 9      -895.447 9        54.649                  
  23112948.285 8 121459372.609 8     -2829.471 8        50.205                  
  21714495.729 8 114110440.092 8      1701.117 8        53.929                  
  25037827.868 7 131572463.508 7     -1987.288 7        46.046                  
  20413279.695 9 107272488.747 9       774.490 9        58.355                  
 02  5 18 00 04 11.0000000  0  7G01G16G10G23G21G07G08                           
  23630107.579 8 124177057.349 8      3319.966 8        48.945                  
  23618243.245 8 124114700.566 8     -3776.342 8        49.143                  
  21347548.606 9 112182130.853 9      -895.522 9        54.312                  
  23113488.448 7 121462202.573 7     -2827.922 7        47.576                  
  21714174.444 8 114108738.906 8      1700.526 8        52.435                  
  25038203.386 7 131574452.416 7     -1988.691 7        45.331                  
  20413133.491 9 107271715.700 9       772.734 9        57.238                  
 02  5 18 00 04 12.0000000  0  7G01G16G10G23G21G07G08                           
  23629474.123 8 124173737.896 8      3316.761 8        48.956                  
  23618962.777 8 124118479.503 8     -3779.928 8        49.630                  
  21347720.023 9 112183027.115 9      -898.144 9        54.417                  
  23114024.733 8 121465032.909 8     -2829.569 8        48.625                  
  21713852.641 8 114107038.027 8      1699.779 8        53.667                  
  25038584.747 7 131576441.687 7     -1988.786 7        47.551                  
  20412987.126 9 107270943.152 9       772.935 9        57.344                  
 02  5 18 00 04 13.0000000  0  7G01G16G10G23G21G07G08                           
  23628842.131 7 124170418.583 7      3319.698 7        47.765                  
  23619680.272 8 124122258.612 8     -3780.075 8        49.735                  
  21347891.262 9 112183923.962 9      -897.965 9        54.027                  
  23114566.379 8 121467863.616 8     -2831.157 8        48.056                  
  21713528.568 8 114105337.456 8      1700.517 8        52.984                  
  25038961.229 8 131578431.316 8     -1988.477 8        48.961                  
  20412840.850 9 107270171.117 9       770.919 9        55.344                  
 02  5 18 00 04 14.0000000  0  7G01G16G10G23G21G07G08                           
  23628210.943 7 124167099.439 7      3319.403 7        47.038                  
  23620399.232 8 124126037.916 8     -3776.151 8        49.138                  
  21348060.178 8 112184821.393 8      -897.471 8        53.709                  
  23115102.842 8 121470694.669 8     -2831.088 8        50.236                  
  21713203.763 8 114103637.152 8      1699.400 8        53.941                  
  25039340.463 7 131580421.304 7     -1987.067 7        46.100                  
  20412694.252 9 107269399.547 9       770.821 9        57.239                  
 02  5 18 00 04 15.0000000  0  7G01G16G10G23G21G07G08                           
  23627580.381 8 124163780.437 8      3316.165 8        49.213                  
  23621118.710 8 124129817.402 8     -3780.899 8        50.830                  
  21348229.416 9 112185719.397 9      -897.729 9        54.362                  
  23115642.576 8 121473526.081 8     -2831.872 8        51.283                  
  21712876.510 9 114101937.136 9      1699.799 9        54.555                  
  25039718.661 7 131582411.650 7     -1992.464 7        45.003                  
  20412547.137 9 107268628.451 9       770.809 9        58.559                  
 02  5 18 00 04 16.0000000  0  7G01G16G10G23G21G07G08                           
  23626949.051 8 124160461.589 8      3319.706 8        49.336                  
  23621838.600 8 124133597.084 8     -3778.911 8        50.114                  
  21348399.940 8 112186617.976 8      -899.120 8        52.850                  
  23116181.971 8 121476357.866 8     -2833.911 8        48.996                  
  21712552.634 8 114100237.388 8      1699.604 8        52.803                  
  25040097.395 7 131584402.334 7     -1990.255 7        43.551                  
  20412400.557 9 107267857.883 9       771.619 9        55.496                  
 02  5 18 00 04 17.0000000  0  7G01G16G10G23G21G07G08                           
  23626316.684 8 124157142.916 8      3316.495 8        48.276                  
  23622558.239 8 124137376.914 8     -3778.470 8        48.856                  
  21348571.036 8 112187517.133 8      -900.159 8        53.849                  
  23116719.256 8 121479190.025 8     -2830.029 8        51.133                  
  21712231.920 8 114098537.939 8      1698.496 8        53.154                  
  25040477.541 7 131586393.384 7     -1990.734 7        44.558                  
  20412253.334 9 107267087.781 9       770.271 9        56.892                  
 02  5 18 00 04 18.0000000  0  7G01G16G10G23G21G07G08                           
  23625684.478 7 124153824.409 7      3321.816 7        46.873                  
  23623276.859 8 124141156.956 8     -3777.724 8        50.131                  
  21348744.848 8 112188416.877 8      -899.540 8        52.540                  
  23117259.955 8 121482022.515 8     -2828.675 8        48.958                  
  21711911.725 8 114096838.775 8      1699.087 8        52.923                  
  25040855.149 7 131588384.776 7     -1990.843 7        45.603                  
  20412106.111 9 107266318.153 9       770.334 9        57.081                  
 02  5 18 00 04 19.0000000  0  7G01G16G10G23G21G07G08                           
  23625053.648 8 124150506.103 8      3316.743 8        48.808                  
  23623996.016 8 124144937.144 8     -3778.372 8        50.119                  
  21348916.658 9 112189317.169 9      -899.908 9        54.092                  
  23117797.384 8 121484855.374 8     -2833.686 8        48.845                  
  21711588.260 8 114095139.948 8      1697.988 8        52.290                  
  25041236.063 7 131590376.572 7     -1992.083 7        47.023                  
  20411959.264 9 107265549.028 9       767.702 9        57.068                  
 02  5 18 00 04 20.0000000  0  7G01G16G10G23G21G07G08                           
  23624423.318 8 124147188.195 8      3316.895 8        48.978                  
  23624715.244 8 124148717.440 8     -3780.079 8        49.468                  
  21349088.790 9 112190217.891 9      -900.611 9        56.173                  
  23118338.083 8 121487688.442 8     -2833.118 8        48.829                  
  21711263.008 9 114093441.623 9      1698.245 9        54.505                  
  25041612.938 7 131592369.050 7     -1994.249 7        46.492                  
  20411812.094 9 107264780.485 9       767.971 9        56.261                  
 02  5 18 00 04 21.0000000  0  7G01G16G10G23G21G07G08                           
  23623791.648 7 124143871.858 7      3315.728 7        47.316                  
  23625435.169 8 124152497.493 8     -3779.770 8        49.251                  
  21349258.778 9 112191118.385 9      -899.355 9        54.470                  
  23118877.137 8 121490521.106 8     -2833.269 8        49.082                  
  21710937.327 9 114091744.668 9      1696.315 9        54.315                  
  25041995.479 7 131594363.569 7     -1999.221 7        47.843                  
  20411665.390 9 107264012.897 9       766.236 9        56.285                  
 02  5 18 00 04 22.0000000  0  7G01G16G10G23G21G07G08                           
  23623161.229 8 124140561.450 8      3307.443 8        48.039                  
  23626154.433 8 124156275.483 8     -3777.465 8        49.119                  
  21349427.462 9 112192016.043 9      -896.260 9        54.584                  
  23119414.316 8 121493351.228 8     -2828.408 8        49.862                  
  21710614.577 9 114090052.575 9      1689.749 9        55.045                  
  25042372.158 7 131596365.722 7     -2006.980 7        46.220                  
  20411518.685 9 107263247.727 9       763.923 9        56.075                  
 02  5 18 00 04 23.0000000  0  7G01G16G10G23G21G07G08                           
  23622532.079 8 124137255.763 8      3306.352 8        49.063                  
  23626872.160 8 124160051.463 8     -3774.387 8        51.130                  
  21349597.861 9 112192911.604 9      -896.185 9        54.461                  
  23119955.086 8 121496179.610 8     -2825.079 8        49.610                  
  21710294.597 8 114088364.487 8      1687.358 8        53.609                  
  25042758.128 7 131598374.168 7     -2008.736 7        46.643                  
  20411373.338 9 107262484.692 9       763.071 9        57.056                  
 02  5 18 00 04 24.0000000  0  7G01G16G10G23G21G07G08                           
  23621903.947 8 124133951.127 8      3304.574 8        50.068                  
  23627590.120 8 124163827.144 8     -3777.344 8        48.530                  
  21349767.545 9 112193807.236 9      -896.083 9        55.389                  
  23120490.960 8 121499007.984 8     -2830.008 8        49.208                  
  21709975.760 8 114086677.389 8      1686.376 8        53.283                  
  25043137.238 7 131600384.153 7     -2010.555 7        45.782                  
  20411227.384 9 107261722.456 9       762.461 9        55.250                  
 02  5 18 00 04 25.0000000  0  7G01G16G10G23G21G07G08                           
  23621275.457 8 124130646.798 8      3304.893 8        50.351                  
  23628309.473 8 124167602.897 8     -3776.914 8        49.066                  
  21349940.696 9 112194703.356 9      -896.232 9        54.689                  
  23121030.891 8 121501836.652 8     -2827.618 8        49.242                  
  21709656.941 8 114084990.706 8      1686.320 8        51.364                  
  25043521.850 7 131602394.701 7     -2011.751 7        45.775                  
  20411081.359 9 107260960.768 9       761.447 9        54.693                  
 02  5 18 00 04 26.0000000  0  7G01G16G10G23G21G07G08                           
  23620646.611 7 124127342.676 7      3305.790 7        47.734                  
  23629028.773 8 124171378.812 8     -3775.455 8        50.884                  
  21350112.060 9 112195600.023 9      -896.733 9        56.529                  
  23121568.391 8 121504665.682 8     -2829.883 8        48.192                  
  21709336.227 8 114083304.327 8      1685.812 8        52.033                  
  25043903.819 7 131604405.639 7     -2011.675 7        45.878                  
  20410935.672 9 107260199.568 9       761.579 9        55.219                  
 02  5 18 00 04 27.0000000  0  7G01G16G10G23G21G07G08                           
  23620017.121 8 124124038.720 8      3301.103 8        49.273                  
  23629747.143 8 124175154.913 8     -3778.209 8        50.506                  
  21350283.763 9 112196497.277 9      -898.184 9        55.559                  
  23122106.302 7 121507495.068 7     -2831.384 7        47.978                  
  21709013.227 8 114081618.229 8      1686.607 8        53.554                  
  25044289.218 7 131606416.925 7     -2009.858 7        44.288                  
  20410790.022 9 107259438.846 9       760.190 9        55.817                  
 02  5 18 00 04 28.0000000  0  7G01G16G10G23G21G07G08                           
  23619388.399 8 124120734.904 8      3303.644 8        49.638                  
  23630464.245 8 124178931.200 8     -3776.278 8        51.700                  
  21350453.430 8 112197395.112 8      -897.411 8        51.889                  
  23122645.768 8 121510324.807 8     -2829.699 8        49.711                  
  21708689.726 8 114079932.469 8      1685.497 8        53.286                  
  25044669.149 7 131608428.584 7     -2011.411 7        43.388                  
  20410644.818 9 107258678.613 9       759.757 9        56.656                  
 02  5 18 00 04 29.0000000  0  7G01G16G10G23G21G07G08                           
  23618760.089 8 124117431.231 8      3305.143 8        48.088                  
  23631183.920 8 124182707.656 8     -3777.835 8        48.121                  
  21350622.560 8 112198293.534 8      -899.459 8        51.238                  
  23123182.393 8 121513154.919 8     -2830.472 8        51.021                  
  21708367.816 9 114078246.956 9      1685.003 9        54.160                  
  25045049.187 7 131610440.573 7     -2015.105 7        44.362                  
  20410499.490 9 107257918.880 9       760.701 9        58.577                  
 02  5 18 00 04 30.0000000  0  7G01G16G10G23G21G07G08                           
  23618132.243 8 124114127.743 8      3301.183 8        48.753                  
  23631902.344 8 124186484.301 8     -3778.226 8        48.812                  
  21350792.995 8 112199192.551 8      -899.818 8        53.012                  
  23123723.413 8 121515985.379 8     -2832.046 8        50.155                  
  21708048.353 9 114076561.730 9      1685.253 9        55.022                  
  25045436.391 7 131612452.913 7     -2013.679 7        46.165                  
  20410353.928 9 107257159.613 9       758.328 9        59.094                  
 02  5 18 00 04 31.0000000  0  7G01G16G10G23G21G07G08                           
  23617503.753 8 124110824.392 8      3303.476 8        49.029                  
  23632621.894 8 124190261.112 8     -3776.992 8        49.284                  
  21350963.859 8 112200092.116 8      -899.840 8        53.564                  
  23124260.967 8 121518816.207 8     -2831.778 8        50.819                  
  21707730.356 8 114074876.774 8      1685.414 8        53.957                  
  25045817.091 7 131614465.615 7     -2016.759 7        44.597                  
  20410208.421 9 107256400.846 9       758.955 9        58.935                  
 02  5 18 00 04 32.0000000  0  7G01G16G10G23G21G07G08                           
  23616873.978 8 124107521.199 8      3301.622 8        48.318                  
  23633340.336 8 124194038.115 8     -3775.820 8        50.664                  
  21351136.991 8 112200992.253 8      -900.531 8        51.869                  
  23124799.307 8 121521647.390 8     -2830.686 8        50.565                  
  21707411.698 8 114073192.125 8      1684.414 8        52.797                  
  25046202.311 7 131616478.657 7     -2013.192 7        45.011                  
  20410063.325 9 107255642.556 9       758.082 9        58.622                  
 02  5 18 00 04 33.0000000  0  7G01G16G10G23G21G07G08                           
  23616245.095 8 124104218.160 8      3301.112 8        49.549                  
  23634058.099 8 124197815.290 8     -3778.029 8        50.607                  
  21351309.696 8 112201892.999 8      -902.261 8        49.770                  
  23125339.398 8 121524478.918 8     -2833.287 8        50.489                  
  21707091.664 9 114071507.732 9      1684.196 9        55.570                  
  25046582.224 7 131618492.051 7     -2014.419 7        45.376                  
  20409919.390 9 107254884.754 9       758.262 9        59.330                  
 02  5 18 00 04 34.0000000  0  7G01G16G10G23G21G07G08                           
  23615616.659 8 124100915.277 8      3300.394 8        50.114                  
  23634776.970 8 124201592.624 8     -3778.077 8        50.017                  
  21351481.953 8 112202794.329 8      -901.663 8        50.042                  
  23125876.255 8 121527310.832 8     -2830.661 8        50.687                  
  21706769.074 9 114069823.661 9      1683.457 9        54.175                  
  25046968.910 7 131620505.788 7     -2016.105 7        45.560                  
  20409776.545 9 107254127.466 9       756.490 9        57.939                  
 02  5 18 00 04 35.0000000  0  7G01G16G10G23G21G07G08                           
  23614989.564 8 124097612.532 8      3303.536 8        50.346                  
  23635497.038 8 124205370.163 8     -3775.736 8        49.669                  
  21351652.691 8 112203696.241 8      -901.560 8        51.926                  
  23126417.365 8 121530143.100 8     -2831.791 8        51.377                  
  21706445.949 8 114068139.855 8      1684.467 8        53.980                  
  25047350.324 7 131622519.869 7     -2012.205 7        44.684                  
  20409633.753 9 107253370.617 9       758.011 9        55.643                  
 02  5 18 00 04 36.0000000  0  7G01G16G10G23G21G07G08                           
  23614361.164 8 124094309.970 8      3305.530 8        49.512                  
  23636217.213 8 124209147.875 8     -3779.568 8        49.466                  
  21351822.233 8 112204598.704 8      -902.835 8        52.486                  
  23126954.686 8 121532975.717 8     -2832.195 8        49.457                  
  21706124.360 8 114066456.358 8      1683.477 8        53.497                  
  25047736.099 7 131624534.310 7     -2015.183 7        43.222                  
  20409491.909 9 107252614.269 9       756.448 9        55.633                  
 02  5 18 00 04 37.0000000  0  7G01G16G10G23G21G07G08                           
  23613731.621 8 124091007.565 8      3301.216 8        50.100                  
  23636934.189 8 124212925.780 8     -3777.985 8        49.147                  
  21351993.311 9 112205501.762 9      -903.596 9        54.654                  
  23127494.492 8 121535808.702 8     -2830.825 8        51.474                  
  21705804.451 9 114064773.123 9      1683.177 9        54.358                  
  25048119.657 7 131626549.088 7     -2015.004 7        42.985                  
  20409348.617 9 107251858.411 9       755.228 9        57.138                  
 02  5 18 00 04 38.0000000  0  7G01G16G10G23G21G07G08                           
  23613102.899 8 124087705.312 8      3301.549 8        48.547                  
  23637652.256 8 124216703.856 8     -3776.289 8        51.758                  
  21352165.318 9 112206405.417 9      -904.527 9        55.159                  
  23128033.654 8 121538642.053 8     -2833.349 8        48.557                  
  21705486.739 8 114063090.171 8      1684.517 8        53.046                  
  25048505.164 7 131628564.238 7     -2016.024 7        44.324                  
  20409205.951 9 107251103.067 9       755.299 9        57.475                  
 02  5 18 00 04 39.0000000  0  7G01G16G10G23G21G07G08                           
  23612475.285 8 124084403.215 8      3303.475 8        49.608                  
  23638371.538 8 124220482.100 8     -3775.511 8        50.081                  
  21352339.648 9 112207309.630 9      -905.590 9        54.935                  
  23128572.065 8 121541475.771 8     -2833.935 8        49.306                  
  21705169.135 8 114061407.512 8      1681.332 8        52.022                  
  25048885.649 7 131630579.701 7     -2017.673 7        43.979                  
  20409063.392 9 107250348.208 9       755.199 9        56.574                  
 02  5 18 00 04 40.0000000  0  7G01G16G10G23G21G07G08                           
  23611847.135 8 124081101.262 8      3298.674 8        48.922                  
  23639091.928 8 124224260.523 8     -3778.337 8        49.634                  
  21352512.227 8 112208214.418 8      -904.769 8        53.979                  
  23129113.389 8 121544309.836 8     -2835.523 8        50.470                  
  21704849.977 8 114059725.135 8      1682.222 8        53.416                  
  25049268.153 7 131632595.535 7     -2016.277 7        45.103                  
  20408920.869 9 107249593.804 9       754.287 9        57.144                  
 02  5 18 00 04 41.0000000  0  7G01G16G10G23G21G07G08                           
  23611219.522 8 124077799.496 8      3300.683 8        48.067                  
  23639810.798 8 124228039.107 8     -3775.159 8        50.299                  
  21352685.843 9 112209119.811 9      -905.183 9        54.096                  
  23129651.283 8 121547144.257 8     -2835.462 8        49.689                  
  21704528.459 8 114058043.042 8      1682.568 8        52.541                  
  25049656.983 7 131634611.732 7     -2016.586 7        43.823                  
  20408778.542 9 107248839.912 9       753.894 9        57.560                  
 02  5 18 00 04 42.0000000  0  7G01G16G10G23G21G07G08                           
  23610590.586 8 124074497.952 8      3300.472 8        48.387                  
  23640529.348 8 124231817.840 8     -3777.104 8        48.580                  
  21352856.224 8 112210025.754 8      -904.958 8        53.481                  
  23130191.177 8 121549979.039 8     -2833.579 8        49.136                  
  21704206.263 8 114056361.275 8      1681.813 8        53.552                  
  25050034.859 7 131636628.356 7     -2014.369 7        44.731                  
  20408637.162 9 107248086.511 9       752.856 9        58.487                  
 02  5 18 00 04 43.0000000  0  7G01G16G10G23G21G07G08                           
  23609961.239 8 124071196.890 8      3297.285 8        49.525                  
  23641247.879 8 124235596.573 8     -3775.060 8        49.166                  
  21353026.891 9 112210932.055 9      -906.190 9        55.218                  
  23130731.590 8 121552814.016 8     -2835.667 8        49.304                  
  21703884.317 8 114054680.101 8      1680.017 8        52.957                  
  25050421.366 7 131638645.825 7     -2014.911 7        44.492                  
  20408494.728 9 107247333.728 9       752.149 9        57.897                  
 02  5 18 00 04 44.0000000  0  7G01G16G10G23G21G07G08                           
  23609332.517 8 124067892.890 8      3309.678 8        48.347                  
  23641965.124 8 124239368.812 8     -3763.736 8        48.582                  
  21353199.309 9 112211840.936 9      -913.886 9        55.737                  
  23131270.216 8 121555654.782 8     -2849.240 8        49.426                  
  21703563.711 8 114052997.660 8      1684.885 8        53.076                  
  25050804.710 7 131640663.261 7     -2017.163 7        46.577                  
  20408351.722 9 107246581.971 9       751.103 9        55.395                  
 02  5 18 00 04 45.0000000  0  7G01G16G10G23G21G07G08                           
  23608702.134 8 124064576.089 8      3320.054 8        48.625                  
  23642679.706 8 124243119.508 8     -3739.964 8        49.556                  
  21353374.640 8 112212758.569 8      -920.569 8        52.854                  
  23131816.490 8 121558515.581 8     -2866.409 8        50.942                  
  21703243.319 8 114051308.362 8      1692.106 8        52.395                  
  25051187.429 7 131642676.870 7     -2007.409 7        46.128                  
  20408207.823 9 107245831.680 9       749.188 9        54.812                  
 02  5 18 00 04 46.0000000  0  7G01G16G10G23G21G07G08                           
  23608072.090 8 124061260.968 8      3308.402 8        48.131                  
  23643392.233 8 124246861.295 8     -3747.137 8        49.818                  
  21353551.793 8 112213676.089 8      -912.330 8        52.427                  
  23132361.084 8 121561380.182 8     -2855.335 8        50.684                  
  21702925.501 8 114049621.570 8      1680.886 8        52.969                  
  25051572.578 7 131644696.573 7     -2027.322 7        47.310                  
  20408064.496 9 107245084.060 9       745.619 9        55.696                  
 02  5 18 00 04 47.0000000  0  7G01G16G10G23G21G07G08                           
  23607445.280 8 124057969.335 8      3282.755 8        48.106                  
  23644105.279 8 124250612.621 8     -3754.462 8        50.061                  
  21353724.390 9 112214580.139 9      -897.668 9        54.776                  
  23132901.176 8 121564224.377 8     -2837.160 8        49.877                  
  21702608.683 8 114047951.411 8      1662.849 8        51.873                  
  25051959.496 7 131646737.588 7     -2049.712 7        45.262                  
  20407920.579 9 107244341.029 9       740.936 9        56.613                  
 02  5 18 00 04 48.0000000  0  7G01G16G10G23G21G07G08                           
  23606819.418 8 124054690.099 8      3277.562 8        49.413                  
  23644819.789 8 124254368.718 8     -3752.720 8        48.828                  
  21353894.968 9 112215477.422 9      -898.401 9        54.310                  
  23133442.160 8 121567058.201 8     -2830.876 8        49.577                  
  21702292.562 8 114046290.114 8      1660.546 8        53.419                  
  25052352.454 7 131648790.055 7     -2050.391 7        46.216                  
  20407779.217 9 107243600.690 9       739.688 9        57.370                  
 02  5 18 00 04 49.0000000  0  7G01G16G10G23G21G07G08                           
  23606196.557 8 124051411.352 8      3279.420 8        50.037                  
  23645535.587 7 124258124.522 7     -3757.488 7        47.460                  
  21354063.241 8 112216375.080 8      -896.629 8        52.137                  
  23133979.750 8 121569892.398 8     -2833.711 8        50.307                  
  21701974.994 8 114044629.425 8      1659.314 8        51.255                  
  25052740.140 7 131650843.458 7     -2053.786 7        47.066                  
  20407636.497 9 107242861.019 9       740.506 9        55.856                  
 02  5 18 00 04 50.0000000  0  7G01G16G10G23G21G07G08                           
  23605573.036 8 124048132.811 8      3277.632 8        49.945                  
  23646250.473 8 124261880.375 8     -3753.874 8        49.982                  
  21354233.872 8 112217273.322 8      -898.281 8        52.604                  
  23134520.181 8 121572726.982 8     -2833.149 8        52.147                  
  21701656.782 8 114042969.040 8      1660.241 8        53.723                  
  25053132.508 7 131652897.291 7     -2052.610 7        47.444                  
  20407494.492 9 107242121.826 9       738.758 9        58.077                  
 02  5 18 00 04 51.0000000  0  7G01G16G10G23G21G07G08                           
  23604949.550 8 124044854.450 8      3278.947 8        49.564                  
  23646963.840 8 124265636.384 8     -3753.543 8        49.139                  
  21354404.271 8 112218172.136 8      -899.813 8        53.880                  
  23135058.646 8 121575561.922 8     -2836.496 8        51.307                  
  21701338.660 8 114041308.965 8      1659.438 8        51.306                  
  25053523.768 7 131654951.483 7     -2053.880 7        46.180                  
  20407352.915 9 107241383.109 9       738.390 9        56.658                  
 02  5 18 00 04 52.0000000  0  7G01G16G10G23G21G07G08                           
  23604326.725 8 124041576.238 8      3278.080 8        48.464                  
  23647678.654 8 124269392.565 8     -3758.941 8        49.515                  
  21354576.421 8 112219071.522 8      -899.572 8        53.197                  
  23135598.397 8 121578397.234 8     -2834.228 8        48.564                  
  21701023.147 8 114039649.180 8      1660.115 8        52.285                  
  25053912.920 7 131657006.023 7     -2055.129 7        44.628                  
  20407210.124 9 107240644.895 9       737.227 9        57.585                  
 02  5 18 00 04 53.0000000  0  7G01G16G10G23G21G07G08                           
  23603702.488 7 124038298.184 7      3277.390 7        47.444                  
  23648394.112 8 124273148.909 8     -3756.747 8        50.380                  
  21354749.429 9 112219971.482 9      -900.883 9        55.084                  
  23136139.453 8 121581232.924 8     -2834.350 8        49.803                  
  21700708.062 8 114037989.654 8      1658.921 8        52.939                  
  25054306.646 7 131659060.913 7     -2055.624 7        45.027                  
  20407068.869 9 107239907.145 9       736.505 9        56.388                  
 02  5 18 00 04 54.0000000  0  7G01G16G10G23G21G07G08                           
  23603077.019 8 124035020.301 8      3278.762 8        48.094                  
  23649109.570 8 124276905.427 8     -3757.182 8        49.501                  
  21354921.543 8 112220872.025 8      -901.193 8        53.371                  
  23136677.097 8 121584068.964 8     -2837.009 8        51.045                  
  21700393.907 8 114036330.406 8      1658.263 8        51.003                  
  25054694.689 7 131661116.117 7     -2054.824 7        45.197                  
  20406930.313 9 107239169.893 9       737.038 9        55.799                  
 02  5 18 00 04 55.0000000  0  7G01G16G10G23G21G07G08                           
  23602453.068 7 124031742.593 7      3278.012 7        47.494                  
  23649824.527 8 124280662.136 8     -3757.139 8        49.723                  
  21355093.193 8 112221773.186 8      -901.231 8        53.903                  
  23137218.832 8 121586905.363 8     -2836.315 8        50.814                  
  21700080.073 9 114034671.466 9      1658.738 9        54.695                  
  25055086.843 7 131663171.680 7     -2056.855 7        45.021                  
  20406793.007 9 107238433.109 9       737.256 9        59.385                  
 02  5 18 00 04 56.0000000  0  7G01G16G10G23G21G07G08                           
  23601829.743 8 124028465.019 8      3275.122 8        49.138                  
  23650538.377 7 124284419.000 7     -3755.258 7        47.512                  
  21355262.484 8 112222674.945 8      -900.801 8        53.491                  
  23137757.994 8 121589742.132 8     -2838.154 8        49.641                  
  21699765.990 8 114033012.787 8      1660.136 8        52.681                  
  25055479.836 7 131665227.573 7     -2055.998 7        45.147                  
  20406654.201 9 107237696.791 9       735.349 9        58.106                  
 02  5 18 00 04 57.0000000  0  7G01G16G10G23G21G07G08                           
  23601207.508 8 124025187.619 8      3279.147 8        48.047                  
  23651253.406 8 124288176.036 8     -3755.013 8        48.579                  
  21355433.330 8 112223577.253 8      -902.619 8        53.351                  
  23138297.156 8 121592579.264 8     -2834.840 8        49.582                  
  21699450.816 8 114031354.430 8      1658.993 8        52.027                  
  25055867.969 7 131667283.823 7     -2051.738 7        44.498                  
  20406516.574 9 107236960.958 9       735.720 9        56.583                  
 02  5 18 00 04 58.0000000  0  7G01G16G10G23G21G07G08                           
  23600584.344 7 124021910.376 7      3275.694 7        46.783                  
  23651969.203 8 124291933.243 8     -3758.547 8        49.245                  
  21355604.390 8 112224480.156 8      -903.931 8        53.548                  
  23138838.659 8 121595416.766 8     -2835.464 8        49.231                  
  21699134.302 8 114029696.325 8      1658.429 8        53.970                  
  25056263.054 7 131669340.408 7     -2050.480 7        45.443                  
  20406377.856 9 107236225.592 9       735.371 9        57.201                  
 02  5 18 00 04 59.0000000  0  7G01G16G10G23G21G07G08                           
  23599960.411 8 124018633.293 8      3274.682 8        48.199                  
  23652684.071 8 124295690.656 8     -3753.994 8        48.196                  
  21355777.916 8 112225383.643 8      -903.904 8        53.272                  
  23139376.820 8 121598254.606 8     -2840.267 8        49.601                  
  21698817.073 8 114028038.505 8      1656.525 8        52.846                  
  25056652.527 7 131671397.315 7     -2058.343 7        46.805                  
  20406240.533 9 107235490.703 9       735.091 9        56.925                  
