     2.11           OBSERVATION DATA    G                   RINEX VERSION / TYPE
BLANK OR G = GPS,  R = GLONASS,  E = GALILEO,  M = MIXED    COMMENT             
GNSS-SDR            joel                 5-MAY-25 10:32     PGM / RUN BY / DATE 
GPS OBSERVATION DATA FILE GENERATED BY GNSS-SDR             COMMENT             
GNSS-SDR VERSION 0.0.16                                     COMMENT             
See https://gnss-sdr.org                                    COMMENT             
DEFAULT MARKER NAME                                         MARKER NAME         
joel                CTTC                                    OBSERVER / AGENCY   
GNSS-SDR            Software Receiver   0.0.16              REC # / TYPE / VERS 
Antenna number      Antenna type                            ANT # / TYPE        
        0.0000        0.0000        0.0000                  APPROX POSITION XYZ 
        0.0000        0.0000        0.0000                  ANTENNA: DELTA H/E/N
     1     1                                                WAVELENGTH FACT L1/2
     4    C1    L1    D1    S1                              # / TYPES OF OBSERV 
  2002    05    18    00    00   42.1200000     GPS         TIME OF FIRST OBS   
    18                                                      LEAP SECONDS        
                                                            END OF HEADER       
 02  5 18 00 00 43.0000000  0  7G01G23G10G16G21G07G08                           
  23763590.575 7 124878514.381 7      3399.658 7        46.685                  
  23001127.120 8 120871743.352 8     -2818.427 8        49.974                  
  21313658.628 9 112004039.667 9      -798.322 9        54.378                  
  23471245.318 8 123342230.695 8     -3662.957 8        49.410                  
  21783585.556 8 114473515.344 8      1786.660 8        53.263                  
  24961618.683 7 131174189.514 7     -1906.862 7        45.646                  
  20445704.806 9 107442908.360 9       868.245 9        55.798                  
 02  5 18 00 00 44.0000000  0  7G01G23G10G16G21G07G08                           
  23762945.682 7 124875117.259 7      3394.709 7        46.768                  
  23001664.781 8 120874562.620 8     -2818.296 8        50.206                  
  21313811.158 8 112004838.024 8      -799.547 8        53.923                  
  23471943.997 8 123345894.470 8     -3663.464 8        50.498                  
  21783249.386 9 114471728.133 9      1786.416 9        54.226                  
  24961981.996 7 131176094.041 7     -1909.757 7        46.112                  
  20445541.823 9 107442040.516 9       867.788 9        56.824                  
 02  5 18 00 00 45.0000000  0  7G01G23G10G16G21G07G08                           
  23762299.037 7 124871720.310 7      3394.047 7        47.506                  
  23002198.940 8 120877382.250 8     -2818.290 8        51.046                  
  21313963.009 9 112005637.022 9      -798.023 9        54.603                  
  23472640.942 8 123349558.442 8     -3662.051 8        50.285                  
  21782906.747 8 114469941.232 8      1786.937 8        53.221                  
  24962342.718 7 131177998.924 7     -1904.918 7        46.797                  
  20445380.215 9 107441173.149 9       867.240 9        57.366                  
 02  5 18 00 00 46.0000000  0  7G01G23G10G16G21G07G08                           
  23761651.250 8 124868323.515 8      3395.412 8        48.423                  
  23002736.494 8 120880202.292 8     -2822.657 8        50.581                  
  21314115.217 9 112006436.619 9      -799.386 9        54.139                  
  23473337.638 8 123353222.599 8     -3665.621 8        49.296                  
  21782563.591 8 114468154.641 8      1786.863 8        53.642                  
  24962709.087 7 131179904.164 7     -1905.526 7        44.999                  
  20445215.677 9 107440306.259 9       866.657 9        56.303                  
 02  5 18 00 00 47.0000000  0  7G01G23G10G16G21G07G08                           
  23761005.749 7 124864926.872 7      3392.826 7        47.630                  
  23003272.493 8 120883022.723 8     -2822.777 8        49.775                  
  21314268.426 8 112007236.812 8      -801.053 8        53.808                  
  23474035.780 8 123356886.951 8     -3665.607 8        50.495                  
  21782227.296 8 114466368.352 8      1785.596 8        52.254                  
  24963068.451 7 131181809.745 7     -1907.404 7        45.936                  
  20445048.388 9 107439439.823 9       865.998 9        55.628                  
 02  5 18 00 00 48.0000000  0  7G01G23G10G16G21G07G08                           
  23760360.123 7 124861530.391 7      3396.570 7        47.363                  
  23003811.887 8 120885843.546 8     -2822.549 8        50.783                  
  21314420.188 9 112008037.612 9      -801.065 9        56.894                  
  23474732.958 8 123360551.505 8     -3664.554 8        50.447                  
  21781887.784 8 114464582.358 8      1785.175 8        52.287                  
  24963433.193 7 131183715.684 7     -1905.932 7        46.249                  
  20444880.991 9 107438573.862 9       864.960 9        57.932                  
 02  5 18 00 00 49.0000000  0  7G01G23G10G16G21G07G08                           
  23759712.175 8 124858134.070 8      3396.770 8        49.104                  
  23004345.813 8 120888664.780 8     -2821.045 8        49.421                  
  21314573.522 9 112008839.055 9      -802.222 9        57.286                  
  23475429.636 8 123364216.251 8     -3667.127 8        50.708                  
  21781545.610 8 114462796.662 8      1785.497 8        53.598                  
  24963795.166 7 131185621.983 7     -1907.277 7        46.824                  
  20444713.254 9 107437708.377 9       865.600 9        57.246                  
 02  5 18 00 00 50.0000000  0  7G01G23G10G16G21G07G08                           
  23759066.335 7 124854737.906 7      3396.926 7        47.095                  
  23004883.796 8 120891486.407 8     -2822.126 8        49.604                  
  21314726.070 9 112009641.095 9      -801.916 9        56.273                  
  23476128.439 8 123367881.173 8     -3665.716 8        48.821                  
  21781204.973 8 114461011.265 8      1787.108 8        53.316                  
  24964157.050 7 131187528.626 7     -1905.260 7        47.790                  
  20444545.267 9 107436843.361 9       864.888 9        58.655                  
 02  5 18 00 00 51.0000000  0  7G01G23G10G16G21G07G08                           
  23758421.620 7 124851341.914 7      3393.947 7        47.525                  
  23005422.226 8 120894308.419 8     -2821.818 8        49.866                  
  21314878.957 9 112010443.732 9      -802.751 9        54.768                  
  23476824.831 8 123371546.307 8     -3665.741 8        50.491                  
  21780869.375 8 114459226.167 8      1783.619 8        53.157                  
  24964522.936 7 131189435.629 7     -1906.475 7        47.337                  
  20444381.391 9 107435978.807 9       863.698 9        54.644                  
 02  5 18 00 00 52.0000000  0  7G01G23G10G16G21G07G08                           
  23757774.351 8 124847946.068 8      3397.272 8        48.302                  
  23005957.170 8 120897130.815 8     -2822.211 8        51.387                  
  21315031.934 9 112011246.989 9      -804.177 9        54.029                  
  23477522.152 8 123375211.640 8     -3666.267 8        49.678                  
  21780530.257 8 114457441.363 8      1784.993 8        51.516                  
  24964882.460 7 131191342.991 7     -1911.225 7        46.034                  
  20444219.229 9 107435114.730 9       864.513 9        56.364                  
 02  5 18 00 00 53.0000000  0  7G01G23G10G16G21G07G08                           
  23757127.170 7 124844550.395 7      3392.969 7        47.983                  
  23006496.904 8 120899953.603 8     -2823.639 8        49.663                  
  21315184.839 9 112012050.876 9      -805.068 9        55.027                  
  23478221.009 8 123378877.143 8     -3662.337 8        49.512                  
  21780186.189 8 114455656.858 8      1784.911 8        51.855                  
  24965249.383 7 131193250.699 7     -1908.668 7        46.802                  
  20444056.979 9 107434251.131 9       863.388 9        57.118                  
 02  5 18 00 00 54.0000000  0  7G01G23G10G16G21G07G08                           
  23756482.563 7 124841154.880 7      3394.631 7        46.984                  
  23007032.135 8 120902776.776 8     -2824.037 8        50.435                  
  21315338.173 9 112012855.360 9      -805.135 9        54.011                  
  23478916.865 8 123382542.856 8     -3665.984 8        50.119                  
  21779846.999 8 114453872.667 8      1784.016 8        53.871                  
  24965609.104 7 131195158.759 7     -1906.412 7        46.840                  
  20443895.228 9 107433388.008 9       863.164 9        54.953                  
 02  5 18 00 00 55.0000000  0  7G01G23G10G16G21G07G08                           
  23755836.777 8 124837759.514 8      3394.893 8        48.816                  
  23007570.690 8 120905600.340 8     -2822.341 8        49.874                  
  21315491.185 9 112013660.441 9      -805.411 9        54.169                  
  23479614.686 8 123386208.755 8     -3667.142 8        49.607                  
  21779511.633 8 114452088.796 8      1782.391 8        53.362                  
  24965973.632 7 131197067.174 7     -1908.902 7        47.060                  
  20443734.175 9 107432525.338 9       862.138 9        56.856                  
 02  5 18 00 00 56.0000000  0  7G01G23G10G16G21G07G08                           
  23755189.418 7 124834364.319 7      3392.531 7        46.766                  
  23008107.868 8 120908424.322 8     -2824.754 8        51.901                  
  21315644.788 9 112014466.138 9      -806.159 9        54.595                  
  23480314.133 7 123389874.845 7     -3668.111 7        47.431                  
  21779171.585 9 114450305.209 9      1782.475 9        54.234                  
  24966337.589 7 131198975.942 7     -1904.863 7        46.362                  
  20443571.674 9 107431663.145 9       861.547 9        56.023                  
 02  5 18 00 00 57.0000000  0  7G01G23G10G16G21G07G08                           
  23754544.704 8 124830969.285 8      3395.870 8        48.679                  
  23008644.314 8 120911248.685 8     -2824.430 8        50.930                  
  21315798.318 9 112015272.470 9      -806.512 9        55.392                  
  23481009.560 7 123393541.124 7     -3663.700 7        47.425                  
  21778828.107 8 114448521.933 8      1784.755 8        51.745                  
  24966698.364 7 131200885.067 7     -1912.589 7        45.970                  
  20443405.295 9 107430801.429 9       861.562 9        58.269                  
 02  5 18 00 00 58.0000000  0  7G01G23G10G16G21G07G08                           
  23753898.238 8 124827574.403 8      3397.149 8        48.506                  
  23009182.815 8 120914073.446 8     -2825.114 8        50.082                  
  21315952.063 9 112016079.397 9      -806.614 9        55.505                  
  23481707.810 7 123397207.601 7     -3665.660 7        47.745                  
  21778490.347 8 114446738.946 8      1783.081 8        51.998                  
  24967065.072 7 131202794.535 7     -1911.451 7        45.926                  
  20443239.113 9 107429940.189 9       861.866 9        57.004                  
 02  5 18 00 00 59.0000000  0  7G01G23G10G16G21G07G08                           
  23753251.183 8 124824179.693 8      3395.400 8        49.064                  
  23009718.689 8 120916898.586 8     -2824.304 8        49.975                  
  21316105.933 9 112016886.921 9      -807.611 9        56.595                  
  23482406.435 8 123400874.282 8     -3666.671 8        48.535                  
  21778155.035 8 114444956.266 8      1782.958 8        50.761                  
  24967425.401 7 131204704.368 7     -1910.958 7        44.704                  
  20443072.681 9 107429079.403 9       860.788 9        55.327                  
 02  5 18 00 01  0.0000000  0  7G01G23G10G16G21G07G08                           
  23752605.950 8 124820785.135 8      3397.684 8        49.809                  
  23010258.655 8 120919724.103 8     -2826.644 8        51.600                  
  21316259.607 9 112017695.078 9      -807.984 9        57.452                  
  23483102.791 8 123404541.138 8     -3670.332 8        48.677                  
  21777813.558 8 114443173.873 8      1780.452 8        52.413                  
  24967791.180 7 131206614.536 7     -1908.943 7        46.991                  
  20442905.695 9 107428219.093 9       859.881 9        57.006                  
 02  5 18 00 01  1.0000000  0  7G01G23G10G16G21G07G08                           
  23751959.949 8 124817390.734 8      3396.034 8        50.111                  
  23010795.048 8 120922550.020 8     -2823.870 8        49.266                  
  21316414.085 9 112018503.852 9      -808.682 9        55.347                  
  23483801.255 8 123408208.194 8     -3665.182 8        49.372                  
  21777470.329 8 114441391.790 8      1782.227 8        53.960                  
  24968153.296 7 131208525.075 7     -1912.368 7        47.390                  
  20442740.407 9 107427359.259 9       859.802 9        56.638                  
 02  5 18 00 01  2.0000000  0  7G01G23G10G16G21G07G08                           
  23751313.252 8 124813996.503 8      3395.663 8        49.060                  
  23011333.173 8 120925376.329 8     -2824.964 8        50.188                  
  21316567.383 9 112019313.225 9      -810.821 9        54.344                  
  23484499.898 8 123411875.442 8     -3666.629 8        49.141                  
  21777134.713 8 114439609.991 8      1782.118 8        50.753                  
  24968517.824 7 131210435.945 7     -1912.135 7        45.647                  
  20442578.603 9 107426499.904 9       858.941 9        57.194                  
 02  5 18 00 01  3.0000000  0  7G01G23G10G16G21G07G08                           
  23750667.983 8 124810602.425 8      3396.408 8        48.962                  
  23011872.049 8 120928203.043 8     -2826.677 8        50.904                  
  21316721.003 9 112020123.192 9      -810.318 9        55.029                  
  23485196.111 8 123415542.864 8     -3666.802 8        51.019                  
  21776798.669 8 114437828.515 8      1781.654 8        51.976                  
  24968882.066 7 131212347.184 7     -1910.572 7        44.744                  
  20442416.924 9 107425641.000 9       858.083 9        55.571                  
 02  5 18 00 01  4.0000000  0  7G01G23G10G16G21G07G08                           
  23750023.197 8 124807208.501 8      3390.052 8        49.242                  
  23012407.530 8 120931030.149 8     -2826.554 8        53.056                  
  21316875.070 9 112020933.780 9      -810.894 9        54.687                  
  23485895.433 8 123419210.508 8     -3667.957 8        52.152                  
  21776456.405 9 114436047.350 9      1780.653 9        54.057                  
  24969242.842 7 131214258.774 7     -1910.250 7        45.158                  
  20442255.888 9 107424782.575 9       858.137 9        56.761                  
 02  5 18 00 01  5.0000000  0  7G01G23G10G16G21G07G08                           
  23749375.928 8 124803814.759 8      3389.176 8        48.126                  
  23012947.729 8 120933857.640 8     -2827.677 8        51.166                  
  21317028.797 9 112021744.999 9      -811.983 9        56.110                  
  23486593.486 8 123422878.323 8     -3665.973 8        49.201                  
  21776115.482 8 114434266.482 8      1779.854 8        53.735                  
  24969609.978 7 131216170.713 7     -1912.811 7        45.794                  
  20442094.638 9 107423924.625 9       858.141 9        56.311                  
 02  5 18 00 01  6.0000000  0  7G01G23G10G16G21G07G08                           
  23748729.552 8 124800421.162 8      3391.866 8        48.453                  
  23013484.979 8 120936685.498 8     -2827.098 8        48.887                  
  21317182.667 9 112022556.814 9      -812.118 9        56.330                  
  23487290.611 8 123426546.336 8     -3664.357 8        48.781                  
  21775779.956 8 114432485.913 8      1779.910 8        52.021                  
  24969970.915 7 131218082.992 7     -1910.561 7        46.439                  
  20441934.710 9 107423067.154 9       857.047 9        57.042                  
 02  5 18 00 01  7.0000000  0  7G01G23G10G16G21G07G08                           
  23748085.516 8 124797027.716 8      3392.540 8        49.214                  
  23014023.122 8 120939513.762 8     -2827.326 8        48.925                  
  21317336.645 9 112023369.226 9      -813.297 9        54.966                  
  23487989.665 8 123430214.549 8     -3668.239 8        50.143                  
  21775443.071 8 114430705.640 8      1779.793 8        52.927                  
  24970337.480 7 131219995.640 7     -1914.441 7        46.131                  
  20441772.817 9 107422210.146 9       856.592 9        57.080                  
 02  5 18 00 01  8.0000000  0  7G01G23G10G16G21G07G08                           
  23747438.676 8 124793634.460 8      3393.829 8        48.852                  
  23014562.356 8 120942342.417 8     -2828.535 8        49.935                  
  21317491.390 9 112024182.271 9      -813.302 9        57.857                  
  23488687.450 8 123433882.940 8     -3666.765 8        50.791                  
  21775100.915 8 114428925.669 8      1778.949 8        52.592                  
  24970700.025 8 131221908.639 8     -1914.161 8        48.173                  
  20441607.314 9 107421353.601 9       857.243 9        58.686                  
 02  5 18 00 01  9.0000000  0  7G01G23G10G16G21G07G08                           
  23746792.550 8 124790241.345 8      3391.576 8        48.040                  
  23015099.284 8 120945171.476 8     -2829.934 8        50.437                  
  21317645.457 9 112024995.930 9      -813.801 9        55.610                  
  23489384.413 8 123437551.535 8     -3667.067 8        48.446                  
  21774760.510 8 114427145.990 8      1780.310 8        53.921                  
  24971064.571 8 131223821.982 8     -1912.750 8        48.037                  
  20441442.580 9 107420497.537 9       855.912 9        57.481                  
 02  5 18 00 01 10.0000000  0  7G01G23G10G16G21G07G08                           
  23746148.764 8 124786848.386 8      3397.285 8        49.633                  
  23015639.358 8 120948000.930 8     -2828.596 8        50.124                  
  21317800.542 9 112025810.190 9      -814.374 9        54.991                  
  23490083.896 8 123441220.319 8     -3669.533 8        49.551                  
  21774425.162 8 114425366.613 8      1779.838 8        53.374                  
  24971429.813 8 131225735.682 8     -1914.134 8        48.428                  
  20441277.524 9 107419641.949 9       855.832 9        56.890                  
 02  5 18 00 01 11.0000000  0  7G01G23G10G16G21G07G08                           
  23745502.335 7 124783455.607 7      3393.358 7        47.510                  
  23016176.447 8 120950830.753 8     -2827.736 8        50.591                  
  21317955.306 9 112026625.045 9      -815.046 9        56.142                  
  23490781.950 8 123444889.286 8     -3669.782 8        50.926                  
  21774088.474 8 114423587.533 8      1779.040 8        51.796                  
  24971791.876 8 131227649.729 8     -1913.684 8        48.150                  
  20441111.842 9 107418786.837 9       854.971 9        57.310                  
 02  5 18 00 01 12.0000000  0  7G01G23G10G16G21G07G08                           
  23744856.012 8 124780062.970 8      3389.708 8        50.026                  
  23016715.680 8 120953660.963 8     -2829.884 8        50.660                  
  21318109.694 9 112027440.512 9      -816.643 9        57.087                  
  23491479.538 8 123448558.453 8     -3669.286 8        51.393                  
  21773745.246 8 114421808.764 8      1779.370 8        53.133                  
  24972158.816 7 131229564.130 7     -1918.428 7        47.876                  
  20440946.553 9 107417932.178 9       854.466 9        57.356                  
 02  5 18 00 01 13.0000000  0  7G01G23G10G16G21G07G08                           
  23744211.280 8 124776670.498 8      3391.687 8        48.962                  
  23017255.182 8 120956491.562 8     -2828.594 8        50.192                  
  21318266.030 9 112028256.621 9      -816.416 9        56.970                  
  23492178.539 8 123452227.799 8     -3669.361 8        50.380                  
  21773406.431 8 114420030.306 8      1778.206 8        52.767                  
  24972519.073 7 131231478.871 7     -1913.254 7        46.500                  
  20440784.392 9 107417077.995 9       854.141 9        56.039                  
 02  5 18 00 01 14.0000000  0  7G01G23G10G16G21G07G08                           
  23743565.886 8 124773278.195 8      3392.242 8        48.580                  
  23017792.325 8 120959322.566 8     -2830.558 8        50.851                  
  21318421.116 9 112029073.323 9      -816.897 9        54.918                  
  23492876.324 8 123455897.345 8     -3670.736 8        49.964                  
  21773072.727 8 114418252.155 8      1778.648 8        51.981                  
  24972887.443 7 131233393.973 7     -1916.045 7        46.565                  
  20440624.053 9 107416224.288 9       854.212 9        54.646                  
 02  5 18 00 01 15.0000000  0  7G01G23G10G16G21G07G08                           
  23742918.903 8 124769886.048 8      3390.711 8        48.727                  
  23018333.774 8 120962153.968 8     -2830.889 8        50.295                  
  21318576.290 9 112029890.622 9      -817.238 9        55.317                  
  23493574.020 8 123459567.087 8     -3670.030 8        49.051                  
  21772733.519 8 114416474.292 8      1778.176 8        52.864                  
  24973249.648 7 131235309.428 7     -1916.199 7        46.912                  
  20440463.804 9 107415371.060 9       853.170 9        55.705                  
 02  5 18 00 01 16.0000000  0  7G01G23G10G16G21G07G08                           
  23742273.760 8 124766494.053 8      3395.013 8        48.228                  
  23018869.880 8 120964985.752 8     -2831.757 8        50.713                  
  21318731.340 9 112030708.530 9      -818.497 9        55.982                  
  23494274.021 8 123463237.003 8     -3672.110 8        49.586                  
  21772392.328 8 114414696.739 8      1778.235 8        52.845                  
  24973615.838 7 131237225.229 7     -1915.954 7        46.178                  
  20440303.823 9 107414518.308 9       853.057 9        56.602                  
 02  5 18 00 01 17.0000000  0  7G01G23G10G16G21G07G08                           
  23741629.706 7 124763102.242 7      3388.853 7        46.905                  
  23019409.221 8 120967817.905 8     -2834.135 8        50.229                  
  21318887.962 9 112031527.079 9      -819.291 9        56.137                  
  23494971.271 8 123466907.122 8     -3670.721 8        50.234                  
  21772053.835 9 114412919.472 9      1777.480 9        54.428                  
  24973980.724 8 131239141.390 8     -1917.003 8        48.105                  
  20440143.234 9 107413666.011 9       852.037 9        57.652                  
 02  5 18 00 01 18.0000000  0  7G01G23G10G16G21G07G08                           
  23740983.991 7 124759710.571 7      3392.881 7        47.708                  
  23019949.062 8 120970650.452 8     -2830.501 8        49.604                  
  21319043.744 9 112032346.227 9      -820.208 9        55.378                  
  23495669.556 8 123470577.424 8     -3672.592 8        49.382                  
  21771719.327 8 114411142.520 8      1775.607 8        53.200                  
  24974342.553 7 131241057.889 7     -1914.807 7        47.696                  
  20439983.771 9 107412814.189 9       851.011 9        57.420                  
 02  5 18 00 01 19.0000000  0  7G01G23G10G16G21G07G08                           
  23740337.043 7 124756319.068 7      3392.516 7        47.757                  
  23020485.812 8 120973483.406 8     -2832.143 8        50.273                  
  21319200.920 9 112033165.968 9      -819.823 9        54.669                  
  23496368.521 8 123474247.919 8     -3669.741 8        50.731                  
  21771381.478 8 114409365.842 8      1774.924 8        52.677                  
  24974711.156 8 131242974.739 8     -1916.122 8        48.141                  
  20439822.199 9 107411962.844 9       850.782 9        56.586                  
 02  5 18 00 01 20.0000000  0  7G01G23G10G16G21G07G08                           
  23739693.776 7 124752928.031 7      3388.147 7        47.303                  
  23021027.243 8 120976316.608 8     -2832.049 8        50.796                  
  21319357.953 8 112033986.129 8      -819.449 8        53.404                  
  23497066.807 8 123477918.462 8     -3671.795 8        50.065                  
  21771039.590 8 114407589.733 8      1774.829 8        50.976                  
  24975072.467 7 131244892.342 7     -1919.261 7        47.157                  
  20439658.572 9 107411112.088 9       849.274 9        56.547                  
 02  5 18 00 01 21.0000000  0  7G01G23G10G16G21G07G08                           
  23739049.813 7 124749549.125 7      3369.804 7        46.801                  
  23021565.190 7 120979144.384 7     -2823.183 7        47.445                  
  21319513.538 8 112034799.627 8      -809.385 8        50.385                  
  23497763.681 8 123481583.796 8     -3660.596 8        53.346                  
  21770703.545 8 114405823.781 8      1758.590 8        48.971                  
  24975443.107 7 131246825.829 7     -1944.255 7        47.151                  
  20439495.821 9 107410266.297 9       840.634 9        57.768                  
 02  5 18 00 01 22.0000000  0  7G01G23G10G16G21G07G08                           
  23738409.601 7 124746189.674 7      3349.938 7        46.760                  
  23022101.851 8 120981963.679 8     -2816.665 8        50.626                  
  21319665.818 8 112035602.501 8      -794.629 8        52.651                  
  23498460.447 8 123485240.552 8     -3652.663 8        51.599                  
  21770374.648 8 114404073.626 8      1742.809 8        52.218                  
  24975811.691 7 131248784.696 7     -1968.547 7        45.702                  
  20439334.428 8 107409428.625 8       833.934 8        49.886                  
 02  5 18 00 01 23.0000000  0  7G01G23G10G16G21G07G08                           
  23737774.375 7 124742849.200 7      3328.675 7        46.714                  
  23022636.170 7 120984774.092 7     -2804.368 7        45.688                  
  21319816.936 8 112036394.457 8      -787.174 8        50.694                  
  23499154.320 7 123488889.181 7     -3657.646 7        46.562                  
  21770045.339 8 114402339.302 8      1726.611 8        51.564                  
  24976193.320 7 131250768.592 7     -1992.994 7        45.009                  
  20439174.929 9 107408598.479 9       826.903 9        54.928                  
 02  5 18 00 01 24.0000000  0  7G01G23G10G16G21G07G08                           
  23737142.830 7 124739522.811 7      3327.168 7        47.571                  
  23023170.168 7 120987578.386 7     -2804.939 7        47.661                  
  21319966.125 8 112037178.870 8      -784.805 8        51.440                  
  23499850.300 7 123492531.930 7     -3648.395 7        46.913                  
  21769714.602 8 114400616.585 8      1720.601 8        51.255                  
  24976570.142 7 131252770.680 7     -2004.427 7        43.365                  
  20439016.342 9 107407774.022 9       824.631 9        56.654                  
 02  5 18 00 01 25.0000000  0  7G01G23G10G16G21G07G08                           
  23736509.338 7 124736196.528 7      3329.202 7        42.954                  
  23023700.306 7 120990382.122 7     -2806.635 7        46.367                  
  21320116.064 8 112037964.156 8      -786.974 8        53.010                  
  23500541.224 7 123496176.394 7     -3645.018 7        45.250                  
  21769384.543 8 114398893.976 8      1731.467 8        53.032                  
  24976955.737 7 131254772.176 7     -1993.125 7        45.175                  
  20438858.165 9 107406949.509 9       823.628 9        54.347                  
 02  5 18 00 01 26.0000000  0  7G01G23G10G16G21G07G08                           
  23735875.488 6 124732856.794 6      3346.977 6        40.819                  
  23024237.127 8 120993190.992 8     -2817.619 8        48.636                  
  21320267.647 7 112038757.953 7      -793.611 7        46.481                  
  23501236.507 6 123499831.214 6     -3657.966 6        39.674                  
  21769055.074 7 114397160.120 7      1739.994 7        43.511                  
  24977328.842 6 131256754.268 6     -1967.057 6        37.810                  
  20438698.559 7 107406119.482 7       838.690 7        46.855                  
 02  5 18 00 01 27.0000000  0  7G01G23G10G16G21G07G08                           
  23735237.653 7 124729510.960 7      3349.029 7        43.598                  
  23024772.019 7 120995999.866 7     -2803.710 7        43.301                  
  21320418.729 8 112039556.515 8      -794.016 8        51.616                  
  23501932.899 6 123503496.420 6     -3676.659 6        37.096                  
  21768728.875 7 114395420.326 7      1739.318 7        47.947                  
  24977707.505 6 131258724.763 6     -1967.448 6        40.304                  
  20438540.829 8 107405285.924 8       833.616 8        48.097                  
 02  5 18 00 01 28.0000000  0  7G01G23G10G16G21G07G08                           
  23734600.873 6 124726167.504 6      3334.212 6        37.629                  
  23025303.747 6 120998804.432 6     -2803.836 6        37.219                  
  21320570.938 7 112040354.133 7      -798.282 7        42.651                  
  23502633.400 6 123507168.210 6     -3668.350 6        36.704                  
  21768397.744 6 114393681.988 6      1732.058 6        41.660                  
  24978079.163 6 131260695.152 6     -1967.243 6        40.570                  
  20438381.652 8 107404451.859 8       834.654 8        53.506                  
 02  5 18 00 01 29.0000000  0  7G01G23G10G16G21G07G08                           
  23733962.913 5 124722820.785 5      3352.548 5        35.271                  
  23025842.463 5 121001608.179 5     -2818.350 5        35.518                  
  21320722.217 6 112041154.659 6      -803.609 6        38.805                  
  23503331.168 6 123510847.752 6     -3672.387 6        36.340                  
  21768063.361 6 114391940.258 6      1754.681 6        37.708                  
  24978460.845 6 131262658.365 6     -1954.770 6        37.008                  
  20438223.529 8 107403615.553 8       839.911 8        50.192                  
 02  5 18 00 01 30.0000000  0  7G01G23G10G16G21G07G08                           
  23733322.719 5 124719454.722 5      3358.823 5        35.963                  
  23026377.818 5 121004423.514 5     -2812.810 5        35.281                  
  21320877.231 6 112041967.322 6      -819.993 6        39.951                  
  23504035.404 5 123514532.056 5     -3687.838 5        35.460                  
  21767726.244 6 114390183.571 6      1756.995 6        39.658                  
  24978821.853 7 131264598.599 7     -1941.973 7        42.232                  
  20438066.210 8 107402773.185 8       848.965 8        49.876                  
 02  5 18 00 01 31.0000000  0  7G01G23G10G16G21G07G08                           
  23732681.221 5 124716091.670 5      3369.923 5        35.254                  
  23026910.333 5 121007230.015 5     -2804.939 5        35.343                  
  21321032.852 6 112042779.082 6      -812.081 6        37.600                  
  23504736.620 5 123518231.922 5     -3701.430 5        35.576                  
  21767395.935 6 114388427.478 6      1746.746 6        37.812                  
  24979191.313 7 131266534.944 7     -1934.453 7        42.230                  
  20437906.711 7 107401928.414 7       847.284 7        45.691                  
 02  5 18 00 01 32.0000000  0  7G01G23G10G16G21G07G08                           
  23732045.567 5 124712732.130 5      3348.815 5        35.377                  
  23027441.722 5 121010025.040 5     -2800.255 5        35.739                  
  21321186.257 6 112043589.750 6      -819.133 6        37.953                  
  23505443.233 6 123521952.238 6     -3723.868 6        36.029                  
  21767064.465 6 114386671.783 6      1762.518 6        39.559                  
  24979557.056 6 131268464.877 6     -1926.413 6        39.807                  
  20437748.231 7 107401080.681 7       853.261 7        42.123                  
 02  5 18 00 01 33.0000000  0  7G01G23G10G16G21G07G08                           
  23731409.000 6 124709359.795 6      3374.565 6        39.997                  
  23027977.203 5 121012831.974 5     -2821.372 5        35.907                  
  21321348.955 7 112044408.747 7      -824.990 7        45.199                  
  23506153.509 6 123525667.227 6     -3705.041 6        36.447                  
  21766720.772 7 114384907.272 7      1770.848 7        46.521                  
  24979926.105 6 131270383.926 6     -1894.594 6        36.490                  
  20437589.018 6 107400230.927 6       843.929 6        40.654                  
 02  5 18 00 01 34.0000000  0  7G01G23G10G16G21G07G08                           
  23730761.749 7 124705973.491 7      3391.567 7        43.439                  
  23028515.919 6 121015654.479 6     -2827.263 6        37.056                  
  21321499.412 7 112045236.321 7      -830.065 7        47.433                  
  23506855.118 6 123529370.717 6     -3701.777 6        36.767                  
  21766384.673 7 114383133.594 7      1776.688 7        42.122                  
  24980288.364 5 131272294.281 5     -1899.595 5        35.115                  
  20437427.875 6 107399380.514 6       856.156 6        39.264                  
 02  5 18 00 01 35.0000000  0  7G01G23G10G16G21G07G08                           
  23730111.781 6 124702576.632 6      3400.816 6        38.120                  
  23029048.701 6 121018478.147 6     -2816.156 6        39.260                  
  21321660.305 6 112046070.983 6      -833.647 6        41.620                  
  23507564.036 6 123533088.451 6     -3729.512 6        37.329                  
  21766048.253 6 114381350.432 6      1781.975 6        37.269                  
  24980648.639 5 131274186.230 5     -1868.525 5        35.017                  
  20437263.390 6 107398524.286 6       864.894 6        37.469                  
 02  5 18 00 01 36.0000000  0  7G01G23G10G16G21G07G08                           
  23729463.796 5 124699168.140 5      3400.351 5        35.462                  
  23029593.742 7 121021302.739 7     -2825.903 7        42.338                  
  21321818.839 6 112046913.565 6      -849.408 6        37.257                  
  23508274.722 6 123536822.498 6     -3740.835 6        38.087                  
  21765708.367 5 114379556.670 5      1786.114 5        35.275                  
  24981008.146 5 131276057.917 5     -1859.817 5        35.154                  
  20437097.137 5 107397661.645 5       871.161 5        35.907                  
 02  5 18 00 01 37.0000000  0  7G01G23G10G16G21G07G08                           
  23728810.576 5 124695755.501 5      3438.331 5        34.792                  
  23030146.771 7 121024128.396 7     -2823.480 7        46.799                  
  21321979.356 5 112047759.229 5      -851.041 5        35.742                  
  23508984.587 6 123540561.386 6     -3735.034 6        38.935                  
  21765364.549 5 114377759.396 5      1793.994 5        35.012                  
  24981361.631 5 131277923.119 5     -1870.928 5        35.622                  
  20436929.847 5 107396797.231 5       863.752 5        35.778                  
 02  5 18 00 01 38.0000000  0  7G01G23G10G16G21G07G08                           
  23728165.040 5 124692343.943 5      3405.084 5        34.803                  
  23030646.156 7 121026953.451 7     -2824.356 7        46.560                  
  21322138.801 5 112048604.982 5      -847.750 5        35.416                  
  23509697.919 6 123544301.031 6     -3742.314 6        39.739                  
  21765020.159 5 114375962.994 5      1794.558 5        35.123                  
  24981722.246 6 131279789.463 6     -1874.363 6        36.033                  
  20436762.700 5 107395933.437 5       864.514 5        35.880                  
 02  5 18 00 01 39.0000000  0  7G01G23G10G16G21G07G08                           
  23727515.984 5 124688934.905 5      3396.284 5        34.876                  
  23031197.005 7 121029776.801 7     -2823.170 7        46.255                  
  21322299.122 5 112049449.911 5      -851.082 5        35.297                  
  23510410.875 6 123548042.045 6     -3744.864 6        40.632                  
  21764681.773 5 114374168.544 5      1796.309 5        35.309                  
  24982073.247 6 131281657.999 6     -1859.804 6        36.588                  
  20436595.393 6 107395070.456 6       864.476 6        36.261                  
 02  5 18 00 01 40.0000000  0  7G01G23G10G16G21G07G08                           
  23726866.874 5 124685526.574 5      3397.108 5        34.928                  
  23031743.457 7 121032599.858 7     -2819.464 7        44.201                  
  21322460.104 5 112050295.105 5      -849.267 5        35.276                  
  23511122.937 6 123551783.553 6     -3740.843 6        41.711                  
  21764343.048 5 114372374.871 5      1790.450 5        35.537                  
  24982424.409 6 131283527.417 6     -1861.928 6        37.435                  
  20436433.946 6 107394208.135 6       866.642 6        36.546                  
 02  5 18 00 01 41.0000000  0  6G01G23G10G16G07G08                              
  23726219.032 5 124682118.497 5      3408.264 5        35.210                  
  23032280.689 6 121035423.283 6     -2819.432 6        41.929                  
  21322619.085 5 112051140.867 5      -837.437 5        35.453                  
  23511833.231 7 123555525.324 7     -3740.263 7        42.432                  
  24982785.095 6 131285397.316 6     -1863.019 6        38.085                  
  20436272.821 6 107393346.327 6       861.756 6        36.930                  
 02  5 18 00 01 42.0000000  0  5G23G10G16G07G08                                 
  23032805.538 6 121038247.079 6     -2823.576 6        39.058                  
  21322780.746 5 112051987.217 5      -840.104 5        35.473                  
  23512547.760 7 123559267.286 7     -3738.590 7        42.936                  
  24983140.010 6 131287267.567 6     -1874.905 6        38.534                  
  20436109.177 6 107392484.981 6       861.734 6        37.119                  
 02  5 18 00 02  1.0000000  0  7G01G23G10G16G21G07G08                           
  23713344.240 6 124614454.956 6      3295.671 6        38.013                  
  23042995.349 6 121091760.533 6     -2774.775 6        39.357                  
  21325811.779 6 112067900.502 6      -799.064 6        36.564                  
  23526042.517 8 123630184.025 8     -3732.908 8        48.672                  
  21757256.319 6 114335151.206 6      1717.746 6        39.171                  
  24990025.462 7 131323468.047 7     -1984.812 7        45.041                  
  20433049.071 7 107376387.995 7       824.283 7        45.021                  
 02  5 18 00 02  2.0000000  0  7G01G23G10G16G21G07G08                           
  23712714.178 6 124611145.894 6      3313.052 6        37.173                  
  23043523.914 6 121094532.025 6     -2776.267 6        40.596                  
  21325965.989 6 112068701.904 6      -800.747 6        36.160                  
  23526752.615 8 123633916.905 8     -3737.178 8        48.802                  
  21756928.940 6 114333438.377 6      1714.344 6        38.367                  
  24990404.625 7 131325454.935 7     -1983.102 7        44.268                  
  20432891.752 7 107375565.699 7       822.444 7        43.749                  
 02  5 18 00 02  3.0000000  0  7G01G23G10G16G21G07G08                           
  23712083.509 6 124607833.952 6      3325.532 6        36.210                  
  23044049.156 7 121097304.047 7     -2773.754 7        42.077                  
  21326120.091 5 112069505.786 5      -797.807 5        35.756                  
  23527462.747 8 123637654.126 8     -3741.235 8        49.569                  
  21756605.368 6 114331723.015 6      1720.398 6        37.663                  
  24990778.785 7 131327436.860 7     -1978.880 7        45.440                  
  20432731.288 7 107374742.129 7       824.917 7        43.124                  
 02  5 18 00 02  4.0000000  0  7G01G23G10G16G21G07G08                           
  23711450.999 5 124604519.474 5      3305.963 5        35.430                  
  23044579.009 7 121100076.791 7     -2773.790 7        44.628                  
  21326273.050 5 112070311.823 5      -807.740 5        35.389                  
  23528175.203 8 123641394.638 8     -3742.152 8        48.639                  
  21756280.438 6 114330005.527 6      1722.414 6        37.183                  
  24991156.589 7 131329414.723 7     -1983.069 7        44.957                  
  20432575.023 7 107373917.538 7       825.973 7        42.551                  
 02  5 18 00 02  5.0000000  0  7G01G23G10G16G21G07G08                           
  23710819.848 5 124601206.554 5      3303.425 5        35.115                  
  23045104.358 7 121102849.699 7     -2775.051 7        46.501                  
  21326426.509 5 112071117.656 5      -792.216 5        35.104                  
  23528888.695 8 123645133.824 8     -3737.681 8        48.796                  
  21755954.596 6 114328289.547 6      1722.306 6        36.465                  
  24991533.822 7 131331395.196 7     -1987.620 7        45.030                  
  20432415.864 6 107373094.186 6       821.128 6        41.320                  
 02  5 18 00 02  6.0000000  0  7G01G23G10G16G21G07G08                           
  23710189.357 5 124597895.489 5      3316.548 5        35.287                  
  23045633.317 7 121105622.755 7     -2774.956 7        47.232                  
  21326580.469 5 112071923.047 5      -815.161 5        35.148                  
  23529598.453 8 123648871.138 8     -3735.624 8        48.008                  
  21755624.931 6 114326575.420 6      1722.387 6        36.008                  
  24991914.361 7 131333378.891 7     -1983.082 7        43.080                  
  20432260.278 6 107372272.200 6       823.812 6        40.552                  
 02  5 18 00 02  7.0000000  0  7G01G23G10G16G21G07G08                           
  23709557.687 5 124594584.837 5      3303.083 5        35.993                  
  23046158.684 7 121108396.165 7     -2772.439 7        47.335                  
  21326734.017 5 112072728.854 5      -799.634 5        35.520                  
  23530308.318 7 123652608.336 7     -3736.726 7        47.855                  
  21755296.033 5 114324861.773 5      1715.847 5        35.482                  
  24992289.182 6 131335363.359 6     -1989.941 6        40.975                  
  20432100.940 6 107371450.854 6       820.653 6        40.171                  
 02  5 18 00 02  8.0000000  0  6G01G23G16G21G07G08                              
  23708925.481 6 124591272.475 6      3316.792 6        36.703                  
  23046690.412 7 121111171.376 7     -2780.971 7        45.523                  
  23531020.649 7 123656345.461 7     -3735.520 7        46.620                  
  21754969.513 5 114323147.072 5      1727.264 5        35.038                  
  24992669.667 6 131337346.335 6     -1973.091 6        40.153                  
  20431946.641 6 107370629.541 6       823.512 6        39.776                  
 02  5 18 00 02  9.0000000  0  6G01G23G16G21G07G08                              
  23708293.061 6 124587941.915 6      3337.633 6        37.773                  
  23047219.997 8 121113964.592 8     -2804.438 8        48.820                  
  23531729.816 7 123660072.378 7     -3720.048 7        46.617                  
  21754643.439 5 114321419.910 5      1745.386 5        35.230                  
  24993045.702 6 131339314.987 6     -1957.547 6        38.887                  
  20431791.485 6 107369805.988 6       825.819 6        40.015                  
 02  5 18 00 02 10.0000000  0  6G01G23G16G21G07G08                              
  23707655.387 6 124584587.383 6      3364.083 6        38.420                  
  23047753.887 8 121116781.436 8     -2822.971 8        48.318                  
  23532435.321 7 123663785.584 7     -3703.346 7        47.023                  
  21754315.471 5 114319676.434 5      1742.947 5        35.581                  
  24993415.734 6 131341264.838 6     -1944.122 6        38.208                  
  20431635.327 6 107368979.436 6       830.726 6        40.489                  
 02  5 18 00 02 11.0000000  0  5G01G23G16G07G08                                 
  23707016.247 6 124581224.108 6      3362.624 6        39.734                  
  23048293.621 7 121119603.170 7     -2814.976 7        47.853                  
  23533143.095 7 123667502.339 7     -3722.778 7        46.685                  
  24993786.624 6 131343203.836 6     -1931.345 6        37.497                  
  20431477.490 6 107368150.145 6       830.862 6        41.166                  
 02  5 18 00 02 12.0000000  0  5G01G23G16G07G08                                 
  23706376.751 6 124577862.735 6      3354.496 6        40.706                  
  23048827.226 7 121122413.530 7     -2809.284 7        47.497                  
  23533855.587 8 123671241.341 8     -3745.578 8        48.548                  
  24994152.313 6 131345134.396 6     -1928.343 6        37.236                  
  20431319.474 7 107367316.943 7       831.848 7        42.513                  
 02  5 18 00 02 13.0000000  0  5G01G23G16G07G08                                 
  23705734.788 6 124574501.341 6      3361.948 6        40.890                  
  23049363.386 8 121125221.298 8     -2809.314 8        49.176                  
  23534568.150 7 123674987.009 7     -3742.607 7        47.314                  
  24994519.897 6 131347061.833 6     -1935.427 6        36.454                  
  20431163.192 7 107366482.731 7       836.793 7        42.844                  
 02  5 18 00 02 14.0000000  0  5G01G23G16G07G08                                 
  23705097.579 7 124571140.348 7      3360.669 7        42.648                  
  23049897.956 8 121128034.830 8     -2814.415 8        48.846                  
  23535277.479 8 123678721.300 8     -3730.358 8        49.179                  
  24994885.569 6 131348995.639 6     -1935.769 6        36.075                  
  20431004.408 7 107365651.593 7       827.387 7        43.882                  
 02  5 18 00 02 15.0000000  0  5G01G23G16G07G08                                 
  23704462.675 7 124567790.415 7      3340.562 7        44.046                  
  23050431.221 8 121130838.475 8     -2791.471 8        48.395                  
  23535989.345 8 123682461.464 8     -3749.863 8        49.272                  
  24995254.903 5 131350938.737 5     -1949.023 5        35.556                  
  20430849.662 7 107364822.670 7       823.203 7        43.673                  
 02  5 18 00 02 16.0000000  0  5G01G23G16G07G08                                 
  23703825.555 7 124564453.881 7      3337.934 7        43.760                  
  23050960.305 7 121133626.021 7     -2786.074 7        47.352                  
  23536705.178 8 123686217.157 8     -3757.733 8        48.099                  
  24995625.811 5 131352889.005 5     -1954.537 5        35.673                  
  20430695.006 7 107363994.411 7       821.914 7        43.389                  
 02  5 18 00 02 17.0000000  0  5G01G23G16G07G08                                 
  23703190.382 7 124561119.405 7      3337.638 7        45.683                  
  23051492.730 8 121136412.264 8     -2783.896 8        48.045                  
  23537420.654 7 123689973.869 7     -3757.278 7        47.880                  
  24995997.540 5 131354841.241 5     -1944.971 5        35.191                  
  20430542.243 7 107363167.016 7       831.661 7        43.695                  
 02  5 18 00 02 19.0000000  0  6G01G23G16G27G07G08                              
  23701923.951 7 124554452.587 7      3335.983 7        45.950                  
  23052553.150 8 121141984.944 8     -2784.979 8        50.196                  
  23538848.728 8 123697487.271 8     -3755.296 8        48.237                  
  20504957.432 6 107754262.796 6     -1425.814 6        41.283                  
  24996740.713 5 131358749.023 5     -1958.583 5        35.142                  
  20430224.318 6 107361514.262 6       831.094 6        41.571                  
 02  5 18 00 02 20.0000000  0  5G01G23G16G27G08                                 
  23701288.815 7 124551119.213 7      3334.268 7        45.685                  
  23053082.823 8 121144771.922 8     -2784.833 8        49.911                  
  23539565.097 8 123701244.316 8     -3759.713 8        48.282                  
  20505232.722 6 107755687.409 6     -1425.130 6        41.312                  
  20430064.819 6 107360688.567 6       830.091 6        41.654                  
 02  5 18 00 02 21.0000000  0  5G01G23G16G27G08                                 
  23700652.856 7 124547784.693 7      3333.250 7        45.899                  
  23053611.836 8 121147559.995 8     -2791.331 8        48.197                  
  23540283.396 8 123705001.982 8     -3758.396 8        48.001                  
  20505503.474 6 107757113.099 6     -1428.801 6        41.988                  
  20429904.534 6 107359862.849 6       823.544 6        41.879                  
 02  5 18 00 02 22.0000000  0  5G01G23G16G27G08                                 
  23700018.506 7 124544449.825 7      3335.347 7        46.950                  
  23054145.226 7 121150348.695 7     -2788.013 7        47.527                  
  23540997.657 8 123708760.026 8     -3755.633 8        48.355                  
  20505779.908 7 107758539.431 7     -1427.259 7        42.300                  
  20429744.570 7 107359037.532 7       824.171 7        42.654                  
 02  5 18 00 02 23.0000000  0  5G01G23G16G27G08                                 
  23699386.514 7 124541115.396 7      3331.170 7        47.391                  
  23054672.451 8 121153137.596 8     -2788.027 8        49.612                  
  23541707.468 8 123712518.164 8     -3757.262 8        48.207                  
  20506048.479 7 107759966.174 7     -1425.233 7        42.872                  
  20429587.680 7 107358212.652 7       820.555 7        43.430                  
 02  5 18 00 02 24.0000000  0  5G01G23G16G27G08                                 
  23698751.681 7 124537781.550 7      3333.340 7        45.882                  
  23055207.128 8 121155926.653 8     -2789.202 8        49.534                  
  23542421.603 7 123716276.366 7     -3757.786 7        47.007                  
  20506318.623 7 107761393.245 7     -1422.270 7        43.285                  
  20429435.097 7 107357388.479 7       824.137 7        43.902                  
 02  5 18 00 02 25.0000000  0  5G01G23G16G27G08                                 
  23698114.794 7 124534447.068 7      3334.529 7        46.187                  
  23055735.140 8 121158716.506 8     -2789.187 8        48.993                  
  23543138.920 8 123720035.010 8     -3760.306 8        49.632                  
  20506588.695 7 107762821.165 7     -1423.918 7        44.858                  
  20429276.027 7 107356564.509 7       822.461 7        45.265                  
 02  5 18 00 02 27.0000000  0  5G01G23G16G27G08                                 
  23696847.290 7 124527774.589 7      3336.107 7        45.362                  
  23056797.346 7 121164299.432 7     -2790.296 7        47.567                  
  23544572.337 8 123727554.020 8     -3758.284 8        48.136                  
  20507136.077 8 107765679.970 8     -1431.654 8        48.677                  
  20428973.611 8 107354916.723 8       823.918 8        49.892                  
 02  5 18 00 02 34.0000000  0  7G01G23G10G16G21G27G08                           
  23692380.892 8 124504314.946 8      3353.905 8        48.525                  
  23060556.077 7 121184043.246 7     -2834.069 7        47.815                  
  21331020.992 8 112095262.763 8      -851.259 8        48.544                  
  23549534.654 8 123753636.434 8     -3703.333 8        48.382                  
  21746378.980 7 114278030.547 7      1737.601 7        46.157                  
  20509045.722 8 107775667.337 8     -1423.072 8        52.787                  
  20427883.833 8 107349187.522 8       812.344 8        53.577                  
 02  5 18 00 02 35.0000000  0  7G01G23G10G16G21G27G08                           
  23691742.450 7 124500952.712 7      3368.768 7        46.605                  
  23061094.775 8 121186889.827 8     -2853.003 8        50.070                  
  21331171.807 8 112096118.022 8      -858.171 8        50.246                  
  23550234.280 8 123757328.666 8     -3682.659 8        49.027                  
  21746042.774 8 114276288.604 8      1745.945 8        48.979                  
  20509286.024 8 107777089.721 8     -1423.706 8        51.784                  
  20427696.727 8 107348375.630 8       810.373 8        50.693                  
 02  5 18 00 02 36.0000000  0  7G01G23G10G16G21G27G08                           
  23691103.865 7 124497590.464 7      3359.553 7        46.534                  
  23061640.924 8 121189743.981 8     -2856.405 8        50.600                  
  21331351.480 8 112096974.035 8      -854.449 8        50.364                  
  23550936.693 8 123761006.383 8     -3672.413 8        48.325                  
  21745713.609 7 114274548.563 7      1735.181 7        47.823                  
  20509580.506 7 107778508.116 7     -1412.735 7        46.646                  
  20427564.674 7 107347567.183 7       805.959 7        47.688                  
 02  5 18 00 02 37.0000000  0  7G01G23G10G16G21G27G08                           
  23690458.882 8 124494234.598 8      3354.062 8        50.770                  
  23062184.303 8 121192604.815 8     -2865.227 8        50.676                  
  21331508.727 8 112097826.918 8      -851.781 8        53.065                  
  23551634.300 8 123764662.233 8     -3644.861 8        49.495                  
  21745382.371 8 114272816.154 8      1730.249 8        53.164                  
  20509847.683 8 107779918.431 8     -1407.472 8        52.596                  
  20427411.519 9 107346765.710 9       799.616 9        55.294                  
 02  5 18 00 02 38.0000000  0  7G01G23G10G16G21G27G08                           
  23689825.425 8 124490884.986 8      3346.984 8        48.095                  
  23062730.988 8 121195471.608 8     -2867.693 8        50.994                  
  21331671.568 8 112098676.810 8      -848.316 8        53.704                  
  23552323.633 8 123768297.913 8     -3630.006 8        50.188                  
  21745058.137 8 114271091.053 8      1720.441 8        52.507                  
  20510113.878 9 107781321.096 9     -1399.452 9        55.561                  
  20427259.811 9 107345970.833 9       792.723 9        55.811                  
 02  5 18 00 02 39.0000000  0  7G01G23G10G16G21G27G08                           
  23689190.610 8 124487540.689 8      3343.038 8        48.522                  
  23063277.798 8 121198339.716 8     -2866.479 8        49.343                  
  21331831.996 8 112099524.297 8      -847.454 8        53.932                  
  23553014.450 8 123771924.590 8     -3624.150 8        51.668                  
  21744733.136 8 114269371.204 8      1719.816 8        52.836                  
  20510374.855 9 107782719.783 9     -1399.522 9        57.876                  
  20427109.586 9 107345179.807 9       791.453 9        55.138                  
 02  5 18 00 02 40.0000000  0  7G01G23G10G16G21G27G08                           
  23688554.152 8 124484194.302 8      3348.718 8        50.437                  
  23063820.909 8 121201210.502 8     -2874.381 8        49.771                  
  21331995.355 8 112100373.698 8      -850.918 8        52.349                  
  23553702.979 8 123775549.832 8     -3624.439 8        48.995                  
  21744404.757 8 114267650.164 8      1723.750 8        52.669                  
  20510640.032 9 107784119.182 9     -1400.539 9        56.755                  
  20426959.075 9 107344388.961 9       790.983 9        54.574                  
 02  5 18 00 02 41.0000000  0  7G01G23G10G16G21G27G08                           
  23687914.137 7 124480842.464 7      3350.664 7        47.628                  
  23064370.328 8 121204087.217 8     -2878.996 8        50.051                  
  21332156.980 8 112101227.066 8      -853.654 8        51.636                  
  23554394.206 8 123779171.778 8     -3621.616 8        50.183                  
  21744074.305 8 114265925.593 8      1724.992 8        52.312                  
  20510911.891 9 107785519.902 9     -1401.129 9        55.544                  
  20426808.600 8 107343597.816 8       790.032 8        53.099                  
 02  5 18 00 02 42.0000000  0  7G01G23G10G16G21G27G08                           
  23687276.159 8 124477493.101 8      3346.204 8        48.578                  
  23064917.906 8 121206962.067 8     -2871.393 8        48.888                  
  21332317.944 8 112102079.698 8      -850.622 8        52.805                  
  23555083.629 8 123782795.278 8     -3626.176 8        49.884                  
  21743743.728 8 114264202.888 8      1719.050 8        53.730                  
  20511180.855 9 107786920.705 9     -1400.329 9        56.839                  
  20426658.304 9 107342807.461 9       789.147 9        54.946                  
 02  5 18 00 02 43.0000000  0  8G01G23G10G16G21G27G07G08                        
  23686641.827 7 124474148.836 7      3341.981 7        46.844                  
  23065462.661 8 121209832.424 8     -2869.126 8        50.769                  
  21332478.426 8 112102930.032 8      -849.557 8        53.695                  
  23555773.194 8 123786422.066 8     -3625.834 8        50.442                  
  21743417.976 8 114262483.839 8      1719.373 8        50.901                  
  20511443.119 9 107788321.225 9     -1401.181 9        57.148                  
  25005733.227 7 131401460.266 7     -2008.528 7        47.124                  
  20426508.026 9 107342018.198 9       789.077 9        55.300                  
 02  5 18 00 02 44.0000000  0  8G01G23G10G16G21G27G07G08                        
  23686006.208 7 124470805.387 7      3341.885 7        46.128                  
  23066008.988 8 121212702.546 8     -2872.157 8        50.924                  
  21332639.783 9 112103780.626 9      -850.671 9        54.211                  
  23556463.725 8 123790049.435 8     -3628.211 8        51.431                  
  21743094.511 8 114260765.534 8      1717.999 8        51.318                  
  20511706.419 9 107789722.124 9     -1401.164 9        56.258                  
  25006112.265 7 131403472.437 7     -2013.909 7        46.407                  
  20426358.212 9 107341229.462 9       789.465 9        56.878                  
 02  5 18 00 02 45.0000000  0  8G01G23G10G16G21G27G07G08                        
  23685367.569 7 124467462.186 7      3342.952 7        46.788                  
  23066556.263 8 121215572.965 8     -2870.200 8        50.115                  
  21332801.337 8 112104631.753 8      -850.395 8        53.645                  
  23557152.647 8 123793677.061 8     -3627.612 8        50.193                  
  21742768.383 8 114259047.599 8      1715.701 8        51.901                  
  20511975.902 9 107791123.477 9     -1401.396 9        56.994                  
  25006498.843 7 131405484.990 7     -2013.601 7        46.897                  
  20426208.165 9 107340441.215 9       787.765 9        58.907                  
 02  5 18 00 02 46.0000000  0  8G01G23G10G16G21G27G07G08                        
  23684732.450 8 124464121.739 8      3336.058 8        48.679                  
  23067102.322 8 121218441.122 8     -2866.514 8        50.125                  
  21332962.801 9 112105482.004 9      -849.635 9        54.673                  
  23557845.626 8 123797306.655 8     -3626.743 8        48.756                  
  21742439.343 8 114257331.676 8      1714.470 8        50.929                  
  20512246.475 9 107792524.935 9     -1400.345 9        55.764                  
  25006879.310 7 131407499.805 7     -2013.663 7        45.576                  
  20426058.316 9 107339653.709 9       786.689 9        55.008                  
 02  5 18 00 02 47.0000000  0  8G01G23G10G16G21G27G07G08                        
  23684097.349 8 124460782.517 8      3338.609 8        48.264                  
  23067648.972 8 121221308.586 8     -2868.495 8        50.174                  
  21333124.319 8 112106332.278 8      -852.586 8        53.258                  
  23558535.853 8 123800937.191 8     -3629.949 8        49.707                  
  21742110.410 8 114255616.775 8      1715.609 8        52.900                  
  20512512.866 9 107793926.731 9     -1403.546 9        54.614                  
  25007264.084 7 131409515.714 7     -2013.189 7        47.353                  
  20425908.448 9 107338866.759 9       786.568 9        54.620                  
 02  5 18 00 02 48.0000000  0  8G01G23G10G16G21G27G07G08                        
  23683462.445 8 124457441.855 8      3342.518 8        48.802                  
  23068192.226 8 121224178.116 8     -2871.722 8        50.137                  
  21333287.964 8 112107184.109 8      -850.641 8        51.613                  
  23559225.507 8 123804566.720 8     -3629.612 8        50.969                  
  21741783.460 8 114253901.078 8      1715.689 8        51.771                  
  20512774.683 8 107795329.194 8     -1402.957 8        52.661                  
  25007648.250 7 131411530.775 7     -2016.321 7        47.979                  
  20425758.742 9 107338080.097 9       785.894 9        55.767                  
 02  5 18 00 02 49.0000000  0  8G01G23G10G16G21G27G07G08                        
  23682826.897 8 124454102.547 8      3336.354 8        48.357                  
  23068737.910 8 121227046.828 8     -2865.296 8        51.088                  
  21333451.340 8 112108035.859 8      -852.348 8        53.164                  
  23559917.503 8 123808197.289 8     -3633.885 8        51.004                  
  21741459.888 8 114252186.519 8      1712.725 8        53.134                  
  20513040.092 9 107796731.929 9     -1402.541 9        54.650                  
  25008031.130 8 131413547.020 8     -2016.898 8        48.182                  
  20425609.035 9 107337294.031 9       784.920 9        55.249                  
 02  5 18 00 02 50.0000000  0  8G01G23G10G16G21G27G07G08                        
  23682189.956 7 124450764.979 7      3337.495 7        47.555                  
  23069284.809 8 121229911.985 8     -2866.457 8        50.411                  
  21333613.931 8 112108887.305 8      -852.666 8        53.055                  
  23560608.159 8 123811833.943 8     -3645.509 8        48.624                  
  21741136.423 9 114250472.700 9      1716.124 9        54.044                  
  20513312.487 9 107798136.374 9     -1408.070 9        55.998                  
  25008416.368 8 131415562.426 8     -2013.118 8        49.033                  
  20425459.418 9 107336507.531 9       789.674 9        55.787                  
 02  5 18 00 02 51.0000000  0  8G01G23G10G16G21G27G07G08                        
  23681555.499 8 124447421.160 8      3347.588 8        48.919                  
  23069827.170 8 121232773.020 8     -2861.538 8        49.572                  
  21333775.842 9 112109743.156 9      -858.202 9        54.409                  
  23561304.104 8 123815489.264 8     -3662.874 8        49.685                  
  21740808.634 9 114248752.152 9      1723.999 9        54.146                  
  20513583.828 9 107799548.944 9     -1416.377 9        56.442                  
  25008793.601 8 131417562.458 8     -1992.408 8        48.501                  
  20425308.389 9 107335715.779 9       795.522 9        56.349                  
 02  5 18 00 02 52.0000000  0  8G01G23G10G16G21G27G07G08                        
  23680918.789 8 124444069.431 8      3358.688 8        48.908                  
  23070372.514 8 121235629.812 8     -2856.552 8        50.091                  
  21333941.523 9 112110604.345 9      -865.482 9        55.334                  
  23562005.266 8 123819165.964 8     -3686.680 8        49.476                  
  21740476.466 8 114247023.307 8      1732.345 8        52.823                  
  20513851.542 9 107800971.027 9     -1426.900 9        56.024                  
  25009172.782 7 131419543.996 7     -1970.847 7        47.742                  
  20425156.681 9 107334917.697 9       801.024 9        57.358                  
 02  5 18 00 02 53.0000000  0  8G01G23G10G16G21G27G07G08                        
  23680278.846 8 124440714.457 8      3347.743 8        49.073                  
  23070915.304 8 121238482.587 8     -2842.931 8        49.874                  
  21334105.740 9 112111468.148 9      -858.842 9        55.904                  
  23562705.839 8 123822856.796 8     -3698.299 8        51.402                  
  21740144.371 8 114245290.520 8      1726.899 8        52.818                  
  20514119.416 9 107802398.886 9     -1427.770 9        58.050                  
  25009541.044 7 131421515.542 7     -1981.319 7        45.833                  
  20425004.901 9 107334116.150 9       800.336 9        57.630                  
 02  5 18 00 02 54.0000000  0  8G01G23G10G16G21G27G07G08                        
  23679644.210 8 124437379.505 8      3323.504 8        48.871                  
  23071452.947 8 121241313.453 8     -2820.108 8        50.717                  
  21334266.829 8 112112320.759 8      -845.774 8        52.283                  
  23563411.541 8 123826565.670 8     -3716.964 8        51.843                  
  21739819.279 8 114243570.922 8      1712.010 8        53.005                  
  20514390.186 9 107803825.859 9     -1427.921 9        56.466                  
  25009927.176 7 131423500.309 7     -1990.214 7        46.677                  
  20424853.658 8 107333316.529 8       797.598 8        53.806                  
 02  5 18 00 02 55.0000000  0  8G01G23G10G16G21G27G07G08                        
  23679013.630 8 124434065.637 8      3303.539 8        50.096                  
  23071988.106 8 121244120.631 8     -2796.143 8        49.821                  
  21334425.488 8 112113161.530 8      -833.632 8        52.937                  
  23564122.245 8 123830294.643 8     -3734.360 8        50.334                  
  21739498.477 8 114241865.073 8      1698.935 8        52.774                  
  20514665.797 9 107805252.197 9     -1425.377 9        57.192                  
  25010304.034 7 131425498.409 7     -2007.154 7        47.800                  
  20424702.111 9 107332518.685 9       795.965 9        54.560                  
 02  5 18 00 02 56.0000000  0  8G01G23G10G16G21G27G07G08                        
  23678386.570 8 124430765.950 8      3300.395 8        48.599                  
  23072518.548 8 121246913.189 8     -2791.202 8        49.068                  
  21334583.593 8 112113994.551 8      -834.498 8        51.510                  
  23564833.968 8 123834034.819 8     -3739.872 8        50.817                  
  21739176.138 8 114240168.816 8      1696.202 8        53.701                  
  20514939.837 9 107806677.584 9     -1426.170 9        57.548                  
  25010689.200 7 131427506.737 7     -2009.581 7        47.604                  
  20424551.207 9 107331722.713 9       796.472 9        56.047                  
 02  5 18 00 02 57.0000000  0  8G01G23G10G16G21G27G07G08                        
  23677758.724 8 124427467.241 8      3299.584 8        49.650                  
  23073052.350 8 121249705.585 8     -2791.990 8        50.151                  
  21334741.734 8 112114827.703 8      -832.801 8        52.548                  
  23565544.923 8 123837775.118 8     -3743.196 8        48.563                  
  21738852.226 9 114238473.456 9      1694.687 9        54.965                  
  20515210.392 9 107808103.172 9     -1425.239 9        54.145                  
  25011068.578 7 131429516.349 7     -2008.412 7        45.973                  
  20424400.124 9 107330927.430 9       795.492 9        56.558                  
 02  5 18 00 02 58.0000000  0  8G01G23G10G16G21G27G07G08                        
  23677130.110 8 124424168.992 8      3300.661 8        48.372                  
  23073581.577 8 121252498.405 8     -2791.829 8        49.282                  
  21334900.411 9 112115661.285 9      -833.703 9        54.368                  
  23566256.754 8 123841515.082 8     -3742.259 8        49.294                  
  21738526.813 9 114236778.680 9      1695.587 9        54.268                  
  20515477.176 8 107809528.964 8     -1427.160 8        53.292                  
  25011453.316 7 131431526.876 7     -2009.049 7        45.707                  
  20424249.220 9 107330132.830 9       794.486 9        56.168                  
 02  5 18 00 02 59.0000000  0  8G01G23G10G16G21G27G07G08                        
  23676501.853 8 124420870.852 8      3300.296 8        49.082                  
  23074114.252 8 121255291.601 8     -2795.447 8        50.045                  
  21335058.856 9 112116495.454 9      -834.488 9        54.056                  
  23566969.442 8 123845255.260 8     -3741.668 8        48.090                  
  21738202.544 8 114235084.169 8      1694.065 8        51.327                  
  20515746.712 8 107810955.243 8     -1427.676 8        51.349                  
  25011834.837 7 131433537.733 7     -2008.694 7        47.277                  
  20424098.334 9 107329338.694 9       794.594 9        57.531                  
 02  5 18 00 03  0.0000000  0  8G01G23G10G16G21G27G07G08                        
  23675875.025 8 124417572.848 8      3296.175 8        49.467                  
  23074645.302 8 121258085.152 8     -2795.679 8        51.408                  
  21335217.318 9 112117330.228 9      -835.865 9        54.165                  
  23567680.986 8 123848995.726 8     -3743.574 8        49.987                  
  21737880.901 8 114233389.892 8      1694.719 8        51.861                  
  20516021.574 8 107812382.046 8     -1427.388 8        52.857                  
  25012217.592 7 131435548.861 7     -2017.767 7        44.865                  
  20423947.466 9 107328544.973 9       792.606 9        55.083                  
 02  5 18 00 03  1.0000000  0  8G01G23G10G16G21G27G07G08                        
  23675248.484 8 124414274.967 8      3299.022 8        48.285                  
  23075177.691 8 121260879.086 8     -2794.180 8        51.538                  
  21335376.370 9 112118165.599 9      -835.230 9        54.718                  
  23568391.798 8 123852736.407 8     -3740.677 8        50.958                  
  21737561.546 8 114231695.869 8      1694.563 8        53.359                  
  20516296.346 9 107813809.351 9     -1427.888 9        55.956                  
  25012601.222 7 131437560.288 7     -2013.795 7        47.673                  
  20423796.937 9 107327751.720 9       792.215 9        56.959                  
 02  5 18 00 03  2.0000000  0  8G01G23G10G16G21G27G07G08                        
  23674620.924 8 124410977.200 8      3298.086 8        48.806                  
  23075709.152 8 121263673.371 8     -2795.217 8        50.315                  
  21335536.405 9 112119001.591 9      -836.791 9        54.419                  
  23569103.986 8 123856477.340 8     -3743.543 8        49.675                  
  21737241.065 8 114230002.108 8      1693.269 8        53.856                  
  20516568.920 9 107815237.133 9     -1428.042 9        57.680                  
  25012982.332 7 131439572.015 7     -2011.728 7        47.718                  
  20423646.159 9 107326958.942 9       792.207 9        57.803                  
 02  5 18 00 03  3.0000000  0  8G01G23G10G16G21G27G07G08                        
  23673992.613 8 124407679.406 8      3297.632 8        48.722                  
  23076239.969 8 121266467.994 8     -2793.364 8        48.557                  
  21335696.851 9 112119838.270 9      -835.795 9        56.027                  
  23569816.888 8 123860218.793 8     -3742.473 8        50.387                  
  21736918.923 9 114228308.429 9      1694.752 9        54.799                  
  20516836.258 9 107816665.582 9     -1429.140 9        57.198                  
  25013367.624 7 131441583.709 7     -2011.831 7        47.676                  
  20423495.398 9 107326166.486 9       792.606 9        58.348                  
 02  5 18 00 03  4.0000000  0  8G01G23G10G16G21G27G07G08                        
  23673363.141 8 124404375.226 8      3312.028 8        48.267                  
  23076774.396 8 121269268.553 8     -2811.264 8        48.251                  
  21335857.905 9 112120679.445 9      -848.126 9        56.495                  
  23570527.807 8 123863958.263 8     -3736.163 8        51.564                  
  21736593.885 8 114226610.371 8      1703.997 8        53.428                  
  20517105.866 9 107818096.060 9     -1433.053 9        57.164                  
  25013746.340 7 131443589.755 7     -2001.574 7        44.625                  
  20423344.655 9 107325373.231 9       794.836 9        57.565                  
 02  5 18 00 03  5.0000000  0  8G01G23G10G16G21G27G07G08                        
  23672730.024 7 124401047.232 7      3342.441 7        47.636                  
  23077309.716 8 121272091.261 8     -2833.099 8        49.293                  
  21336021.013 9 112121535.415 9      -863.858 9        55.966                  
  23571236.350 8 123867687.107 8     -3722.092 8        50.672                  
  21736264.237 8 114224895.780 8      1724.521 8        51.675                  
  20517379.959 9 107819531.877 9     -1438.400 9        58.360                  
  25014128.005 7 131445575.488 7     -1974.404 7        46.776                  
  20423193.500 9 107324576.363 9       798.640 9        56.097                  
 02  5 18 00 03  6.0000000  0  8G01G23G10G16G21G27G07G08                        
  23672093.029 7 124397694.212 7      3363.694 7        47.968                  
  23077854.828 8 121274937.674 8     -2854.208 8        49.173                  
  21336187.088 9 112122406.937 9      -876.795 9        54.658                  
  23571945.053 8 123871403.806 8     -3714.320 8        49.358                  
  21735934.554 8 114223163.925 8      1739.035 8        53.034                  
  20517658.394 9 107820972.997 9     -1443.184 9        56.922                  
  25014498.322 8 131447540.283 8     -1959.001 8        48.206                  
  20423041.417 9 107323775.873 9       802.033 9        58.205                  
 02  5 18 00 03  7.0000000  0  8G01G23G10G16G21G27G07G08                        
  23671452.728 8 124394331.636 8      3361.112 8        48.908                  
  23078395.062 8 121277789.051 8     -2847.471 8        50.173                  
  21336354.878 9 112123284.828 9      -878.847 9        54.901                  
  23572653.560 8 123875125.088 8     -3732.787 8        51.683                  
  21735607.283 9 114221424.530 9      1742.472 9        54.641                  
  20517935.632 9 107822419.211 9     -1450.371 9        57.413                  
  25014873.339 7 131449492.843 7     -1944.901 7        47.414                  
  20422888.655 9 107322972.329 9       806.344 9        57.008                  
 02  5 18 00 03  8.0000000  0  8G01G23G10G16G21G27G07G08                        
  23670811.123 8 124390964.058 8      3368.067 8        48.281                  
  23078937.066 8 121280633.824 8     -2842.566 8        50.209                  
  21336519.845 9 112124166.262 9      -883.510 9        56.525                  
  23573365.033 8 123878868.260 8     -3750.153 8        48.558                  
  21735278.082 9 114219678.952 9      1749.035 9        54.370                  
  20518212.316 9 107823874.172 9     -1459.330 9        55.260                  
  25015238.368 7 131451429.931 7     -1928.997 7        47.408                  
  20422734.588 9 107322163.243 9       812.140 9        56.083                  
 02  5 18 00 03  9.0000000  0  8G01G23G10G16G21G27G07G08                        
  23670170.161 8 124387591.280 8      3373.897 8        48.434                  
  23079477.353 8 121283473.395 8     -2840.651 8        50.654                  
  21336687.331 9 112125051.331 9      -886.715 9        55.060                  
  23574080.705 8 123882630.783 8     -3768.962 8        48.779                  
  21734940.089 8 114217927.373 8      1754.045 8        53.392                  
  20518486.784 9 107825337.141 9     -1465.941 9        56.027                  
  25015608.006 7 131453352.561 7     -1918.066 7        47.976                  
  20422578.788 9 107321349.155 9       815.177 9        55.852                  
 02  5 18 00 03 10.0000000  0  8G01G23G10G16G21G27G07G08                        
  23669528.306 7 124384216.586 7      3376.286 7        47.909                  
  23080015.586 8 121286312.948 8     -2840.479 8        51.990                  
  21336855.747 9 112125938.176 9      -887.813 9        55.223                  
  23574797.342 8 123886397.236 8     -3767.790 8        50.974                  
  21734604.473 8 114216174.103 8      1752.923 8        52.850                  
  20518763.075 9 107826802.461 9     -1466.232 9        57.875                  
  25015969.229 7 131455271.551 7     -1917.704 7        46.817                  
  20422422.774 9 107320534.194 9       814.302 9        55.275                  
 02  5 18 00 03 11.0000000  0  8G01G23G10G16G21G27G07G08                        
  23668885.003 8 124380841.652 8      3374.065 8        49.884                  
  23080557.125 8 121289153.199 8     -2842.021 8        49.999                  
  21337024.377 9 112126825.868 9      -888.575 9        56.269                  
  23575515.087 8 123890163.763 8     -3768.980 8        49.211                  
  21734273.235 8 114214420.825 8      1753.265 8        51.159                  
  20519041.278 9 107828268.389 9     -1466.849 9        56.449                  
  25016335.758 8 131457190.483 8     -1920.546 8        48.773                  
  20422266.545 9 107319719.647 9       813.958 9        55.726                  
 02  5 18 00 03 12.0000000  0  8G01G23G10G16G21G27G07G08                        
  23668242.791 7 124377466.774 7      3378.222 7        47.293                  
  23081097.020 8 121291993.898 8     -2840.389 8        48.976                  
  21337195.615 8 112127714.178 8      -886.605 8        53.644                  
  23576231.564 7 123893930.452 7     -3769.070 7        47.467                  
  21733942.980 8 114212667.790 8      1752.947 8        52.819                  
  20519323.090 9 107829734.807 9     -1466.665 9        55.565                  
  25016702.824 7 131459109.703 7     -1919.614 7        47.600                  
  20422110.656 9 107318905.567 9       813.558 9        57.013                  
 02  5 18 00 03 13.0000000  0  8G01G23G10G16G21G27G07G08                        
  23667601.793 7 124374092.031 7      3374.294 7        47.680                  
  23081638.165 8 121294834.988 8     -2842.066 8        50.439                  
  21337366.140 9 112128603.076 9      -890.455 9        55.757                  
  23576947.415 7 123897697.336 7     -3766.649 7        47.733                  
  21733607.936 8 114210915.031 8      1752.491 8        52.785                  
  20519605.010 9 107831201.737 9     -1467.899 9        55.618                  
  25017064.779 7 131461029.286 7     -1917.335 7        47.654                  
  20421955.213 9 107318091.988 9       812.360 9        56.413                  
 02  5 18 00 03 14.0000000  0  8G01G23G10G16G21G27G07G08                        
  23666960.063 7 124370717.456 7      3372.336 7        47.644                  
  23082182.491 7 121297676.438 7     -2841.602 7        47.653                  
  21337535.020 9 112129492.569 9      -890.121 9        54.893                  
  23577663.820 8 123901464.397 8     -3767.147 8        49.271                  
  21733271.176 9 114209162.559 9      1752.309 9        54.126                  
  20519885.893 9 107832669.167 9     -1467.623 9        57.587                  
  25017432.880 7 131462949.196 7     -1918.796 7        47.041                  
  20421799.163 9 107317278.920 9       812.983 9        55.788                  
 02  5 18 00 03 15.0000000  0  8G01G23G10G16G21G27G07G08                        
  23666316.456 8 124367343.034 8      3375.088 8        48.858                  
  23082718.830 8 121300518.236 8     -2843.042 8        50.953                  
  21337704.775 9 112130382.655 9      -889.746 9        56.700                  
  23578382.101 8 123905231.647 8     -3767.645 8        48.011                  
  21732937.115 8 114207410.375 8      1751.458 8        52.064                  
  20520165.257 9 107834137.110 9     -1468.084 9        56.663                  
  25017797.980 7 131464869.456 7     -1918.175 7        45.975                  
  20421643.756 9 107316466.354 9       812.887 9        57.644                  
 02  5 18 00 03 16.0000000  0  8G01G23G10G16G21G27G07G08                        
  23665675.334 7 124363968.743 7      3373.692 7        47.735                  
  23083260.958 8 121303360.434 8     -2843.393 8        49.014                  
  21337872.566 9 112131273.339 9      -890.782 9        55.727                  
  23579099.792 8 123908999.076 8     -3765.681 8        49.610                  
  21732607.199 8 114205658.473 8      1752.616 8        53.379                  
  20520441.405 9 107835605.542 9     -1467.664 9        56.912                  
  25018164.778 7 131466790.036 7     -1920.335 7        45.015                  
  20421488.474 9 107315654.253 9       811.741 9        58.570                  
 02  5 18 00 03 17.0000000  0  8G01G23G10G16G21G27G07G08                        
  23665032.853 7 124360594.525 7      3372.006 7        46.608                  
  23083801.943 8 121306203.063 8     -2843.875 8        48.778                  
  21338040.802 9 112132164.656 9      -891.471 9        55.253                  
  23579815.858 8 123912766.663 8     -3766.945 8        49.377                  
  21732275.657 9 114203906.800 9      1751.223 9        54.366                  
  20520718.607 9 107837074.499 9     -1469.699 9        55.319                  
  25018526.197 7 131468710.934 7     -1922.501 7        47.106                  
  20421333.460 9 107314842.628 9       810.952 9        57.195                  
 02  5 18 00 03 18.0000000  0  8G01G23G10G16G21G27G07G08                        
  23664390.050 7 124357220.078 7      3377.138 7        47.202                  
  23084342.302 8 121309046.371 8     -2843.104 8        51.150                  
  21338210.201 9 112133056.794 9      -892.191 9        55.857                  
  23580532.441 8 123916534.357 8     -3768.486 8        50.831                  
  21731939.291 8 114202155.150 8      1752.691 8        53.092                  
  20520996.649 9 107838544.040 9     -1470.540 9        55.911                  
  25018894.352 8 131470631.826 8     -1919.380 8        48.049                  
  20421178.143 9 107314031.433 9       811.656 9        56.697                  
 02  5 18 00 03 19.0000000  0  8G01G23G10G16G21G27G07G08                        
  23663747.588 7 124353843.954 7      3374.751 7        47.624                  
  23084886.164 8 121311893.368 8     -2851.558 8        49.300                  
  21338380.832 9 112133950.627 9      -894.853 9        54.075                  
  23581248.256 8 123920298.001 8     -3755.173 8        50.035                  
  21731603.371 8 114200402.932 8      1752.800 8        53.930                  
  20521277.390 9 107840013.435 9     -1467.331 9        54.621                  
  25019259.077 7 131472553.090 7     -1921.419 7        47.807                  
  20421022.468 9 107313221.170 9       808.415 9        58.445                  
 02  5 18 00 03 20.0000000  0  8G01G23G10G16G21G27G07G08                        
  23663105.625 7 124350463.701 7      3383.008 7        47.647                  
  23085428.596 8 121314754.099 8     -2869.598 8        50.145                  
  21338553.429 8 112134847.725 8      -897.581 8        53.408                  
  23581961.731 8 123924040.397 8     -3732.696 8        50.578                  
  21731271.686 8 114198650.305 8      1753.247 8        53.554                  
  20521559.863 9 107841478.314 9     -1463.077 9        55.274                  
  25019626.160 7 131474480.174 7     -1929.138 7        46.330                  
  20420868.187 9 107312414.766 9       804.322 9        56.875                  
 02  5 18 00 03 21.0000000  0  8G01G23G10G16G21G27G07G08                        
  23662461.661 8 124347079.417 8      3387.525 8        48.738                  
  23085976.174 8 121317629.526 8     -2879.935 8        51.006                  
  21338726.097 9 112135748.054 9      -901.820 9        54.544                  
  23582668.576 8 123927759.352 8     -3712.082 8        49.812                  
  21730941.091 8 114196897.600 8      1754.207 8        52.147                  
  20521839.728 9 107842937.998 9     -1458.908 9        57.162                  
  25019994.387 7 131476414.252 7     -1935.148 7        45.910                  
  20420714.602 9 107311612.795 9       799.697 9        55.180                  
 02  5 18 00 03 22.0000000  0  8G01G23G10G16G21G27G07G08                        
  23661813.677 8 124343683.986 8      3403.840 8        48.013                  
  23086526.415 8 121320516.267 8     -2896.201 8        49.470                  
  21338898.212 9 112136655.719 9      -913.797 9        55.056                  
  23583374.080 8 123931471.961 8     -3713.119 8        49.565                  
  21730605.868 9 114195137.431 9      1769.391 9        54.524                  
  20522118.449 9 107844400.034 9     -1466.898 9        58.273                  
  25020365.777 8 131478339.565 8     -1911.862 8        48.522                  
  20420561.554 9 107310809.691 9       804.878 9        56.260                  
 02  5 18 00 03 23.0000000  0  8G01G23G10G16G21G27G07G08                        
  23661164.692 8 124340264.672 8      3430.918 8        48.532                  
  23087077.514 8 121323418.967 8     -2911.736 8        50.629                  
  21339071.863 9 112137578.241 9      -929.834 9        55.843                  
  23584082.265 8 123935186.907 8     -3717.088 8        49.277                  
  21730262.622 8 114193359.201 8      1787.527 8        53.066                  
  20522395.865 9 107845871.385 9     -1475.657 9        58.723                  
  25020723.926 7 131480238.263 7     -1885.185 7        46.810                  
  20420407.184 9 107310000.224 9       811.981 9        58.915                  
 02  5 18 00 03 24.0000000  0  8G01G23G10G16G21G27G07G08                        
  23660509.989 7 124336825.751 7      3440.849 7        46.508                  
  23087632.579 8 121326335.011 8     -2917.601 8        51.135                  
  21339249.249 9 112138513.052 9      -936.839 9        55.854                  
  23584790.057 8 123938903.397 8     -3715.556 8        51.288                  
  21729923.611 8 114191566.230 8      1794.037 8        53.237                  
  20522674.443 9 107847350.340 9     -1480.122 9        57.434                  
  25021079.072 7 131482115.389 7     -1868.427 7        46.749                  
  20420252.492 9 107309185.733 9       814.946 9        56.781                  
 02  5 18 00 03 25.0000000  0  8G01G23G10G16G21G27G07G08                        
  23659854.035 7 124333384.023 7      3441.130 7        47.967                  
  23088190.271 8 121329253.865 8     -2921.240 8        50.927                  
  21339426.706 8 112139450.215 8      -937.472 8        53.871                  
  23585496.295 8 123942619.280 8     -3716.531 8        50.084                  
  21729586.047 8 114189771.442 8      1794.355 8        52.402                  
  20522954.576 9 107848830.598 9     -1480.771 9        56.261                  
  25021437.704 7 131483990.016 7     -1875.459 7        47.584                  
  20420098.800 9 107308371.102 9       814.760 9        55.944                  
 02  5 18 00 03 26.0000000  0  8G01G23G10G16G21G27G07G08                        
  23659200.797 8 124329942.286 8      3442.303 8        49.865                  
  23088743.889 8 121332173.357 8     -2917.503 8        49.804                  
  21339608.255 8 112140388.093 8      -938.217 8        53.976                  
  23586202.979 8 123946335.071 8     -3715.594 8        49.208                  
  21729241.229 8 114187976.864 8      1793.400 8        53.677                  
  20523236.120 9 107850311.318 9     -1480.817 9        57.695                  
  25021794.066 7 131485864.940 7     -1877.289 7        47.278                  
  20419944.680 9 107307556.986 9       813.685 9        56.119                  
 02  5 18 00 03 27.0000000  0  8G01G23G10G16G21G27G07G08                        
  23658545.165 8 124326500.678 8      3444.183 8        49.209                  
  23089298.937 8 121335093.268 8     -2918.999 8        50.635                  
  21339787.910 9 112141326.569 9      -939.316 9        57.045                  
  23586911.396 8 123950051.003 8     -3716.746 8        50.057                  
  21728896.660 9 114186182.552 9      1794.036 9        54.039                  
  20523520.363 9 107851792.507 9     -1480.707 9        58.118                  
  25022148.122 7 131487740.190 7     -1879.243 7        47.320                  
  20419790.738 9 107306743.369 9       813.008 9        56.098                  
 02  5 18 00 03 28.0000000  0  8G01G23G10G16G21G27G07G08                        
  23657889.496 7 124323059.239 7      3438.041 7        47.479                  
  23089856.254 8 121338013.549 8     -2921.465 8        49.907                  
  21339964.796 9 112142265.664 9      -939.256 9        55.497                  
  23587618.223 8 123953767.100 8     -3713.477 8        50.463                  
  21728559.454 9 114184388.568 9      1794.427 9        54.376                  
  20523804.945 9 107853274.184 9     -1482.076 9        57.530                  
  25022507.629 8 131489615.765 8     -1875.924 8        48.307                  
  20419636.475 9 107305930.280 9       812.868 9        56.391                  
 02  5 18 00 03 29.0000000  0  8G01G23G10G16G21G27G07G08                        
  23657235.848 7 124319617.947 7      3442.310 7        47.392                  
  23090411.534 8 121340934.213 8     -2920.796 8        50.099                  
  21340142.092 9 112143205.380 9      -940.040 9        56.413                  
  23588323.943 8 123957483.395 8     -3716.915 8        50.647                  
  21728219.996 8 114182594.883 8      1793.771 8        53.713                  
  20524088.616 9 107854756.384 9     -1481.728 9        55.854                  
  25022862.740 7 131491491.687 7     -1873.913 7        46.130                  
  20419482.265 9 107305117.691 9       811.271 9        57.031                  
 02  5 18 00 03 30.0000000  0  8G01G23G10G16G21G27G07G08                        
  23656579.751 8 124316176.822 8      3440.308 8        48.987                  
  23090966.117 8 121343855.260 8     -2919.073 8        49.527                  
  21340320.121 9 112144145.678 9      -941.450 9        57.382                  
  23589031.913 8 123961199.852 8     -3719.411 8        49.245                  
  21727873.480 8 114180801.501 8      1794.895 8        53.799                  
  20524371.393 9 107856239.049 9     -1482.288 9        56.928                  
  25023219.245 7 131493367.962 7     -1876.484 7        45.409                  
  20419328.806 9 107304305.565 9       811.302 9        57.210                  
 02  5 18 00 03 31.0000000  0  8G01G23G10G16G21G27G07G08                        
  23655925.566 8 124312735.878 8      3442.086 8        49.259                  
  23091523.255 8 121346776.663 8     -2920.652 8        49.900                  
  21340501.992 9 112145086.585 9      -941.326 9        57.278                  
  23589740.349 8 123964916.496 8     -3716.424 8        52.032                  
  21727532.253 8 114179008.452 8      1791.794 8        53.449                  
  20524652.151 9 107857722.214 9     -1481.598 9        55.495                  
  25023580.986 7 131495244.564 7     -1874.301 7        45.573                  
  20419174.972 9 107303493.952 9       810.050 9        56.515                  
 02  5 18 00 03 32.0000000  0  8G01G23G10G16G21G27G07G08                        
  23655270.952 7 124309295.096 7      3442.836 7        47.921                  
  23092079.750 8 121349698.456 8     -2923.192 8        50.617                  
  21340682.237 9 112146028.087 9      -941.837 9        55.288                  
  23590445.996 8 123968633.324 8     -3713.824 8        50.272                  
  21727195.690 8 114177215.698 8      1793.660 8        52.930                  
  20524931.551 9 107859205.871 9     -1483.780 9        54.746                  
  25023933.148 7 131497121.516 7     -1876.294 7        45.311                  
  20419021.745 9 107302682.840 9       809.990 9        57.302                  
 02  5 18 00 03 33.0000000  0  8G01G23G10G16G21G27G07G08                        
  23654614.873 7 124305854.455 7      3441.151 7        47.608                  
  23092634.440 8 121352620.608 8     -2922.163 8        51.287                  
  21340860.534 9 112146970.200 9      -943.368 9        54.970                  
  23591153.360 8 123972350.331 8     -3719.482 8        49.858                  
  21726853.499 9 114175423.257 9      1791.707 9        54.117                  
  20525212.059 9 107860690.038 9     -1484.789 9        56.271                  
  25024292.584 7 131498998.813 7     -1877.159 7        47.102                  
  20418868.071 9 107301872.228 9       811.189 9        56.093                  
 02  5 18 00 03 34.0000000  0  8G01G23G10G16G21G27G07G08                        
  23653962.189 7 124302413.980 7      3440.409 7        47.273                  
  23093191.185 8 121355543.146 8     -2922.880 8        50.840                  
  21341037.598 8 112147912.906 8      -943.083 8        53.625                  
  23591861.723 8 123976067.527 8     -3718.327 8        50.306                  
  21726508.090 9 114173631.123 9      1790.142 9        54.318                  
  20525493.782 9 107862174.695 9     -1484.677 9        56.142                  
  25024649.303 7 131500876.453 7     -1875.519 7        46.991                  
  20418714.255 9 107301062.107 9       809.656 9        58.054                  
 02  5 18 00 03 35.0000000  0  8G01G23G10G16G21G27G07G08                        
  23653306.610 8 124298973.681 8      3440.519 8        48.562                  
  23093747.591 7 121358466.072 7     -2922.788 7        47.453                  
  21341216.485 9 112148856.211 9      -943.776 9        54.577                  
  23592569.140 8 123979784.900 8     -3717.460 8        48.382                  
  21726170.241 8 114171839.299 8      1791.077 8        53.372                  
  20525776.970 9 107863659.852 9     -1485.777 9        55.428                  
  25025004.825 7 131502754.430 7     -1881.486 7        45.745                  
  20418561.046 9 107300252.497 9       809.586 9        56.793                  
 02  5 18 00 03 36.0000000  0  8G01G23G10G16G21G27G07G08                        
  23652651.943 8 124295533.527 8      3439.645 8        48.009                  
  23094304.568 8 121361389.358 8     -2922.090 8        48.971                  
  21341398.338 8 112149800.121 8      -944.388 8        53.927                  
  23593276.021 8 123983502.454 8     -3717.398 8        48.272                  
  21725832.177 8 114170047.783 8      1791.061 8        53.561                  
  20526062.750 9 107865145.509 9     -1485.035 9        54.188                  
  25025366.333 7 131504632.726 7     -1879.490 7        45.209                  
  20418407.676 9 107299443.379 9       807.612 9        54.621                  
 02  5 18 00 03 37.0000000  0  8G01G23G10G16G21G27G07G08                        
  23651997.972 8 124292093.556 8      3435.496 8        48.153                  
  23094859.419 8 121364313.028 8     -2922.566 8        51.847                  
  21341579.887 9 112150744.629 9      -945.934 9        55.964                  
  23593983.295 8 123987220.185 8     -3715.801 8        48.593                  
  21725487.197 8 114168256.584 8      1791.495 8        53.988                  
  20526347.492 9 107866631.645 9     -1486.481 9        55.723                  
  25025718.925 7 131506511.357 7     -1875.308 7        45.587                  
  20418254.503 9 107298634.732 9       808.308 9        57.862                  
 02  5 18 00 03 38.0000000  0  8G01G23G10G16G21G27G07G08                        
  23651341.983 7 124288653.745 7      3442.991 7        47.945                  
  23095417.076 8 121367237.063 8     -2924.353 8        52.177                  
  21341758.721 9 112151689.744 9      -945.324 9        57.478                  
  23594692.373 8 123990938.122 8     -3719.358 8        49.400                  
  21725144.827 9 114166465.704 9      1790.999 9        54.415                  
  20526631.753 9 107868118.279 9     -1486.877 9        55.536                  
  25026078.414 7 131508390.343 7     -1877.317 7        45.153                  
  20418101.990 9 107297826.608 9       807.327 9        56.998                  
 02  5 18 00 03 39.0000000  0  8G01G23G10G16G21G27G07G08                        
  23650687.101 8 124285214.078 8      3438.418 8        50.736                  
  23095971.105 8 121370161.470 8     -2924.499 8        51.218                  
  21341937.715 9 112152635.454 9      -947.432 9        55.265                  
  23595398.896 8 123994656.223 8     -3717.913 8        50.034                  
  21724807.692 8 114164675.117 8      1791.279 8        53.551                  
  20526914.959 9 107869605.391 9     -1487.292 9        57.490                  
  25026437.689 7 131510269.656 7     -1880.467 7        45.452                  
  20417949.389 9 107297018.992 9       807.943 9        57.534                  
 02  5 18 00 03 40.0000000  0  8G01G23G10G16G21G27G07G08                        
  23650033.738 8 124281774.593 8      3439.632 8        48.907                  
  23096528.940 8 121373086.258 8     -2925.334 8        51.541                  
  21342115.779 9 112153581.785 9      -945.307 9        55.372                  
  23596105.723 8 123998374.493 8     -3718.251 8        51.381                  
  21724468.020 8 114162884.831 8      1790.548 8        53.875                  
  20527195.896 9 107871093.005 9     -1488.486 9        56.829                  
  25026792.317 7 131512149.310 7     -1877.304 7        45.890                  
  20417796.037 9 107296211.885 9       808.149 9        55.933                  
 02  5 18 00 03 41.0000000  0  8G01G23G10G16G21G27G07G08                        
  23649377.534 8 124278335.293 8      3438.648 8        48.590                  
  23097085.239 8 121376011.398 8     -2924.240 8        50.931                  
  21342298.955 9 112154528.689 9      -947.327 9        54.574                  
  23596814.248 8 124002092.951 8     -3717.070 8        50.532                  
  21724123.005 8 114161094.869 8      1789.679 8        52.724                  
  20527476.082 9 107872581.152 9     -1488.561 9        56.440                  
  25027154.898 7 131514029.315 7     -1880.115 7        46.035                  
  20417643.185 9 107295405.268 9       805.713 9        55.894                  
 02  5 18 00 03 42.0000000  0  8G01G23G10G16G21G27G07G08                        
  23648724.671 7 124274896.125 7      3444.597 7        47.510                  
  23097642.341 8 121378936.929 8     -2925.507 8        51.082                  
  21342480.182 9 112155476.199 9      -946.971 9        55.916                  
  23597522.576 8 124005811.593 8     -3721.486 8        48.909                  
  21723784.297 8 114159305.221 8      1789.667 8        52.403                  
  20527757.912 9 107874069.791 9     -1489.178 9        54.291                  
  25027510.420 7 131515909.652 7     -1879.932 7        45.513                  
  20417488.654 9 107294599.125 9       805.698 9        56.490                  
 02  5 18 00 03 43.0000000  0  8G01G23G10G16G21G27G07G08                        
  23648069.611 7 124271457.137 7      3435.064 7        47.702                  
  23098200.927 8 121381862.825 8     -2926.762 8        49.687                  
  21342659.570 9 112156424.306 9      -948.925 9        56.002                  
  23598228.849 8 124009530.411 8     -3719.219 8        49.954                  
  21723447.967 8 114157515.862 8      1790.060 8        53.285                  
  20528040.797 9 107875558.895 9     -1490.010 9        56.391                  
  25027867.371 7 131517790.329 7     -1880.414 7        46.353                  
  20417335.141 9 107293793.523 9       804.945 9        58.071                  
 02  5 18 00 03 44.0000000  0  8G01G23G10G16G21G27G07G08                        
  23647414.425 8 124268018.306 8      3437.920 8        50.358                  
  23098755.635 8 121384789.104 8     -2926.515 8        50.557                  
  21342838.063 9 112157373.022 9      -949.259 9        54.817                  
  23598936.445 8 124013249.417 8     -3717.574 8        51.707                  
  21723105.435 8 114155726.847 8      1788.101 8        53.560                  
  20528325.004 9 107877048.486 9     -1489.254 9        57.429                  
  25028227.807 7 131519671.353 7     -1879.305 7        46.613                  
  20417181.861 9 107292988.410 9       805.434 9        56.793                  
 02  5 18 00 03 45.0000000  0  8G01G23G10G16G21G27G07G08                        
  23646762.742 8 124264579.640 8      3435.662 8        49.628                  
  23099313.452 8 121387715.755 8     -2925.467 8        50.795                  
  21343017.897 9 112158322.345 9      -950.033 9        55.353                  
  23599645.702 8 124016968.602 8     -3716.887 8        51.155                  
  21722760.170 9 114153938.128 9      1789.023 9        55.760                  
  20528611.355 9 107878538.579 9     -1490.960 9        57.387                  
  25028582.096 7 131521552.683 7     -1879.629 7        46.017                  
  20417028.294 9 107292183.802 9       804.618 9        54.412                  
 02  5 18 00 03 46.0000000  0  8G01G23G10G16G21G27G07G08                        
  23646108.664 8 124261141.149 8      3434.533 8        49.159                  
  23099872.091 8 121390642.769 8     -2927.266 8        50.721                  
  21343201.305 9 112159272.263 9      -950.683 9        55.292                  
  23600352.583 8 124020687.990 8     -3718.789 8        50.737                  
  21722423.250 9 114152149.715 9      1789.258 9        55.608                  
  20528896.777 9 107880029.161 9     -1490.609 9        57.154                  
  25028943.515 7 131523434.385 7     -1885.057 7        45.461                  
  20416874.674 9 107291379.700 9       804.090 9        55.335                  
 02  5 18 00 03 47.0000000  0  8G01G23G10G16G21G27G07G08                        
  23645452.156 7 124257702.850 7      3440.990 7        47.432                  
  23100427.568 8 121393570.098 8     -2927.912 8        51.767                  
  21343383.372 9 112160222.757 9      -951.151 9        57.148                  
  23601059.463 8 124024407.633 8     -3717.974 8        50.866                  
  21722086.526 9 114150361.635 9      1788.518 9        55.117                  
  20529181.680 9 107881520.253 9     -1490.910 9        56.376                  
  25029300.521 7 131525316.421 7     -1882.373 7        47.610                  
  20416720.715 9 107290576.099 9       803.529 9        56.341                  
 02  5 18 00 03 48.0000000  0  8G01G23G10G16G21G27G07G08                        
  23644799.847 8 124254264.954 8      3436.176 8        48.089                  
  23100983.473 8 121396497.471 8     -2928.983 8        50.354                  
  21343562.259 9 112161173.711 9      -950.254 9        56.241                  
  23601768.846 8 124028127.788 8     -3721.072 8        50.400                  
  21721743.405 8 114148573.983 8      1787.212 8        53.701                  
  20529465.601 9 107883011.894 9     -1491.690 9        57.632                  
  25029656.722 7 131527198.867 7     -1881.211 7        47.444                  
  20416566.881 9 107289772.965 9       803.250 9        56.281                  
 02  5 18 00 03 49.0000000  0  8G01G23G10G16G21G27G07G08                        
  23644144.573 7 124250831.778 7      3428.467 7        47.831                  
  23101540.951 8 121399421.718 8     -2918.873 8        51.072                  
  21343741.896 9 112162122.528 9      -943.324 9        54.864                  
  23602476.816 8 124031848.771 8     -3720.480 8        49.524                  
  21721400.748 9 114146790.014 9      1777.612 9        54.412                  
  20529748.218 9 107884502.625 9     -1487.329 9        57.386                  
  25030022.340 7 131529086.302 7     -1898.631 7        45.119                  
  20416414.118 9 107288971.403 9       798.887 9        56.855                  
 02  5 18 00 03 50.0000000  0  8G01G23G10G16G21G27G07G08                        
  23643496.106 8 124247420.382 8      3396.820 8        48.875                  
  23102094.623 8 121402332.137 8     -2904.312 8        49.089                  
  21343919.765 9 112163059.189 9      -929.584 9        54.151                  
  23603183.769 8 124035568.457 8     -3716.017 8        49.706                  
  21721067.723 9 114145022.785 9      1756.987 9        54.077                  
  20530027.564 9 107885986.019 9     -1479.095 9        55.312                  
  25030377.218 7 131530998.011 7     -1925.967 7        44.194                  
  20416263.572 9 107288176.311 9       791.796 9        55.777                  
 02  5 18 00 03 51.0000000  0  8G01G23G10G16G21G27G07G08                        
  23642852.249 8 124244033.365 8      3376.060 8        48.496                  
  23102645.489 8 121405227.378 8     -2889.871 8        49.484                  
  21344097.293 9 112163982.111 9      -917.976 9        55.434                  
  23603890.953 8 124039285.989 8     -3715.312 8        49.669                  
  21720736.986 8 114143274.301 8      1739.994 8        51.115                  
  20530306.071 9 107887460.927 9     -1472.411 9        56.106                  
  25030751.003 7 131532937.262 7     -1947.032 7        42.385                  
  20416113.454 9 107287388.530 9       785.338 9        55.492                  
 02  5 18 00 03 52.0000000  0  8G01G23G10G16G21G27G07G08                        
  23642209.179 8 124240658.216 8      3369.994 8        49.183                  
  23103194.908 8 121408111.631 8     -2877.557 8        50.387                  
  21344272.856 9 112164898.594 9      -914.303 9        56.176                  
  23604600.657 8 124043010.419 8     -3734.099 8        50.102                  
  21720404.532 9 114141534.117 9      1737.620 9        54.538                  
  20530585.792 9 107888934.334 9     -1475.726 9        56.188                  
  25031120.230 7 131534886.358 7     -1947.484 7        43.552                  
  20415964.391 9 107286602.890 9       786.559 9        57.583                  
 02  5 18 00 03 53.0000000  0  8G01G23G10G16G21G27G07G08                        
  23641567.681 7 124237290.973 7      3359.556 7        47.906                  
  23103740.181 8 121410979.041 8     -2857.819 8        49.813                  
  21344447.222 9 112165810.738 9      -908.277 9        56.654                  
  23605314.113 8 124046759.290 8     -3760.221 8        50.336                  
  21720070.274 8 114139797.211 8      1736.119 8        52.028                  
  20530868.677 9 107890412.970 9     -1481.022 9        59.227                  
  25031493.193 7 131536832.909 7     -1943.471 7        45.621                  
  20415813.433 9 107285814.749 9       790.417 9        56.605                  
 02  5 18 00 03 54.0000000  0  8G01G23G10G16G21G27G07G08                        
  23640929.739 8 124233931.912 8      3357.095 8        48.154                  
  23104282.524 8 121413830.224 8     -2845.495 8        49.182                  
  21344617.103 9 112166718.421 9      -906.893 9        55.600                  
  23606030.715 8 124050530.989 8     -3777.851 8        49.440                  
  21719740.323 8 114138063.951 8      1732.639 8        53.250                  
  20531154.117 9 107891896.242 9     -1484.601 9        55.952                  
  25031859.740 7 131538777.970 7     -1946.000 7        43.701                  
  20415663.173 9 107285024.570 9       790.606 9        55.850                  
 02  5 18 00 03 55.0000000  0  8G01G23G10G16G21G27G07G08                        
  23640290.939 8 124230575.825 8      3356.042 8        48.852                  
  23104825.724 8 121416677.135 8     -2848.642 8        50.013                  
  21344788.842 9 112167624.926 9      -907.344 9        58.277                  
  23606749.514 8 124054308.362 8     -3775.781 8        48.712                  
  21719415.536 9 114136332.465 9      1730.162 9        54.100                  
  20531438.574 9 107893380.708 9     -1484.816 9        57.318                  
  25032233.238 7 131540723.891 7     -1946.604 7        44.386                  
  20415513.162 9 107284234.464 9       790.167 9        58.319                  
 02  5 18 00 03 56.0000000  0  8G01G23G10G16G21G27G07G08                        
  23639651.800 8 124227220.332 8      3354.406 8        48.380                  
  23105365.905 8 121419524.067 8     -2845.148 8        49.868                  
  21344960.742 9 112168531.763 9      -906.836 9        55.729                  
  23607469.028 7 124058086.011 7     -3777.010 7        47.726                  
  21719087.639 9 114134601.594 9      1729.670 9        54.293                  
  20531721.816 9 107894865.530 9     -1484.939 9        57.107                  
  25032602.233 7 131542670.587 7     -1947.259 7        45.334                  
  20415362.526 9 107283444.952 9       788.717 9        58.157                  
 02  5 18 00 03 57.0000000  0  8G01G23G10G16G21G27G07G08                        
  23639013.036 8 124223865.077 8      3357.257 8        48.399                  
  23105908.587 8 121422371.287 8     -2848.300 8        48.394                  
  21345134.912 9 112169439.137 9      -907.580 9        55.969                  
  23608188.703 8 124061863.860 8     -3780.439 8        50.102                  
  21718755.436 8 114132871.082 8      1730.368 8        53.014                  
  20532003.807 9 107896350.831 9     -1485.245 9        57.132                  
  25032972.873 7 131544617.743 7     -1948.438 7        45.010                  
  20415212.158 9 107282655.964 9       788.413 9        56.948                  
 02  5 18 00 03 58.0000000  0  8G01G23G10G16G21G27G07G08                        
  23638376.202 8 124220509.995 8      3352.340 8        48.165                  
  23106450.626 8 121425218.826 8     -2847.572 8        52.388                  
  21345309.367 9 112170347.082 9      -906.996 9        56.650                  
  23608907.395 8 124065641.888 8     -3775.754 8        51.594                  
  21718423.501 8 114131140.855 8      1730.361 8        51.545                  
  20532283.528 9 107897836.619 9     -1485.964 9        56.632                  
  25033344.459 7 131546565.248 7     -1948.107 7        45.573                  
  20415062.130 9 107281867.467 9       787.332 9        55.498                  
 02  5 18 00 03 59.0000000  0  8G01G23G10G16G21G27G07G08                        
  23637737.938 8 124217155.062 8      3355.099 8        50.657                  
  23106991.039 8 121428066.764 8     -2849.140 8        52.201                  
  21345483.054 9 112171255.599 9      -908.795 9        54.790                  
  23609625.337 8 124069420.097 8     -3778.952 8        50.951                  
  21718094.407 8 114129410.923 8      1729.930 8        51.317                  
  20532564.286 8 107899322.897 8     -1486.199 8        52.168                  
  25033714.133 7 131548513.133 7     -1946.411 7        44.043                  
  20414912.138 9 107281079.469 9       787.665 9        54.187                  
 02  5 18 00 04  0.0000000  0  8G01G23G10G16G21G27G07G08                        
  23637098.102 8 124213800.298 8      3353.941 8        49.563                  
  23107534.489 8 121430915.067 8     -2849.248 8        50.655                  
  21345655.276 8 112172164.701 8      -909.530 8        53.218                  
  23610344.404 8 124073198.481 8     -3778.316 8        51.830                  
  21717768.405 8 114127681.277 8      1730.475 8        51.713                  
  20532846.081 9 107900809.651 9     -1487.145 9        54.435                  
  25034086.988 7 131550461.360 7     -1947.495 7        45.199                  
  20414762.413 9 107280291.948 9       786.777 9        55.449                  
 02  5 18 00 04  1.0000000  0  8G01G23G10G16G21G27G07G08                        
  23636460.196 8 124210445.703 8      3354.894 8        51.276                  
  23108075.867 8 121433763.738 8     -2849.948 8        50.523                  
  21345826.246 9 112173074.388 9      -910.185 9        54.136                  
  23611063.775 8 124076977.073 8     -3780.574 8        50.371                  
  21717441.437 8 114125951.931 8      1729.578 8        52.560                  
  20533128.930 9 107902296.918 9     -1487.112 9        55.590                  
  25034456.431 7 131552409.951 7     -1951.854 7        44.509                  
  20414612.492 9 107279504.941 9       787.638 9        55.632                  
 02  5 18 00 04  2.0000000  0  8G01G23G10G16G21G27G07G08                        
  23635822.611 8 124207091.268 8      3358.088 8        49.426                  
  23108617.549 8 121436612.733 8     -2849.334 8        51.997                  
  21345998.861 9 112173984.634 9      -910.559 9        54.210                  
  23611783.897 8 124080755.838 8     -3777.817 8        50.940                  
  21717110.432 8 114124222.912 8      1728.664 8        53.820                  
  20533414.066 9 107903784.674 9     -1487.723 9        55.848                  
  25034827.945 7 131554358.910 7     -1947.203 7        46.226                  
  20414463.000 9 107278718.434 9       785.655 9        56.179                  
 02  5 18 00 04  3.0000000  0  8G01G23G10G16G21G27G07G08                        
  23635184.062 8 124203737.100 8      3355.552 8        48.562                  
  23109160.892 8 121439462.002 8     -2850.294 8        51.451                  
  21346171.958 9 112174895.417 9      -912.019 9        54.530                  
  23612502.178 8 124084534.812 8     -3782.519 8        50.572                  
  21716777.925 9 114122494.245 9      1728.027 9        55.032                  
  20533699.791 9 107905272.907 9     -1488.135 9        56.223                  
  25035196.065 7 131556308.334 7     -1949.312 7        46.234                  
  20414313.507 9 107277932.439 9       786.765 9        54.497                  
 02  5 18 00 04  4.0000000  0  8G01G23G10G16G21G27G07G08                        
  23634544.797 8 124200383.688 8      3353.592 8        48.122                  
  23109701.358 8 121442311.184 8     -2849.372 8        49.798                  
  21346347.700 8 112175806.424 8      -909.627 8        50.737                  
  23613220.531 8 124088314.043 8     -3780.068 8        49.007                  
  21716449.171 8 114120766.296 8      1726.530 8        53.908                  
  20533984.695 9 107906761.437 9     -1487.677 9        57.004                  
  25035571.154 7 131558258.717 7     -1952.472 7        46.050                  
  20414164.069 8 107277147.114 8       783.698 8        52.765                  
 02  5 18 00 04  5.0000000  0  8G01G23G10G16G21G27G07G08                        
  23633907.088 7 124197031.583 7      3348.948 7        45.792                  
  23110245.488 8 121445164.190 8     -2858.872 8        48.458                  
  21346521.923 9 112176717.436 9      -911.828 9        54.255                  
  23613938.043 8 124092084.733 8     -3763.119 8        49.079                  
  21716123.668 9 114119040.552 9      1724.267 9        54.274                  
  20534268.169 9 107908247.401 9     -1483.131 9        58.613                  
  25035938.988 7 131560214.735 7     -1960.850 7        45.881                  
  20414015.184 9 107276364.350 9       780.633 9        55.481                  
 02  5 18 00 04  6.0000000  0  8G01G23G10G16G21G27G07G08                        
  23633270.665 7 124193681.278 7      3347.035 7        47.304                  
  23110790.672 8 121448026.437 8     -2863.054 8        48.208                  
  21346695.878 9 112177628.382 9      -909.837 9        55.270                  
  23614653.358 8 124095835.246 8     -3747.844 8        49.659                  
  21715799.042 8 114117318.718 8      1719.284 8        53.193                  
  20534549.285 9 107909727.077 9     -1476.566 9        56.616                  
  25036318.579 7 131562182.235 7     -1972.813 7        46.057                  
  20413867.497 9 107275586.675 9       775.906 9        56.502                  
 02  5 18 00 04  7.0000000  0  8G01G23G10G16G21G27G07G08                        
  23632635.314 7 124190341.551 7      3331.447 7        47.226                  
  23111331.246 8 121450879.779 8     -2844.387 8        50.501                  
  21346866.241 9 112178533.654 9      -899.613 9        55.155                  
  23615367.923 8 124099590.175 8     -3765.167 8        50.218                  
  21715471.056 8 114115604.492 8      1710.068 8        53.287                  
  20534827.041 9 107911204.964 9     -1478.476 9        54.970                  
  25036690.988 7 131564159.355 7     -1984.695 7        46.339                  
  20413720.345 9 107274811.326 9       774.871 9        58.020                  
 02  5 18 00 04  8.0000000  0  8G01G23G10G16G21G27G07G08                        
  23632001.517 8 124187017.108 8      3321.525 8        48.468                  
  23111873.517 8 121453713.507 8     -2830.379 8        50.547                  
  21347035.479 9 112179430.257 9      -894.861 9        54.088                  
  23616085.185 8 124103364.693 8     -3779.143 8        49.366                  
  21715144.178 8 114113899.637 8      1701.933 8        53.859                  
  20535106.280 9 107912684.052 9     -1478.880 9        55.523                  
  25037070.561 7 131566144.256 7     -1986.248 7        46.242                  
  20413573.426 9 107274036.431 9       774.453 9        56.850                  
 02  5 18 00 04  9.0000000  0  8G01G23G10G16G21G27G07G08                        
  23631369.758 8 124183696.807 8      3322.641 8        49.213                  
  23112410.088 8 121456542.967 8     -2829.373 8        49.667                  
  21347204.984 9 112180325.006 9      -895.091 9        54.848                  
  23616803.520 8 124107143.195 8     -3777.631 8        50.541                  
  21714817.979 8 114112197.578 8      1702.045 8        52.171                  
  20535386.895 9 107914163.441 9     -1479.515 9        56.063                  
  25037446.293 7 131568132.003 7     -1989.086 7        46.832                  
  20413426.400 9 107273262.286 9       773.911 9        57.783                  
 02  5 18 00 04 10.0000000  0  8G01G23G10G16G21G27G07G08                        
  23630738.177 8 124180376.981 8      3318.755 8        49.392                  
  23112948.285 8 121459372.609 8     -2829.471 8        50.205                  
  21347376.259 9 112181220.149 9      -895.447 9        54.648                  
  23617522.730 8 124110921.801 8     -3778.695 8        51.100                  
  21714495.729 8 114110496.092 8      1701.117 8        53.930                  
  20535669.154 9 107915643.173 9     -1479.350 9        55.824                  
  25037827.868 7 131570120.508 7     -1987.286 7        46.045                  
  20413279.695 9 107272488.747 9       774.490 9        58.355                  
 02  5 18 00 04 11.0000000  0  8G01G23G10G16G21G27G07G08                        
  23630107.579 8 124177057.349 8      3319.966 8        48.945                  
  23113488.448 7 121462202.573 7     -2827.922 7        47.575                  
  21347548.606 9 112182115.853 9      -895.522 9        54.312                  
  23618243.245 8 124114700.566 8     -3776.342 8        49.144                  
  21714174.444 8 114108794.906 8      1700.526 8        52.435                  
  20535954.004 9 107917123.383 9     -1480.533 9        57.504                  
  25038203.386 7 131572109.416 7     -1988.691 7        45.331                  
  20413133.491 9 107271715.700 9       772.733 9        57.240                  
 02  5 18 00 04 12.0000000  0  8G01G23G10G16G21G27G07G08                        
  23629474.140 8 124173737.896 8      3316.760 8        48.956                  
  23114024.751 8 121465032.909 8     -2829.568 8        48.625                  
  21347720.023 9 112183012.115 9      -898.145 9        54.419                  
  23618962.777 8 124118479.503 8     -3779.928 8        49.625                  
  21713852.641 8 114107094.027 8      1699.779 8        53.667                  
  20536237.747 9 107918604.046 9     -1480.539 9        57.021                  
  25038584.747 7 131574098.687 7     -1988.787 7        47.550                  
  20412987.126 9 107270943.152 9       772.935 9        57.344                  
 02  5 18 00 04 13.0000000  0  8G01G23G10G16G21G27G07G08                        
  23628842.095 7 124170418.583 7      3319.696 7        47.764                  
  23114566.379 8 121467863.616 8     -2831.157 8        48.058                  
  21347891.244 9 112183908.962 9      -897.965 9        54.029                  
  23619680.272 8 124122258.612 8     -3780.074 8        49.734                  
  21713528.568 8 114105393.456 8      1700.517 8        52.983                  
  20536520.917 9 107920085.222 9     -1481.228 9        55.802                  
  25038961.229 8 131576088.316 8     -1988.477 8        48.963                  
  20412840.850 9 107270171.117 9       770.919 9        55.344                  
 02  5 18 00 04 14.0000000  0  8G01G23G10G16G21G27G07G08                        
  23628210.943 7 124167099.439 7      3319.403 7        47.042                  
  23115102.842 8 121470694.669 8     -2831.087 8        50.237                  
  21348060.178 8 112184806.393 8      -897.471 8        53.710                  
  23620399.232 8 124126037.916 8     -3776.151 8        49.138                  
  21713203.763 8 114103693.152 8      1699.400 8        53.942                  
  20536802.658 9 107921566.850 9     -1481.965 9        54.998                  
  25039340.499 7 131578078.304 7     -1987.055 7        46.103                  
  20412694.252 9 107269399.547 9       770.821 9        57.240                  
 02  5 18 00 04 15.0000000  0  8G01G23G10G16G21G27G07G08                        
  23627580.363 8 124163780.437 8      3316.164 8        49.214                  
  23115642.576 8 121473526.081 8     -2831.872 8        51.281                  
  21348229.416 9 112185704.397 9      -897.729 9        54.361                  
  23621118.710 8 124129817.402 8     -3780.900 8        50.830                  
  21712876.510 9 114101993.136 9      1699.799 9        54.554                  
  20537081.432 9 107923049.003 9     -1482.130 9        54.680                  
  25039718.661 7 131580068.650 7     -1992.465 7        45.001                  
  20412547.137 9 107268628.451 9       770.809 9        58.558                  
 02  5 18 00 04 16.0000000  0  8G01G23G10G16G21G27G07G08                        
  23626949.051 8 124160461.589 8      3319.706 8        49.336                  
  23116181.953 8 121476357.866 8     -2833.908 8        48.997                  
  21348399.940 8 112186602.976 8      -899.120 8        52.850                  
  23621838.600 8 124133597.084 8     -3778.911 8        50.112                  
  21712552.634 8 114100293.388 8      1699.604 8        52.803                  
  20537361.440 9 107924531.620 9     -1481.396 9        54.882                  
  25040097.377 7 131582059.334 7     -1990.255 7        43.552                  
  20412400.557 9 107267857.883 9       771.619 9        55.497                  
 02  5 18 00 04 17.0000000  0  8G01G23G10G16G21G27G07G08                        
  23626316.684 8 124157142.916 8      3316.495 8        48.276                  
  23116719.256 8 121479190.025 8     -2830.029 8        51.133                  
  21348571.036 8 112187502.133 8      -900.159 8        53.849                  
  23622558.239 8 124137376.914 8     -3778.470 8        48.856                  
  21712231.920 8 114098593.939 8      1698.496 8        53.155                  
  20537642.216 9 107926014.740 9     -1483.893 9        55.551                  
  25040477.541 7 131584050.384 7     -1990.734 7        44.559                  
  20412253.334 9 107267087.781 9       770.271 9        56.890                  
 02  5 18 00 04 18.0000000  0  8G01G23G10G16G21G27G07G08                        
  23625684.478 7 124153824.409 7      3321.817 7        46.876                  
  23117259.937 8 121482022.515 8     -2828.675 8        48.959                  
  21348744.848 8 112188401.877 8      -899.541 8        52.540                  
  23623276.859 8 124141156.956 8     -3777.724 8        50.129                  
  21711911.725 8 114096894.775 8      1699.087 8        52.926                  
  20537924.386 9 107927498.336 9     -1484.615 9        56.341                  
  25040855.149 7 131586041.776 7     -1990.844 7        45.605                  
  20412106.111 9 107266318.153 9       770.334 9        57.082                  
 02  5 18 00 04 19.0000000  0  8G01G23G10G16G21G27G07G08                        
  23625053.666 8 124150506.103 8      3316.728 8        48.806                  
  23117797.384 8 121484855.374 8     -2833.680 8        48.845                  
  21348916.658 9 112189302.169 9      -899.908 9        54.092                  
  23623995.998 8 124144937.144 8     -3778.372 8        50.119                  
  21711588.242 8 114095195.948 8      1697.988 8        52.291                  
  20538209.486 9 107928982.419 9     -1484.143 9        57.026                  
  25041236.063 7 131588033.572 7     -1992.083 7        47.023                  
  20411959.264 9 107265549.028 9       767.702 9        57.068                  
 02  5 18 00 04 20.0000000  0  8G01G23G10G16G21G27G07G08                        
  23624423.318 8 124147188.195 8      3316.895 8        48.979                  
  23118338.065 8 121487688.442 8     -2833.119 8        48.826                  
  21349088.790 9 112190202.891 9      -900.611 9        56.173                  
  23624715.244 8 124148717.440 8     -3780.079 8        49.468                  
  21711263.008 9 114093497.623 9      1698.245 9        54.505                  
  20538494.372 9 107930466.875 9     -1485.337 9        55.606                  
  25041612.938 7 131590026.050 7     -1994.249 7        46.491                  
  20411812.094 9 107264780.485 9       767.971 9        56.262                  
 02  5 18 00 04 21.0000000  0  8G01G23G10G16G21G27G07G08                        
  23623791.648 7 124143871.858 7      3315.728 7        47.318                  
  23118877.137 8 121490521.106 8     -2833.270 8        49.082                  
  21349258.778 9 112191103.385 9      -899.355 9        54.470                  
  23625435.187 8 124152497.493 8     -3779.770 8        49.249                  
  21710937.345 9 114091800.668 9      1696.315 9        54.311                  
  20538778.132 9 107931951.181 9     -1483.646 9        55.453                  
  25041995.479 7 131592020.569 7     -1999.221 7        47.845                  
  20411665.390 9 107264012.897 9       766.236 9        56.286                  
 02  5 18 00 04 22.0000000  0  8G01G23G10G16G21G27G07G08                        
  23623161.229 8 124140561.449 8      3307.443 8        48.039                  
  23119414.316 8 121493351.228 8     -2828.408 8        49.863                  
  21349427.462 9 112192001.043 9      -896.260 9        54.584                  
  23626154.415 8 124156275.483 8     -3777.458 8        49.119                  
  21710614.577 9 114090108.575 9      1689.749 9        55.043                  
  20539060.945 9 107933433.312 9     -1480.362 9        56.371                  
  25042372.175 7 131594022.722 7     -2006.988 7        46.220                  
  20411518.703 9 107263247.727 9       763.923 9        56.075                  
 02  5 18 00 04 23.0000000  0  8G01G23G10G16G21G27G07G08                        
  23622532.079 8 124137255.763 8      3306.352 8        49.065                  
  23119955.086 8 121496179.610 8     -2825.079 8        49.610                  
  21349597.861 9 112192896.604 9      -896.185 9        54.462                  
  23626872.160 8 124160051.463 8     -3774.387 8        51.131                  
  21710294.597 8 114088420.487 8      1687.358 8        53.606                  
  20539341.221 9 107934913.664 9     -1479.904 9        57.864                  
  25042758.146 7 131596031.168 7     -2008.736 7        46.643                  
  20411373.338 9 107262484.692 9       763.072 9        57.056                  
 02  5 18 00 04 24.0000000  0  8G01G23G10G16G21G27G07G08                        
  23621903.947 8 124133951.127 8      3304.574 8        50.068                  
  23120490.960 8 121499007.984 8     -2830.008 8        49.208                  
  21349767.545 9 112193792.236 9      -896.083 9        55.387                  
  23627590.120 8 124163827.144 8     -3777.344 8        48.529                  
  21709975.760 8 114086733.389 8      1686.376 8        53.284                  
  20539619.799 9 107936394.054 9     -1479.959 9        56.345                  
  25043137.238 7 131598041.152 7     -2010.555 7        45.780                  
  20411227.384 9 107261722.456 9       762.461 9        55.251                  
 02  5 18 00 04 25.0000000  0  8G01G23G10G16G21G27G07G08                        
  23621275.457 8 124130646.798 8      3304.893 8        50.351                  
  23121030.909 8 121501836.652 8     -2827.621 8        49.243                  
  21349940.696 9 112194688.356 9      -896.232 9        54.688                  
  23628309.473 8 124167602.897 8     -3776.914 8        49.063                  
  21709656.941 8 114085046.706 8      1686.320 8        51.364                  
  20539899.770 9 107937874.825 9     -1480.958 9        54.349                  
  25043521.850 7 131600051.701 7     -2011.751 7        45.776                  
  20411081.359 9 107260960.768 9       761.447 9        54.692                  
 02  5 18 00 04 26.0000000  0  8G01G23G10G16G21G27G07G08                        
  23620646.611 7 124127342.676 7      3305.790 7        47.733                  
  23121568.391 8 121504665.682 8     -2829.883 8        48.192                  
  21350112.060 9 112195585.023 9      -896.734 9        56.529                  
  23629028.773 8 124171378.812 8     -3775.455 8        50.884                  
  21709336.227 8 114083360.327 8      1685.812 8        52.033                  
  20540180.743 9 107939356.083 9     -1482.284 9        55.559                  
  25043903.783 7 131602062.639 7     -2011.655 7        45.877                  
  20410935.672 9 107260199.568 9       761.577 9        55.220                  
 02  5 18 00 04 27.0000000  0  8G01G23G10G16G21G27G07G08                        
  23620017.121 8 124124038.720 8      3301.103 8        49.275                  
  23122106.284 7 121507495.068 7     -2831.381 7        47.977                  
  21350283.763 9 112196482.277 9      -898.184 9        55.558                  
  23629747.125 8 124175154.913 8     -3778.209 8        50.506                  
  21709013.227 8 114081674.229 8      1686.607 8        53.554                  
  20540463.931 9 107940837.807 9     -1481.599 9        55.202                  
  25044289.236 7 131604073.925 7     -2009.844 7        44.289                  
  20410790.040 9 107259438.846 9       760.190 9        55.816                  
 02  5 18 00 04 28.0000000  0  8G01G23G10G16G21G27G07G08                        
  23619388.399 8 124120734.904 8      3303.644 8        49.636                  
  23122645.768 8 121510324.807 8     -2829.699 8        49.709                  
  21350453.430 8 112197380.112 8      -897.411 8        51.888                  
  23630464.245 8 124178931.200 8     -3776.278 8        51.699                  
  21708689.726 8 114079988.469 8      1685.497 8        53.287                  
  20540749.121 9 107942320.031 9     -1482.743 9        55.084                  
  25044669.149 7 131606085.583 7     -2011.411 7        43.388                  
  20410644.818 9 107258678.613 9       759.757 9        56.656                  
 02  5 18 00 04 29.0000000  0  8G01G23G10G16G21G27G07G08                        
  23618760.089 8 124117431.231 8      3305.144 8        48.087                  
  23123182.393 8 121513154.919 8     -2830.472 8        51.020                  
  21350622.560 8 112198278.534 8      -899.459 8        51.238                  
  23631183.920 8 124182707.656 8     -3777.835 8        48.121                  
  21708367.816 9 114078302.956 9      1685.003 9        54.158                  
  20541033.131 9 107943802.733 9     -1482.570 9        55.922                  
  25045049.187 7 131608097.573 7     -2015.105 7        44.362                  
  20410499.490 9 107257918.880 9       760.701 9        58.577                  
 02  5 18 00 04 30.0000000  0  8G01G23G10G16G21G27G07G08                        
  23618132.243 8 124114127.743 8      3301.183 8        48.753                  
  23123723.413 8 121515985.379 8     -2832.046 8        50.155                  
  21350793.013 8 112199177.551 8      -899.818 8        53.012                  
  23631902.344 8 124186484.301 8     -3778.226 8        48.812                  
  21708048.353 9 114076617.730 9      1685.253 9        55.025                  
  20541316.373 9 107945285.911 9     -1483.371 9        56.784                  
  25045436.409 7 131610109.913 7     -2013.671 7        46.165                  
  20410353.928 9 107257159.613 9       758.328 9        59.094                  
 02  5 18 00 04 31.0000000  0  8G01G23G10G16G21G27G07G08                        
  23617503.753 8 124110824.392 8      3303.476 8        49.029                  
  23124260.967 8 121518816.207 8     -2831.778 8        50.820                  
  21350963.859 8 112200077.116 8      -899.840 8        53.564                  
  23632621.894 8 124190261.112 8     -3776.993 8        49.285                  
  21707730.356 8 114074932.774 8      1685.414 8        53.959                  
  20541598.364 9 107946769.590 9     -1483.742 9        58.167                  
  25045817.073 7 131612122.615 7     -2016.764 7        44.600                  
  20410208.421 9 107256400.846 9       758.955 9        58.933                  
 02  5 18 00 04 32.0000000  0  8G01G23G10G16G21G27G07G08                        
  23616873.978 8 124107521.199 8      3301.623 8        48.319                  
  23124799.307 8 121521647.390 8     -2830.686 8        50.565                  
  21351136.991 8 112200977.253 8      -900.531 8        51.868                  
  23633340.336 8 124194038.115 8     -3775.821 8        50.667                  
  21707411.698 8 114073248.125 8      1684.413 8        52.798                  
  20541877.889 9 107948253.734 9     -1484.646 9        56.844                  
  25046202.329 7 131614135.657 7     -2013.192 7        45.010                  
  20410063.307 9 107255642.556 9       758.082 9        58.621                  
 02  5 18 00 04 33.0000000  0  8G01G23G10G16G21G27G07G08                        
  23616245.095 8 124104218.160 8      3301.112 8        49.550                  
  23125339.398 8 121524478.918 8     -2833.287 8        50.490                  
  21351309.696 8 112201877.999 8      -902.261 8        49.770                  
  23634058.081 8 124197815.290 8     -3778.029 8        50.608                  
  21707091.664 9 114071563.732 9      1684.196 9        55.569                  
  20542158.183 9 107949738.378 9     -1484.441 9        58.517                  
  25046582.224 7 131616149.051 7     -2014.419 7        45.376                  
  20409919.390 9 107254884.754 9       758.262 9        59.331                  
 02  5 18 00 04 34.0000000  0  8G01G23G10G16G21G27G07G08                        
  23615616.659 8 124100915.277 8      3300.297 8        50.112                  
  23125876.237 8 121527310.832 8     -2830.667 8        50.686                  
  21351481.953 8 112202779.329 8      -901.663 8        50.042                  
  23634776.970 8 124201592.624 8     -3778.077 8        50.016                  
  21706769.074 9 114069879.661 9      1683.458 9        54.175                  
  20542439.405 9 107951223.522 9     -1484.235 9        58.105                  
  25046968.910 7 131618162.788 7     -2016.105 7        45.560                  
  20409776.545 9 107254127.466 9       756.490 9        57.938                  
 02  5 18 00 04 35.0000000  0  8G01G23G10G16G21G27G07G08                        
  23614989.564 8 124097612.532 8      3303.536 8        50.345                  
  23126417.365 8 121530143.100 8     -2831.793 8        51.377                  
  21351652.691 8 112203681.241 8      -901.560 8        51.926                  
  23635497.038 8 124205370.163 8     -3775.736 8        49.670                  
  21706445.949 8 114068195.855 8      1684.467 8        53.979                  
  20542721.861 9 107952709.111 9     -1487.493 9        55.177                  
  25047350.324 7 131620176.869 7     -2012.204 7        44.684                  
  20409633.753 9 107253370.617 9       758.012 9        55.642                  
 02  5 18 00 04 36.0000000  0  8G01G23G10G16G21G27G07G08                        
  23614361.164 8 124094309.970 8      3305.529 8        49.511                  
  23126954.686 8 121532975.717 8     -2832.195 8        49.457                  
  21351822.233 8 112204583.704 8      -902.835 8        52.486                  
  23636217.213 8 124209147.875 8     -3779.568 8        49.467                  
  21706124.360 8 114066512.358 8      1683.477 8        53.499                  
  20543007.104 9 107954195.196 9     -1485.060 9        55.524                  
  25047736.099 7 131622191.310 7     -2015.183 7        43.223                  
  20409491.891 9 107252614.269 9       756.448 9        55.633                  
 02  5 18 00 04 37.0000000  0  8G01G23G10G16G21G27G07G08                        
  23613731.621 8 124091007.565 8      3301.216 8        50.099                  
  23127494.492 8 121535808.702 8     -2830.825 8        51.475                  
  21351993.311 9 112205486.762 9      -903.596 9        54.655                  
  23636934.189 8 124212925.779 8     -3777.985 8        49.148                  
  21705804.433 9 114064829.123 9      1683.177 9        54.360                  
  20543292.419 9 107955681.783 9     -1486.807 9        57.405                  
  25048119.657 7 131624206.088 7     -2015.005 7        42.986                  
  20409348.617 9 107251858.411 9       755.228 9        57.139                  
 02  5 18 00 04 38.0000000  0  8G01G23G10G16G21G27G07G08                        
  23613102.899 8 124087705.312 8      3301.549 8        48.549                  
  23128033.654 8 121538642.053 8     -2833.349 8        48.556                  
  21352165.318 9 112206390.417 9      -904.527 9        55.159                  
  23637652.256 8 124216703.856 8     -3776.289 8        51.756                  
  21705486.739 8 114063146.171 8      1684.517 8        53.047                  
  20543577.019 9 107957168.872 9     -1487.550 9        56.822                  
  25048505.181 7 131626221.238 7     -2016.024 7        44.325                  
  20409205.951 9 107251103.067 9       755.283 9        57.475                  
 02  5 18 00 04 39.0000000  0  8G01G23G10G16G21G27G07G08                        
  23612475.285 8 124084403.215 8      3303.475 8        49.608                  
  23128572.065 8 121541475.771 8     -2833.935 8        49.307                  
  21352339.648 9 112207294.630 9      -905.590 9        54.935                  
  23638371.538 8 124220482.100 8     -3775.511 8        50.081                  
  21705169.135 8 114061463.512 8      1681.332 8        52.021                  
  20543860.564 9 107958656.426 9     -1488.587 9        56.899                  
  25048885.649 7 131628236.701 7     -2017.673 7        43.979                  
  20409063.392 9 107250348.208 9       755.199 9        56.574                  
 02  5 18 00 04 40.0000000  0  8G01G23G10G16G21G27G07G08                        
  23611847.135 8 124081101.262 8      3298.674 8        48.922                  
  23129113.389 8 121544309.836 8     -2835.523 8        50.469                  
  21352512.227 8 112208199.418 8      -904.769 8        53.979                  
  23639091.928 8 124224260.523 8     -3778.337 8        49.634                  
  21704849.977 8 114059781.135 8      1682.221 8        53.415                  
  20544143.306 9 107960144.444 9     -1488.623 9        57.864                  
  25049268.153 7 131630252.535 7     -2016.277 7        45.103                  
  20408920.869 9 107249593.804 9       754.287 9        57.144                  
 02  5 18 00 04 41.0000000  0  8G01G23G10G16G21G27G07G08                        
  23611219.522 8 124077799.496 8      3300.683 8        48.067                  
  23129651.283 8 121547144.257 8     -2835.462 8        49.689                  
  21352685.825 9 112209104.811 9      -905.183 9        54.095                  
  23639810.798 8 124228039.107 8     -3775.160 8        50.299                  
  21704528.459 8 114058099.042 8      1682.572 8        52.541                  
  20544423.367 9 107961632.962 9     -1488.205 9        57.273                  
  25049656.983 7 131632268.732 7     -2016.586 7        43.820                  
  20408778.542 9 107248839.913 9       753.894 9        57.558                  
 02  5 18 00 04 42.0000000  0  8G01G23G10G16G21G27G07G08                        
  23610590.586 8 124074497.952 8      3300.472 8        48.387                  
  23130191.177 8 121549979.039 8     -2833.579 8        49.136                  
  21352856.224 8 112210010.754 8      -904.958 8        53.481                  
  23640529.330 8 124231817.839 8     -3777.107 8        48.580                  
  21704206.263 8 114056417.275 8      1681.813 8        53.552                  
  20544704.751 9 107963121.934 9     -1489.837 9        56.939                  
  25050034.877 7 131634285.356 7     -2014.362 7        44.730                  
  20408637.162 9 107248086.511 9       752.856 9        58.486                  
 02  5 18 00 04 43.0000000  0  8G01G23G10G16G21G27G07G08                        
  23609961.239 8 124071196.890 8      3297.286 8        49.524                  
  23130731.590 8 121552814.016 8     -2835.667 8        49.303                  
  21353026.891 9 112210917.055 9      -906.190 9        55.218                  
  23641247.879 8 124235596.572 8     -3775.060 8        49.166                  
  21703884.317 8 114054736.101 8      1680.016 8        52.956                  
  20544986.974 9 107964611.191 9     -1489.236 9        56.155                  
  25050421.366 7 131636302.825 7     -2014.915 7        44.491                  
  20408494.728 9 107247333.728 9       752.149 9        57.898                  
 02  5 18 00 04 44.0000000  0  8G01G23G10G16G21G27G07G08                        
  23609332.517 8 124067892.890 8      3309.678 8        48.348                  
  23131270.198 8 121555654.782 8     -2849.240 8        49.426                  
  21353199.309 9 112211825.936 9      -913.886 9        55.736                  
  23641965.124 8 124239368.812 8     -3763.736 8        48.580                  
  21703563.711 8 114053053.660 8      1684.886 8        53.076                  
  20545270.145 9 107966099.960 9     -1488.204 9        54.986                  
  25050804.710 7 131638320.261 7     -2017.163 7        46.579                  
  20408351.722 9 107246581.971 9       751.103 9        55.395                  
 02  5 18 00 04 45.0000000  0  8G01G23G10G16G21G27G07G08                        
  23608702.134 8 124064576.089 8      3320.054 8        48.625                  
  23131816.490 8 121558515.581 8     -2866.409 8        50.941                  
  21353374.640 8 112212743.569 8      -920.569 8        52.853                  
  23642679.688 8 124243119.508 8     -3739.964 8        49.555                  
  21703243.319 8 114051364.362 8      1692.105 8        52.395                  
  20545555.316 9 107967587.001 9     -1486.234 9        56.691                  
  25051187.447 7 131640333.870 7     -2007.415 7        46.132                  
  20408207.823 9 107245831.680 9       749.188 9        54.813                  
 02  5 18 00 04 46.0000000  0  8G01G23G10G16G21G27G07G08                        
  23608072.090 8 124061260.968 8      3308.402 8        48.132                  
  23132361.031 8 121561380.182 8     -2855.340 8        50.680                  
  21353551.793 8 112213661.089 8      -912.330 8        52.426                  
  23643392.215 8 124246861.295 8     -3747.242 8        49.818                  
  21702925.501 8 114049677.570 8      1680.886 8        52.969                  
  20545840.238 9 107969071.165 9     -1481.721 9        56.346                  
  25051572.578 7 131642353.573 7     -2027.322 7        47.311                  
  20408064.496 9 107245084.060 9       745.620 9        55.693                  
 02  5 18 00 04 47.0000000  0  8G01G23G10G16G21G27G07G08                        
  23607445.263 8 124057969.335 8      3282.757 8        48.107                  
  23132901.176 8 121564224.377 8     -2837.160 8        49.878                  
  21353724.408 9 112214565.139 9      -897.666 9        54.776                  
  23644105.279 8 124250612.621 8     -3754.462 8        50.059                  
  21702608.683 8 114048007.411 8      1662.849 8        51.873                  
  20546123.587 9 107970550.590 9     -1477.536 9        55.653                  
  25051959.496 7 131644394.588 7     -2049.712 7        45.263                  
  20407920.579 9 107244341.029 9       740.936 9        56.612                  
 02  5 18 00 04 48.0000000  0  8G01G23G10G16G21G27G07G08                        
  23606819.418 8 124054690.099 8      3277.562 8        49.413                  
  23133442.160 8 121567058.201 8     -2830.876 8        49.578                  
  21353894.968 9 112215462.422 9      -898.402 9        54.310                  
  23644819.807 8 124254368.718 8     -3752.720 8        48.829                  
  21702292.562 8 114046346.114 8      1660.546 8        53.419                  
  20546405.131 9 107972027.666 9     -1477.662 9        57.828                  
  25052352.454 7 131646447.055 7     -2050.391 7        46.217                  
  20407779.217 9 107243600.690 9       739.688 9        57.370                  
 02  5 18 00 04 49.0000000  0  8G01G23G10G16G21G27G07G08                        
  23606196.557 8 124051411.352 8      3279.420 8        50.037                  
  23133979.750 8 121569892.398 8     -2833.710 8        50.305                  
  21354063.241 8 112216360.080 8      -896.629 8        52.139                  
  23645535.604 7 124258124.522 7     -3757.488 7        47.460                  
  21701974.994 8 114044685.425 8      1659.314 8        51.255                  
  20546684.728 9 107973504.979 9     -1477.171 9        56.165                  
  25052740.140 7 131648500.458 7     -2053.786 7        47.065                  
  20407636.497 9 107242861.019 9       740.506 9        55.858                  
 02  5 18 00 04 50.0000000  0  8G01G23G10G16G21G27G07G08                        
  23605573.036 8 124048132.811 8      3277.632 8        49.945                  
  23134520.181 8 121572726.982 8     -2833.149 8        52.147                  
  21354233.872 8 112217258.322 8      -898.281 8        52.604                  
  23646250.473 8 124261880.375 8     -3753.874 8        49.985                  
  21701656.782 8 114043025.040 8      1660.241 8        53.723                  
  20546962.663 9 107974982.698 9     -1477.382 9        55.910                  
  25053132.508 7 131650554.291 7     -2052.610 7        47.446                  
  20407494.474 9 107242121.826 9       738.758 9        58.077                  
 02  5 18 00 04 51.0000000  0  8G01G23G10G16G21G27G07G08                        
  23604949.550 8 124044854.450 8      3278.947 8        49.563                  
  23135058.646 8 121575561.922 8     -2836.496 8        51.308                  
  21354404.271 8 112218157.136 8      -899.813 8        53.880                  
  23646963.840 8 124265636.384 8     -3753.542 8        49.140                  
  21701338.660 8 114041364.965 8      1659.439 8        51.304                  
  20547242.474 9 107976460.881 9     -1478.223 9        54.762                  
  25053523.768 7 131652608.483 7     -2053.880 7        46.179                  
  20407352.915 9 107241383.109 9       738.390 9        56.659                  
 02  5 18 00 04 52.0000000  0  8G01G23G10G16G21G27G07G08                        
  23604326.725 8 124041576.238 8      3278.080 8        48.463                  
  23135598.397 8 121578397.234 8     -2834.228 8        48.563                  
  21354576.421 8 112219056.522 8      -899.572 8        53.196                  
  23647678.654 8 124269392.565 8     -3758.943 8        49.511                  
  21701023.147 8 114039705.180 8      1660.115 8        52.286                  
  20547522.964 9 107977939.541 9     -1478.822 9        55.190                  
  25053912.920 7 131654663.023 7     -2055.123 7        44.628                  
  20407210.106 9 107240644.895 9       737.225 9        57.585                  
 02  5 18 00 04 53.0000000  0  8G01G23G10G16G21G27G07G08                        
  23603702.488 7 124038298.184 7      3277.391 7        47.443                  
  23136139.453 8 121581232.924 8     -2834.363 8        49.804                  
  21354749.429 9 112219956.482 9      -900.883 9        55.084                  
  23648394.112 8 124273148.909 8     -3756.747 8        50.379                  
  21700708.062 8 114038045.654 8      1658.921 8        52.939                  
  20547806.349 9 107979418.679 9     -1479.075 9        56.642                  
  25054306.646 7 131656717.913 7     -2055.630 7        45.026                  
  20407068.869 9 107239907.145 9       736.505 9        56.389                  
 02  5 18 00 04 54.0000000  0  8G01G23G10G16G21G27G07G08                        
  23603077.019 8 124035020.301 8      3278.762 8        48.095                  
  23136677.097 8 121584068.964 8     -2837.009 8        51.046                  
  21354921.543 8 112220857.025 8      -901.193 8        53.372                  
  23649109.570 8 124276905.427 8     -3757.182 8        49.502                  
  21700393.907 8 114036386.406 8      1658.263 8        51.004                  
  20548090.788 9 107980898.269 9     -1479.475 9        56.329                  
  25054694.689 7 131658773.117 7     -2054.825 7        45.199                  
  20406930.313 9 107239169.893 9       737.038 9        55.800                  
 02  5 18 00 04 55.0000000  0  8G01G23G10G16G21G27G07G08                        
  23602453.086 7 124031742.593 7      3278.015 7        47.495                  
  23137218.832 8 121586905.363 8     -2836.315 8        50.815                  
  21355093.193 8 112221758.186 8      -901.231 8        53.905                  
  23649824.527 8 124280662.136 8     -3757.140 8        49.725                  
  21700080.073 9 114034727.466 9      1658.736 9        54.693                  
  20548374.083 9 107982378.335 9     -1480.535 9        56.216                  
  25055086.843 7 131660828.680 7     -2056.855 7        45.021                  
  20406793.007 9 107238433.109 9       737.256 9        59.387                  
 02  5 18 00 04 56.0000000  0  8G01G23G10G16G21G27G07G08                        
  23601829.743 8 124028465.019 8      3275.122 8        49.137                  
  23137757.994 8 121589742.132 8     -2838.154 8        49.642                  
  21355262.484 8 112222659.945 8      -900.801 8        53.490                  
  23650538.377 7 124284419.000 7     -3755.258 7        47.512                  
  21699765.990 8 114033068.787 8      1660.136 8        52.681                  
  20548656.682 9 107983858.868 9     -1480.827 9        55.357                  
  25055479.836 7 131662884.573 7     -2055.999 7        45.146                  
  20406654.201 9 107237696.791 9       735.349 9        58.104                  
 02  5 18 00 04 57.0000000  0  8G01G23G10G16G21G27G07G08                        
  23601207.508 8 124025187.619 8      3279.148 8        48.046                  
  23138297.156 8 121592579.264 8     -2834.839 8        49.584                  
  21355433.330 8 112223562.253 8      -902.619 8        53.353                  
  23651253.406 8 124288176.036 8     -3755.013 8        48.578                  
  21699450.816 8 114031410.430 8      1658.993 8        52.029                  
  20548937.511 9 107985339.864 9     -1481.182 9        58.206                  
  25055867.987 7 131664940.823 7     -2051.739 7        44.497                  
  20406516.574 9 107236960.958 9       735.720 9        56.581                  
 02  5 18 00 04 58.0000000  0  8G01G23G10G16G21G27G07G08                        
  23600584.344 7 124021910.376 7      3275.690 7        46.781                  
  23138838.641 8 121595416.766 8     -2835.466 8        49.230                  
  21355604.390 8 112224465.156 8      -903.931 8        53.548                  
  23651969.203 8 124291933.243 8     -3758.547 8        49.245                  
  21699134.302 8 114029752.325 8      1658.429 8        53.969                  
  20549216.107 9 107986821.361 9     -1481.774 9        56.700                  
  25056263.054 7 131666997.408 7     -2050.480 7        45.444                  
  20406377.856 9 107236225.592 9       735.371 9        57.200                  
 02  5 18 00 04 59.0000000  0  8G01G23G10G16G21G27G07G08                        
  23599960.411 8 124018633.292 8      3274.682 8        48.200                  
  23139376.820 8 121598254.606 8     -2840.266 8        49.599                  
  21355777.934 8 112225368.643 8      -903.902 8        53.273                  
  23652684.089 8 124295690.656 8     -3753.992 8        48.196                  
  21698817.073 8 114028094.505 8      1656.525 8        52.846                  
  20549496.115 9 107988303.346 9     -1482.055 9        56.486                  
  25056652.527 7 131669054.315 7     -2058.345 7        46.804                  
  20406240.533 9 107235490.703 9       735.091 9        56.924                  
