     2.11           OBSERVATION DATA    G                   RINEX VERSION / TYPE
BLANK OR G = GPS,  R = GLONASS,  E = GALILEO,  M = MIXED    COMMENT             
GNSS-SDR            joel                15-NOV-24 17:23     PGM / RUN BY / DATE 
GPS OBSERVATION DATA FILE GENERATED BY GNSS-SDR             COMMENT             
GNSS-SDR VERSION 0.0.16                                     COMMENT             
See https://gnss-sdr.org                                    COMMENT             
DEFAULT MARKER NAME                                         MARKER NAME         
joel                CTTC                                    OBSERVER / AGENCY   
GNSS-SDR            Software Receiver   0.0.16              REC # / TYPE / VERS 
Antenna number      Antenna type                            ANT # / TYPE        
        0.0000        0.0000        0.0000                  APPROX POSITION XYZ 
        0.0000        0.0000        0.0000                  ANTENNA: DELTA H/E/N
     1     1                                                WAVELENGTH FACT L1/2
     4    C1    L1    D1    S1                              # / TYPES OF OBSERV 
  2002    05    18    00    02   17.7000000     GPS         TIME OF FIRST OBS   
    18                                                      LEAP SECONDS        
                                                            END OF HEADER       
 02  5 18 00 02 18.0000000  0  5G15G13G10G12G05                                 
  21306616.928 8 111967033.391 8     -1831.309 8        53.176                  
  23694272.578 7 124514237.928 7     -2848.518 7        47.845                  
  24217929.318 8 127266068.671 8      2896.381 8        48.267                  
  25174014.197 7 132290340.352 7      2716.310 7        47.382                  
  23367959.524 8 122799458.699 8     -2475.262 8        49.150                  
 02  5 18 00 02 19.0000000  0  5G15G13G10G12G05                                 
  21306967.233 8 111968865.029 8     -1831.318 8        52.754                  
  23694814.689 8 124517084.444 8     -2844.533 8        48.938                  
  24217376.611 8 127263170.788 8      2898.491 8        48.071                  
  25173496.460 7 132287622.904 7      2717.125 7        46.728                  
  23368430.641 8 122801932.447 8     -2472.605 8        48.037                  
 02  5 18 00 02 20.0000000  0  5G15G13G10G12G05                                 
  21307309.746 9 111970696.837 9     -1832.802 9        55.425                  
  23695356.495 8 124519930.922 8     -2848.457 8        50.310                  
  24216825.816 8 127260272.806 8      2898.995 8        48.232                  
  25172981.796 7 132284905.268 7      2716.520 7        46.780                  
  23368901.043 7 122804406.436 7     -2474.057 7        47.546                  
 02  5 18 00 02 21.0000000  0  5G15G13G10G12G05                                 
  21307661.641 9 111972528.780 9     -1832.919 9        54.473                  
  23695896.122 8 124522777.401 8     -2846.254 8        48.485                  
  24216275.289 8 127257374.800 8      2897.626 8        49.489                  
  25172460.485 7 132282187.439 7      2716.687 7        46.586                  
  23369371.677 8 122806880.682 8     -2473.840 8        50.288                  
 02  5 18 00 02 22.0000000  0  5G15G13G10G12G05                                 
  21308012.981 8 111974360.876 8     -1833.661 8        53.788                  
  23696439.430 8 124525623.872 8     -2845.812 8        49.758                  
  24215721.778 7 127254476.714 7      2896.289 7        47.563                  
  25171947.751 7 132279469.421 7      2716.024 7        44.899                  
  23369841.597 8 122809355.167 8     -2473.996 8        49.989                  
 02  5 18 00 02 23.0000000  0  5G15G13G10G12G05                                 
  21308356.460 8 111976193.146 8     -1832.527 8        53.803                  
  23696978.967 8 124528470.238 8     -2844.339 8        51.172                  
  24215171.556 8 127251578.575 8      2899.977 8        48.875                  
  25171426.369 7 132276751.208 7      2721.445 7        44.797                  
  23370313.267 8 122811829.907 8     -2475.742 8        50.776                  
 02  5 18 00 02 24.0000000  0  5G15G13G10G12G05                                 
  21308707.193 9 111978025.559 9     -1831.526 9        54.280                  
  23697522.954 8 124531316.599 8     -2844.008 8        48.671                  
  24214619.742 8 127248680.359 8      2900.048 8        50.061                  
  25170912.778 7 132274032.809 7      2716.133 7        46.243                  
  23370783.920 8 122814304.894 8     -2474.129 8        50.044                  
 02  5 18 00 02 25.0000000  0  5G15G13G10G12G05                                 
  21309058.623 8 111979858.128 8     -1831.692 8        53.218                  
  23698063.206 8 124534162.955 8     -2845.989 8        48.838                  
  24214067.286 8 127245782.108 8      2897.968 8        49.538                  
  25170391.699 7 132271314.215 7      2719.697 7        46.183                  
  23371255.519 8 122816780.119 8     -2474.485 8        50.099                  
 02  5 18 00 02 26.0000000  0  5G15G13G10G12G05                                 
  21309402.512 9 111981690.852 9     -1833.322 9        55.371                  
  23698605.674 8 124537009.274 8     -2847.641 8        49.472                  
  24213516.652 8 127242883.770 8      2897.356 8        48.985                  
  25169877.125 7 132268595.435 7      2717.625 7        47.798                  
  23371727.654 8 122819255.606 8     -2475.400 8        48.937                  
 02  5 18 00 02 27.0000000  0  5G15G13G10G12G05                                 
  21309752.835 8 111983523.730 8     -1830.503 8        51.820                  
  23699148.213 8 124539855.508 8     -2848.040 8        48.417                  
  24212965.517 8 127239985.392 8      2897.711 8        52.054                  
  25169358.316 7 132265876.463 7      2720.303 7        47.665                  
  23372198.503 8 122821731.336 8     -2474.455 8        49.860                  
 02  5 18 00 02 28.0000000  0  5G15G13G10G12G05                                 
  21310105.569 8 111985356.762 8     -1831.433 8        50.501                  
  23699689.876 7 124542701.756 7     -2851.658 7        46.592                  
  24212412.578 8 127237086.934 8      2897.503 8        50.543                  
  25168840.775 7 132263157.294 7      2723.241 7        46.986                  
  23372669.262 8 122824207.301 8     -2476.950 8        49.871                  
 02  5 18 00 02 29.0000000  0  5G15G13G10G12G05                                 
  21310448.422 8 111987189.943 8     -1832.965 8        52.857                  
  23700232.988 7 124545547.987 7     -2843.442 7        47.326                  
  24211862.320 8 127234188.432 8      2903.042 8        48.174                  
  25168324.879 7 132260437.946 7      2715.866 7        47.123                  
  23373139.307 8 122826683.525 8     -2476.863 8        51.486                  
 02  5 18 00 02 30.0000000  0  5G15G13G10G12G05                                 
  21310798.851 8 111989023.287 8     -1833.962 8        53.894                  
  23700772.614 8 124548394.128 8     -2845.235 8        48.302                  
  24211310.453 8 127231289.858 8      2896.348 8        49.408                  
  25167804.854 7 132257718.396 7      2719.740 7        47.434                  
  23373610.567 8 122829159.992 8     -2476.824 8        48.914                  
 02  5 18 00 02 31.0000000  0  5G15G13G10G12G05                                 
  21311152.372 8 111990856.777 8     -1832.658 8        52.796                  
  23701313.081 8 124551240.251 8     -2844.058 8        48.587                  
  24210758.604 8 127228391.225 8      2899.252 8        49.164                  
  25167290.762 7 132254998.673 7      2719.983 7        46.853                  
  23374081.952 8 122831636.696 8     -2477.047 8        49.042                  
 02  5 18 00 02 32.0000000  0  5G15G13G10G12G05                                 
  21311495.761 8 111992690.423 8     -1833.689 8        53.104                  
  23701855.048 7 124554086.391 7     -2845.427 7        47.402                  
  24210206.987 7 127225492.530 7      2896.061 7        46.404                  
  25166769.112 8 132252278.746 8      2721.942 8        48.181                  
  23374554.391 8 122834113.664 8     -2478.684 8        48.474                  
 02  5 18 00 02 33.0000000  0  5G15G13G10G12G05                                 
  21311845.547 8 111994524.224 8     -1835.199 8        53.845                  
  23702395.354 8 124556932.489 8     -2844.573 8        50.779                  
  24209656.246 8 127222593.781 8      2896.712 8        48.979                  
  25166255.717 7 132249558.625 7      2719.453 7        46.590                  
  23375025.883 8 122836590.865 8     -2476.406 8        48.428                  
 02  5 18 00 02 34.0000000  0  5G15G13G10G12G05                                 
  21312198.675 9 111996358.184 9     -1834.854 9        55.647                  
  23702937.571 8 124559778.488 8     -2845.415 8        49.918                  
  24209103.521 8 127219694.966 8      2898.921 8        49.297                  
  25165733.620 7 132246838.331 7      2721.103 7        45.958                  
  23375496.910 8 122839068.326 8     -2478.846 8        48.882                  
 02  5 18 00 02 35.0000000  0  5G15G13G10G12G05                                 
  21312543.011 9 111998192.288 9     -1833.436 9        55.050                  
  23703479.896 8 124562624.516 8     -2844.404 8        49.799                  
  24208551.529 8 127216796.094 8      2899.176 8        48.788                  
  25165219.796 7 132244117.833 7      2719.839 7        46.287                  
  23375968.724 8 122841546.028 8     -2480.015 8        49.318                  
 02  5 18 00 02 36.0000000  0  5G15G13G10G12G05                                 
  21312891.922 9 112000026.537 9     -1834.226 9        55.403                  
  23704021.685 8 124565470.502 8     -2848.481 8        48.572                  
  24208002.003 8 127213897.163 8      2903.122 8        48.328                  
  25164699.164 8 132241397.167 8      2721.043 8        48.255                  
  23376438.608 8 122844023.973 8     -2478.338 8        49.226                  
 02  5 18 00 02 37.0000000  0  5G15G13G10G12G05                                 
  21313246.461 8 112001860.971 8     -1834.705 8        53.597                  
  23704566.744 7 124568316.443 7     -2843.611 7        47.299                  
  24207448.635 7 127210998.175 7      2896.788 7        46.908                  
  25164183.464 7 132238676.286 7      2722.316 7        47.385                  
  23376909.725 8 122846502.177 8     -2477.487 8        49.303                  
 02  5 18 00 02 38.0000000  0  5G15G13G10G12G05                                 
  21313590.225 8 112003695.541 8     -1835.199 8        50.987                  
  23705106.174 8 124571162.320 8     -2843.675 8        49.642                  
  24206896.876 8 127208099.123 8      2897.769 8        48.404                  
  25163664.030 7 132235955.240 7      2722.836 7        46.424                  
  23377382.753 8 122848980.625 8     -2479.943 8        49.954                  
 02  5 18 00 02 39.0000000  0  5G15G13G10G12G05                                 
  21313939.189 8 112005530.253 8     -1834.704 8        51.590                  
  23705646.730 8 124574008.211 8     -2846.404 8        49.183                  
  24206347.224 8 127205200.001 8      2898.746 8        48.459                  
  25163146.525 7 132233233.990 7      2716.490 7        43.146                  
  23377854.942 8 122851459.305 8     -2477.477 8        50.898                  
 02  5 18 00 02 40.0000000  0  5G15G13G10G12G05                                 
  21314293.282 9 112007365.136 9     -1835.419 9        54.015                  
  23706188.787 8 124576854.091 8     -2846.627 8        51.609                  
  24205793.928 8 127202300.832 8      2895.795 8        49.002                  
  25162629.699 7 132230512.549 7      2721.074 7        45.521                  
  23378327.399 8 122853938.252 8     -2478.239 8        49.787                  
 02  5 18 00 02 41.0000000  0  5G15G13G10G12G05                                 
  21314637.725 9 112009200.172 9     -1835.519 9        54.832                  
  23706728.753 8 124579699.864 8     -2847.855 8        51.108                  
  24205241.722 8 127199401.588 8      2897.307 8        48.120                  
  25162109.854 7 132227790.925 7      2721.468 7        45.489                  
  23378797.980 8 122856417.438 8     -2479.152 8        49.284                  
 02  5 18 00 02 42.0000000  0  5G15G13G10G12G05                                 
  21314986.260 9 112011035.353 9     -1836.572 9        56.513                  
  23707272.704 8 124582545.617 8     -2844.617 8        52.742                  
  24204691.213 7 127196502.299 7      2897.887 7        47.719                  
  25161595.708 8 132225069.107 8      2720.887 8        48.058                  
  23379270.080 8 122858896.858 8     -2480.808 8        48.169                  
 02  5 18 00 02 43.0000000  0  5G15G13G10G12G05                                 
  21315340.764 9 112012870.683 9     -1835.183 9        55.421                  
  23707812.473 8 124585391.386 8     -2846.205 8        50.529                  
  24204139.167 8 127193602.940 8      2898.205 8        48.412                  
  25161072.825 7 132222347.103 7      2722.756 7        46.950                  
  23379741.232 8 122861376.542 8     -2480.266 8        49.765                  
 02  5 18 00 02 44.0000000  0  5G15G13G10G12G05                                 
  21315686.101 9 112014706.185 9     -1835.807 9        55.443                  
  23708352.457 8 124588237.106 8     -2843.789 8        50.927                  
  24203586.425 8 127190703.530 8      2901.294 8        49.697                  
  25160559.662 7 132219624.913 7      2719.328 7        46.745                  
  23380213.510 8 122863856.464 8     -2479.445 8        49.400                  
 02  5 18 00 02 45.0000000  0  5G15G13G10G12G05                                 
  21316034.028 9 112016541.832 9     -1836.775 9        55.610                  
  23708897.498 8 124591082.757 8     -2846.146 8        50.808                  
  24203035.612 8 127187804.050 8      2899.059 8        48.908                  
  25160038.012 8 132216902.532 8      2722.853 8        48.402                  
  23380684.895 8 122866336.622 8     -2479.904 8        48.825                  
 02  5 18 00 02 46.0000000  0  5G15G13G10G12G05                                 
  21316389.854 9 112018377.617 9     -1836.093 9        55.195                  
  23709434.980 8 124593928.404 8     -2845.545 8        50.524                  
  24202483.763 8 127184904.522 8      2899.280 8        48.509                  
  25159522.634 7 132214179.971 7      2719.650 7        47.233                  
  23381158.174 8 122868817.045 8     -2478.812 8        48.494                  
 02  5 18 00 02 47.0000000  0  5G15G13G10G12G05                                 
  21316734.012 9 112020213.583 9     -1836.700 9        54.532                  
  23709980.111 8 124596774.041 8     -2845.648 8        49.388                  
  24201931.146 7 127182004.926 7      2897.235 7        47.650                  
  25159001.573 7 132211457.204 7      2724.236 7        46.343                  
  23381630.631 8 122871297.711 8     -2480.671 8        48.174                  
 02  5 18 00 02 48.0000000  0  5G15G13G10G12G05                                 
  21317081.922 8 112022049.696 8     -1836.605 8        53.708                  
  23710521.828 8 124599619.581 8     -2848.084 8        49.001                  
  24201380.494 8 127179105.276 8      2899.524 8        48.188                  
  25158486.552 7 132208734.274 7      2721.277 7        47.854                  
  23382101.748 8 122873778.620 8     -2479.662 8        48.912                  
 02  5 18 00 02 49.0000000  0  5G15G13G10G12G05                                 
  21317436.872 9 112023885.946 9     -1836.051 9        54.455                  
  23711059.793 7 124602465.114 7     -2843.164 7        47.591                  
  24200828.180 8 127176205.545 8      2901.257 8        48.389                  
  25157966.277 8 132206011.130 8      2723.398 8        48.349                  
  23382573.526 8 122876259.784 8     -2479.115 8        48.330                  
 02  5 18 00 02 50.0000000  0  5G15G13G10G12G05                                 
  21317782.316 9 112025722.352 9     -1836.937 9        54.653                  
  23711604.208 8 124605310.639 8     -2844.376 8        48.427                  
  24200275.170 7 127173305.783 7      2899.236 7        46.935                  
  25157448.433 8 132203287.814 8      2725.114 8        48.213                  
  23383046.126 7 122878741.184 7     -2481.826 7        47.569                  
 02  5 18 00 02 51.0000000  0  5G15G13G10G12G05                                 
  21318130.583 9 112027558.928 9     -1836.201 9        55.167                  
  23712144.693 8 124608156.129 8     -2846.161 8        48.997                  
  24199724.482 7 127170405.930 7      2900.780 7        47.914                  
  25156931.143 7 132200564.305 7      2722.070 7        45.827                  
  23383518.207 8 122881222.848 8     -2481.338 8        49.065                  
 02  5 18 00 02 52.0000000  0  5G15G13G10G12G05                                 
  21318486.016 8 112029395.643 8     -1836.890 8        52.603                  
  23712685.123 8 124611001.539 8     -2845.724 8        50.520                  
  24199173.401 7 127167506.044 7      2900.574 7        47.587                  
  25156410.279 7 132197840.608 7      2725.990 7        47.214                  
  23383991.415 8 122883704.751 8     -2481.114 8        48.755                  
 02  5 18 00 02 53.0000000  0  5G15G13G10G12G05                                 
  21318830.834 8 112031232.504 8     -1836.160 8        53.575                  
  23713228.574 8 124613846.938 8     -2844.177 8        49.074                  
  24198619.908 8 127164606.077 8      2899.683 8        48.796                  
  25155894.543 7 132195116.720 7      2726.450 7        45.031                  
  23384463.765 8 122886186.894 8     -2481.578 8        48.866                  
 02  5 18 00 02 54.0000000  0  5G15G13G10G12G05                                 
  21319179.084 9 112033069.544 9     -1837.314 9        54.975                  
  23713770.613 8 124616692.350 8     -2845.427 8        49.595                  
  24198068.721 8 127161706.072 8      2902.128 8        50.790                  
  25155373.161 7 132192392.648 7      2721.997 7        45.060                  
  23384936.275 8 122888669.293 8     -2483.767 8        49.560                  
 02  5 18 00 02 55.0000000  0  5G15G13G10G12G05                                 
  21319533.980 8 112034906.725 8     -1835.750 8        52.777                  
  23714311.276 8 124619537.676 8     -2846.276 8        49.434                  
  24197517.854 8 127158805.984 8      2901.987 8        50.336                  
  25154858.586 7 132189668.393 7      2724.725 7        45.013                  
  23385408.804 8 122891151.937 8     -2485.196 8        48.622                  
 02  5 18 00 02 56.0000000  0  5G15G13G10G12G05                                 
  21319880.389 8 112036744.048 8     -1836.915 8        53.192                  
  23714850.081 8 124622382.966 8     -2845.071 8        50.043                  
  24196964.772 8 127155905.864 8      2899.074 8        48.329                  
  25154335.828 7 132186943.937 7      2725.272 7        46.208                  
  23385880.099 8 122893634.812 8     -2481.185 8        50.010                  
 02  5 18 00 02 57.0000000  0  5G15G13G10G12G05                                 
  21320227.120 8 112038581.533 8     -1837.910 8        53.023                  
  23715393.799 8 124625228.240 8     -2844.937 8        49.449                  
  24196413.013 8 127153005.656 8      2897.746 8        48.656                  
  25153821.701 7 132184219.299 7      2726.179 7        46.062                  
  23386351.966 8 122896117.952 8     -2482.621 8        49.079                  
 02  5 18 00 02 58.0000000  0  5G15G13G10G12G05                                 
  21320582.964 8 112040419.180 8     -1837.163 8        52.907                  
  23715934.534 8 124628073.509 8     -2844.953 8        48.256                  
  24195862.361 8 127150105.412 8      2900.881 8        48.072                  
  25153299.764 7 132181494.478 7      2719.090 7        47.116                  
  23386825.102 8 122898601.333 8     -2482.393 8        49.382                  
 02  5 18 00 02 59.0000000  0  5G15G13G10G12G05                                 
  21320929.087 9 112042256.966 9     -1837.370 9        54.472                  
  23716474.303 8 124630918.676 8     -2846.146 8        51.062                  
  24195309.493 8 127147205.086 8      2901.182 8        49.624                  
  25152784.046 7 132178769.470 7      2723.396 7        47.512                  
  23387298.649 8 122901084.950 8     -2483.112 8        50.515                  
 02  5 18 00 03  0.0000000  0  5G15G13G10G12G05                                 
  21321276.639 9 112044094.901 9     -1838.214 9        56.275                  
  23717018.683 8 124633763.849 8     -2844.096 8        50.035                  
  24194757.519 7 127144304.724 7      2897.311 7        47.378                  
  25152263.325 7 132176044.276 7      2724.675 7        47.390                  
  23387771.571 8 122903568.831 8     -2484.478 8        48.780                  
 02  5 18 00 03  1.0000000  0  5G15G13G10G12G05                                 
  21321632.233 8 112045933.000 8     -1839.130 8        52.792                  
  23717559.293 8 124636609.009 8     -2843.953 8        50.008                  
  24194207.117 7 127141404.281 7      2898.639 7        47.126                  
  25151745.552 7 132173318.884 7      2728.197 7        46.994                  
  23388243.778 8 122906052.952 8     -2484.396 8        49.231                  
 02  5 18 00 03  2.0000000  0  5G15G13G10G12G05                                 
  21321978.463 8 112047771.256 8     -1838.448 8        53.793                  
  23718098.723 8 124639454.108 8     -2843.315 8        49.170                  
  24193653.964 7 127138503.799 7      2900.045 7        47.572                  
  25151226.547 7 132170593.322 7      2728.433 7        46.568                  
  23388716.110 8 122908537.308 8     -2484.402 8        50.258                  
 02  5 18 00 03  3.0000000  0  5G15G13G10G12G05                                 
  21322326.140 8 112049609.653 8     -1838.209 8        53.622                  
  23718640.672 8 124642299.148 8     -2847.138 8        48.592                  
  24193101.400 7 127135603.232 7      2903.254 7        46.583                  
  25150707.541 7 132167867.554 7      2723.610 7        47.532                  
  23389188.745 8 122911021.931 8     -2485.774 8        48.691                  
 02  5 18 00 03  4.0000000  0  5G15G13G10G12G05                                 
  21322681.627 9 112051448.194 9     -1838.549 9        54.862                  
  23719182.854 8 124645144.195 8     -2843.678 8        51.753                  
  24192550.909 7 127132702.633 7      2900.381 7        46.785                  
  25150190.822 7 132165141.618 7      2723.936 7        44.797                  
  23389661.345 8 122913506.786 8     -2485.403 8        49.286                  
 02  5 18 00 03  5.0000000  0  5G15G13G10G12G05                                 
  21323026.910 9 112053286.913 9     -1838.644 9        55.605                  
  23719727.234 8 124647989.221 8     -2845.276 8        49.176                  
  24191998.202 7 127129801.946 7      2902.650 7        47.341                  
  25149669.011 7 132162415.482 7      2726.541 7        45.880                  
  23390134.892 7 122915991.895 7     -2485.101 7        47.625                  
 02  5 18 00 03  6.0000000  0  5G15G13G10G12G05                                 
  21323376.589 9 112055125.779 9     -1839.039 9        55.261                  
  23720265.234 8 124650834.159 8     -2844.749 8        48.810                  
  24191444.799 7 127126901.226 7      2903.685 7        47.633                  
  25149154.187 7 132159689.163 7      2725.042 7        46.989                  
  23390609.082 8 122918477.255 8     -2485.526 8        48.841                  
 02  5 18 00 03  7.0000000  0  5G15G13G10G12G05                                 
  21323731.932 9 112056964.784 9     -1838.559 9        56.017                  
  23720804.718 7 124653679.086 7     -2848.035 7        47.695                  
  24190894.862 7 127124000.426 7      2897.474 7        46.537                  
  25148629.677 7 132156962.673 7      2724.578 7        46.448                  
  23391080.932 8 122920962.851 8     -2485.225 8        50.275                  
 02  5 18 00 03  8.0000000  0  5G15G13G10G12G05                                 
  21324077.162 9 112058803.943 9     -1838.036 9        57.069                  
  23721352.904 8 124656524.013 8     -2843.662 8        50.983                  
  24190342.155 7 127121099.586 7      2903.485 7        46.605                  
  25148115.853 7 132154235.972 7      2726.054 7        44.965                  
  23391553.853 8 122923448.697 8     -2483.437 8        49.231                  
 02  5 18 00 03  9.0000000  0  5G15G13G10G12G05                                 
  21324425.983 8 112060643.274 8     -1839.023 8        53.434                  
  23721887.903 8 124659368.861 8     -2848.292 8        49.458                  
  24189788.876 7 127118198.676 7      2899.254 7        46.186                  
  25147591.701 7 132151509.107 7      2725.672 7        46.236                  
  23392026.471 8 122925934.799 8     -2483.865 8        50.021                  
 02  5 18 00 03 10.0000000  0  5G15G13G10G12G05                                 
  21324781.862 8 112062482.742 8     -1838.120 8        52.457                  
  23722429.602 8 124662213.665 8     -2845.225 8        49.115                  
  24189238.314 7 127115297.717 7      2901.420 7        46.868                  
  25147077.377 7 132148782.040 7      2726.192 7        47.262                  
  23392499.500 8 122928421.139 8     -2485.809 8        48.397                  
 02  5 18 00 03 11.0000000  0  5G15G13G10G12G05                                 
  21325127.074 9 112064322.357 9     -1839.619 9        54.444                  
  23722973.732 8 124665058.478 8     -2844.539 8        49.553                  
  24188686.590 7 127112396.690 7      2900.119 7        46.816                  
  25146556.263 8 132146054.793 8      2727.590 8        48.026                  
  23392972.868 8 122930907.720 8     -2485.093 8        48.427                  
 02  5 18 00 03 12.0000000  0  5G15G13G10G12G05                                 
  21325476.413 9 112066162.138 9     -1840.202 9        54.996                  
  23723509.105 7 124667903.260 7     -2840.775 7        45.572                  
  24188132.865 8 127109495.612 8      2901.689 8        49.007                  
  25146039.151 8 132143327.354 8      2730.907 8        48.048                  
  23393447.148 8 122933394.556 8     -2486.807 8        48.195                  
 02  5 18 00 03 13.0000000  0  5G15G13G10G12G05                                 
  21325831.971 9 112068002.077 9     -1839.173 9        54.049                  
  23724055.361 7 124670747.945 7     -2845.402 7        47.867                  
  24187581.802 8 127106594.463 8      2900.572 8        48.677                  
  25145518.591 8 132140599.740 8      2727.599 8        49.998                  
  23393919.641 8 122935881.631 8     -2488.290 8        48.303                  
 02  5 18 00 03 14.0000000  0  5G15G13G10G12G05                                 
  21326176.951 8 112069842.152 8     -1839.759 8        53.560                  
  23724597.383 8 124673592.634 8     -2845.796 8        48.115                  
  24187030.114 8 127103693.266 8      2902.196 8        48.197                  
  25145000.729 7 132137871.932 7      2729.472 7        47.717                  
  23394394.027 8 122938368.954 8     -2485.584 8        48.631                  
 02  5 18 00 03 15.0000000  0  5G15G13G10G12G05                                 
  21326527.237 9 112071682.388 9     -1841.204 9        54.898                  
  23725137.760 8 124676437.329 8     -2846.141 8        48.332                  
  24186477.103 8 127100791.997 8      2901.507 8        49.723                  
  25144480.937 8 132135143.938 8      2729.656 8        48.185                  
  23394866.020 8 122940856.535 8     -2489.337 8        48.595                  
 02  5 18 00 03 16.0000000  0  5G15G13G10G12G05                                 
  21326882.688 9 112073522.776 9     -1840.691 9        55.228                  
  23725681.049 7 124679281.918 7     -2844.103 7        47.466                  
  24185925.486 7 127097890.680 7      2902.611 7        47.797                  
  25143961.592 8 132132415.762 8      2726.265 8        48.008                  
  23395339.406 8 122943344.350 8     -2487.199 8        48.507                  
 02  5 18 00 03 17.0000000  0  5G15G13G10G12G05                                 
  21327227.756 9 112075363.303 9     -1839.962 9        54.666                  
  23726222.088 8 124682126.501 8     -2843.851 8        48.068                  
  24185373.816 8 127094989.294 8      2901.364 8        50.112                  
  25143443.801 7 132129687.397 7      2725.723 7        45.434                  
  23395813.078 8 122945832.411 8     -2489.879 8        48.100                  
 02  5 18 00 03 18.0000000  0  5G15G13G10G12G05                                 
  21327577.703 8 112077203.993 8     -1841.762 8        52.380                  
  23726762.894 8 124684971.075 8     -2846.953 8        48.771                  
  24184820.806 8 127092087.861 8      2899.024 8        48.470                  
  25142920.757 7 132126958.859 7      2730.233 7        47.204                  
  23396286.804 8 122948320.729 8     -2488.564 8        50.603                  
 02  5 18 00 03 19.0000000  0  5G15G13G10G12G05                                 
  21327933.279 9 112079044.848 9     -1841.475 9        54.886                  
  23727303.735 8 124687815.596 8     -2845.893 8        49.720                  
  24184268.689 7 127089186.365 7      2900.748 7        47.154                  
  25142405.861 7 132124230.111 7      2728.211 7        46.497                  
  23396761.012 8 122950809.283 8     -2489.201 8        50.008                  
 02  5 18 00 03 20.0000000  0  5G15G13G10G12G05                                 
  21328279.098 8 112080885.845 8     -1840.770 8        53.634                  
  23727845.345 8 124690660.042 8     -2843.535 8        48.105                  
  24183717.536 7 127086284.811 7      2903.577 7        46.937                  
  25141882.477 7 132121501.192 7      2732.118 7        45.962                  
  23397234.255 8 122953298.098 8     -2489.442 8        49.437                  
 02  5 18 00 03 21.0000000  0  5G15G13G10G12G05                                 
  21328629.259 8 112082726.986 8     -1840.786 8        51.748                  
  23728387.563 8 124693504.492 8     -2841.620 8        48.104                  
  24183165.223 8 127083383.197 8      2901.821 8        48.733                  
  25141367.295 7 132118772.092 7      2729.173 7        45.375                  
  23397708.892 8 122955787.149 8     -2488.468 8        50.990                  
 02  5 18 00 03 22.0000000  0  5G15G13G10G12G05                                 
  21328984.567 8 112084568.277 8     -1842.021 8        51.799                  
  23728925.653 8 124696348.955 8     -2842.845 8        48.573                  
  24182612.016 7 127080481.521 7      2906.280 7        46.657                  
  25140844.126 7 132116042.805 7      2732.317 7        45.692                  
  23398180.670 8 122958276.449 8     -2490.839 8        49.914                  
 02  5 18 00 03 23.0000000  0  5G15G13G10G12G05                                 
  21329329.404 9 112086409.739 9     -1841.091 9        54.587                  
  23729467.335 8 124699193.297 8     -2842.679 8        48.435                  
  24182061.364 7 127077579.790 7      2902.621 7        45.977                  
  25140329.034 7 132113313.332 7      2728.864 7        45.573                  
  23398655.378 8 122960765.986 8     -2490.667 8        50.082                  
 02  5 18 00 03 24.0000000  0  5G15G13G10G12G05                                 
  21329680.780 9 112088251.344 9     -1839.776 9        56.401                  
  23730009.445 8 124702037.629 8     -2842.739 8        49.463                  
  24181508.318 7 127074677.998 7      2902.595 7        47.528                  
  25139805.221 7 132110583.663 7      2728.206 7        47.443                  
  23399128.818 8 122963255.781 8     -2492.531 8        49.364                  
 02  5 18 00 03 25.0000000  0  5G15G13G10G12G05                                 
  21330035.498 9 112090093.095 9     -1843.729 9        54.086                  
  23730552.217 8 124704881.963 8     -2843.660 8        51.905                  
  24180954.735 7 127071776.157 7      2902.995 7        47.036                  
  25139289.646 7 132107853.823 7      2727.801 7        45.571                  
  23399603.187 8 122965745.815 8     -2489.963 8        50.286                  
 02  5 18 00 03 26.0000000  0  5G15G13G10G12G05                                 
  21330380.656 8 112091934.995 8     -1840.742 8        50.881                  
  23731092.504 8 124707726.238 8     -2845.887 8        50.666                  
  24180404.405 7 127068874.245 7      2903.418 7        47.540                  
  25138767.084 7 132105123.785 7      2728.213 7        46.693                  
  23400076.823 8 122968236.090 8     -2488.162 8        50.436                  
 02  5 18 00 03 27.0000000  0  5G15G13G10G12G05                                 
  21330732.604 8 112093777.067 8     -1842.952 8        51.514                  
  23731632.578 8 124710570.451 8     -2843.936 8        53.029                  
  24179852.002 8 127065972.287 8      2902.777 8        48.112                  
  25138249.740 7 132102393.580 7      2731.932 7        46.832                  
  23400550.781 8 122970726.628 8     -2491.617 8        49.732                  
 02  5 18 00 03 28.0000000  0  5G15G13G10G12G05                                 
  21331087.251 8 112095619.278 8     -1840.649 8        53.960                  
  23732175.599 8 124713414.664 8     -2844.047 8        51.762                  
  24179298.581 7 127063070.258 7      2902.243 7        47.441                  
  25137728.769 7 132099663.177 7      2729.421 7        44.510                  
  23401023.703 8 122973217.392 8     -2488.294 8        50.168                  
 02  5 18 00 03 29.0000000  0  5G15G13G10G12G05                                 
  21331433.159 9 112097461.638 9     -1842.986 9        55.817                  
  23732718.478 8 124716258.863 8     -2842.393 8        51.575                  
  24178747.393 8 127060168.187 8      2904.325 8        50.906                  
  25137210.013 8 132096932.604 8      2731.238 8        48.615                  
  23401498.054 8 122975708.416 8     -2490.715 8        50.304                  
 02  5 18 00 03 30.0000000  0  5G15G13G10G12G05                                 
  21331783.267 8 112099304.156 8     -1842.135 8        53.324                  
  23733259.624 8 124719102.965 8     -2844.049 8        49.578                  
  24178195.222 8 127057266.040 8      2903.334 8        48.405                  
  25136690.382 7 132094201.829 7      2734.361 7        46.374                  
  23401972.655 8 122978199.689 8     -2491.004 8        51.289                  
 02  5 18 00 03 31.0000000  0  5G15G13G10G12G05                                 
  21332139.701 8 112101146.826 8     -1842.965 8        53.291                  
  23733800.859 8 124721947.053 8     -2844.842 8        48.321                  
  24177641.783 8 127054363.854 8      2901.758 8        48.705                  
  25136169.518 7 132091470.885 7      2730.933 7        47.127                  
  23402448.025 8 122980691.198 8     -2492.700 8        51.702                  
 02  5 18 00 03 32.0000000  0  5G15G13G10G12G05                                 
  21332484.054 9 112102989.631 9     -1842.761 9        55.693                  
  23734342.272 8 124724791.160 8     -2845.517 8        48.031                  
  24177090.273 8 127051461.583 8      2903.145 8        48.678                  
  25135651.799 7 132088739.743 7      2731.801 7        47.948                  
  23402921.375 8 122983182.959 8     -2490.689 8        50.862                  
 02  5 18 00 03 33.0000000  0  5G15G13G10G12G05                                 
  21332837.182 9 112104832.606 9     -1843.056 9        55.822                  
  23734880.058 8 124727635.167 8     -2842.743 8        50.328                  
  24176538.424 8 127048559.280 8      2900.959 8        48.923                  
  25135128.844 7 132086008.417 7      2732.343 7        47.296                  
  23403395.280 8 122985674.971 8     -2492.983 8        49.076                  
 02  5 18 00 03 34.0000000  0  5G15G13G10G12G05                                 
  21333191.864 9 112106675.736 9     -1843.476 9        54.521                  
  23735422.383 8 124730479.140 8     -2844.963 8        50.652                  
  24175985.003 7 127045656.892 7      2904.616 7        47.232                  
  25134612.358 7 132083276.917 7      2732.428 7        47.910                  
  23403868.469 8 122988167.217 8     -2490.942 8        49.450                  
 02  5 18 00 03 35.0000000  0  5G15G13G10G12G05                                 
  21333538.398 8 112108519.013 8     -1841.037 8        51.883                  
  23735962.313 8 124733323.112 8     -2843.029 8        50.129                  
  24175433.154 8 127042754.479 8      2899.729 8        50.603                  
  25134089.206 7 132080545.224 7      2732.613 7        47.943                  
  23404343.964 8 122990659.727 8     -2493.308 8        48.981                  
 02  5 18 00 03 36.0000000  0  5G15G13G10G12G05                                 
  21333889.989 8 112110362.429 8     -1843.097 8        53.456                  
  23736506.121 8 124736167.061 8     -2845.763 8        48.266                  
  24174881.823 8 127039851.969 8      2902.231 8        49.356                  
  25133573.453 7 132077813.351 7      2731.202 7        46.011                  
  23404818.530 8 122993152.487 8     -2495.303 8        49.666                  
 02  5 18 00 03 37.0000000  0  5G15G13G10G12G05                                 
  21334242.545 9 112112206.000 9     -1844.124 9        54.261                  
  23737046.749 8 124739010.919 8     -2844.440 8        49.962                  
  24174328.830 8 127036949.449 8      2903.218 8        49.229                  
  25133049.158 7 132075081.291 7      2732.053 7        47.932                  
  23405292.291 8 122995645.468 8     -2493.265 8        51.190                  
 02  5 18 00 03 38.0000000  0  5G15G13G10G12G05                                 
  21334589.097 9 112114049.740 9     -1844.834 9        55.538                  
  23737586.268 8 124741854.771 8     -2841.744 8        48.985                  
  24173776.552 8 127034046.821 8      2904.336 8        48.844                  
  25132533.100 8 132072349.061 8      2729.816 8        48.268                  
  23405767.053 8 122998138.706 8     -2493.918 8        51.217                  
 02  5 18 00 03 39.0000000  0  5G15G13G10G12G05                                 
  21334942.850 9 112115893.624 9     -1844.935 9        54.998                  
  23738128.432 8 124744698.633 8     -2845.917 8        48.564                  
  24173225.078 8 127031144.186 8      2901.833 8        48.071                  
  25132009.431 7 132069616.630 7      2731.381 7        47.514                  
  23406242.155 8 123000632.199 8     -2493.111 8        49.997                  
 02  5 18 00 03 40.0000000  0  5G15G13G10G12G05                                 
  21335296.567 9 112117737.647 9     -1844.325 9        54.031                  
  23738666.701 7 124747542.381 7     -2844.114 7        47.369                  
  24172671.300 7 127028241.437 7      2904.092 7        47.928                  
  25131493.892 8 132066884.030 8      2734.920 8        48.078                  
  23406715.862 8 123003125.923 8     -2492.687 8        50.074                  
 02  5 18 00 03 41.0000000  0  5G15G13G10G12G05                                 
  21335643.191 9 112119581.836 9     -1843.083 9        56.606                  
  23739208.918 8 124750386.116 8     -2845.260 8        48.344                  
  24172119.075 8 127025338.691 8      2903.639 8        48.544                  
  25130969.811 7 132064151.231 7      2730.241 7        47.187                  
  23407188.284 8 123005619.898 8     -2496.779 8        48.929                  
 02  5 18 00 03 42.0000000  0  5G15G13G10G12G05                                 
  21335994.996 9 112121426.169 9     -1844.360 9        56.482                  
  23739755.228 7 124753229.861 7     -2841.987 7        46.841                  
  24171567.691 8 127022435.828 8      2901.191 8        48.587                  
  25130453.379 7 132061418.261 7      2731.815 7        47.430                  
  23407664.475 8 123008114.125 8     -2492.337 8        49.179                  
 02  5 18 00 03 43.0000000  0  5G15G13G10G12G05                                 
  21336349.053 9 112123270.647 9     -1844.504 9        56.169                  
  23740289.333 7 124756073.517 7     -2843.427 7        47.191                  
  24171014.019 7 127019532.964 7      2902.057 7        47.054                  
  25129930.906 8 132058685.102 8      2731.066 8        48.222                  
  23408140.059 8 123010608.590 8     -2494.087 8        50.272                  
 02  5 18 00 03 44.0000000  0  5G15G13G10G12G05                                 
  21336694.925 9 112125115.282 9     -1844.972 9        54.218                  
  23740835.964 8 124758917.138 8     -2847.169 8        48.706                  
  24170461.688 8 127016629.979 8      2904.130 8        48.528                  
  25129412.240 8 132055951.765 8      2733.830 8        48.409                  
  23408614.321 7 123013103.299 7     -2492.430 7        47.197                  
 02  5 18 00 03 45.0000000  0  5G15G13G10G12G05                                 
  21337050.662 8 112126960.081 8     -1844.566 8        53.718                  
  23741371.999 7 124761760.755 7     -2844.929 7        47.107                  
  24169910.607 7 127013726.994 7      2899.331 7        47.240                  
  25128891.233 7 132053218.236 7      2733.606 7        47.914                  
  23409088.690 8 123015598.265 8     -2495.549 8        49.960                  
 02  5 18 00 03 46.0000000  0  5G15G13G10G12G05                                 
  21337401.181 9 112128805.024 9     -1845.223 9        56.321                  
  23741913.181 8 124764604.355 8     -2846.708 8        49.891                  
  24169357.793 8 127010823.902 8      2902.294 8        49.796                  
  25128370.440 8 132050484.528 8      2731.403 8        48.234                  
  23409564.614 8 123018093.467 8     -2494.027 8        51.559                  
 02  5 18 00 03 47.0000000  0  5G15G13G10G12G05                                 
  21337747.768 9 112130650.109 9     -1844.886 9        54.763                  
  23742457.989 8 124767447.846 8     -2844.228 8        49.470                  
  24168804.103 8 127007920.798 8      2903.292 8        49.639                  
  25127851.327 7 132047750.643 7      2734.136 7        47.715                  
  23410038.554 8 123020588.914 8     -2496.555 8        50.177                  
 02  5 18 00 03 48.0000000  0  5G15G13G10G12G05                                 
  21338103.487 9 112132495.347 9     -1844.964 9        55.922                  
  23742996.222 8 124770291.359 8     -2846.553 8        49.384                  
  24168252.254 8 127005017.599 8      2901.942 8        51.331                  
  25127329.498 7 132045016.575 7      2732.425 7        46.197                  
  23410513.280 8 123023084.618 8     -2494.218 8        49.334                  
 02  5 18 00 03 49.0000000  0  5G15G13G10G12G05                                 
  21338454.452 8 112134340.744 8     -1843.976 8        53.305                  
  23743541.174 7 124773134.849 7     -2846.605 7        46.839                  
  24167699.637 8 127002114.374 8      2903.998 8        48.604                  
  25126811.993 7 132042282.331 7      2732.994 7        46.302                  
  23410991.151 8 123025580.562 8     -2496.279 8        48.952                  
 02  5 18 00 03 50.0000000  0  5G15G13G10G12G05                                 
  21338800.826 8 112136186.289 8     -1844.753 8        53.741                  
  23744082.676 7 124775978.231 7     -2841.752 7        47.380                  
  24167146.644 8 126999211.057 8      2903.519 8        48.010                  
  25126288.306 7 132039547.896 7      2735.265 7        47.215                  
  23411464.287 7 123028076.761 7     -2496.228 7        47.734                  
 02  5 18 00 03 51.0000000  0  5G15G13G10G12G05                                 
  21339157.956 8 112138031.966 8     -1846.770 8        53.494                  
  23744620.784 7 124778821.621 7     -2840.132 7        46.963                  
  24166595.206 8 126996307.714 8      2904.802 8        48.977                  
  25125771.284 8 132036813.285 8      2735.494 8        49.113                  
  23411935.565 8 123030573.205 8     -2495.512 8        48.574                  
 02  5 18 00 03 52.0000000  0  5G15G13G10G12G05                                 
  21339507.045 9 112139877.825 9     -1847.442 9        54.273                  
  23745164.556 8 124781665.008 8     -2846.288 8        49.500                  
  24166042.893 8 126993404.287 8      2907.184 8        49.577                  
  25125246.899 7 132034078.480 7      2736.690 7        47.872                  
  23412413.382 8 123033069.889 8     -2497.539 8        49.080                  
 02  5 18 00 03 53.0000000  0  5G15G13G10G12G05                                 
  21339854.133 9 112141723.833 9     -1846.560 9        54.768                  
  23745703.129 8 124784508.320 8     -2844.065 8        50.596                  
  24165489.686 8 126990500.828 8      2902.398 8        49.545                  
  25124730.681 8 132031343.509 8      2735.084 8        48.609                  
  23412889.681 8 123035566.809 8     -2496.751 8        51.224                  
 02  5 18 00 03 54.0000000  0  5G15G13G10G12G05                                 
  21340212.121 8 112143569.980 8     -1845.745 8        51.212                  
  23746243.256 8 124787351.570 8     -2840.826 8        50.975                  
  24164936.872 8 126987597.291 8      2906.910 8        49.421                  
  25124205.850 8 132028608.338 8      2733.486 8        48.214                  
  23413365.230 8 123038063.994 8     -2498.427 8        49.414                  
 02  5 18 00 03 55.0000000  0  5G15G13G10G12G05                                 
  21340560.299 8 112145416.271 8     -1845.606 8        52.382                  
  23746785.098 7 124790194.830 7     -2843.408 7        47.796                  
  24164385.094 8 126984693.711 8      2905.992 8        49.472                  
  25123689.721 7 132025872.995 7      2735.612 7        47.595                  
  23413843.476 8 123040561.421 8     -2497.469 8        48.597                  
 02  5 18 00 03 56.0000000  0  5G15G13G10G12G05                                 
  21340908.816 8 112147262.729 8     -1846.418 8        52.764                  
  23747326.726 7 124793038.074 7     -2845.334 7        47.767                  
  24163832.191 8 126981790.072 8      2906.679 8        49.871                  
  25123164.944 7 132023137.466 7      2735.019 7        47.836                  
  23414316.076 8 123043059.080 8     -2498.615 8        51.856                  
 02  5 18 00 03 57.0000000  0  5G15G13G10G12G05                                 
  21341266.518 8 112149109.320 8     -1845.930 8        53.464                  
  23747868.229 8 124795881.222 8     -2845.489 8        49.233                  
  24163279.216 8 126978886.372 8      2903.589 8        49.028                  
  25122648.207 7 132020401.766 7      2733.044 7        46.641                  
  23414790.070 8 123045557.002 8     -2496.831 8        53.514                  
 02  5 18 00 03 58.0000000  0  5G15G13G10G12G05                                 
  21341613.571 8 112150956.063 8     -1848.042 8        53.795                  
  23748407.820 8 124798724.367 8     -2841.034 8        49.504                  
  24162728.100 7 126975982.627 7      2902.176 7        47.590                  
  25122123.984 7 132017665.867 7      2737.646 7        44.797                  
  23415265.350 8 123048055.164 8     -2500.936 8        48.942                  
 02  5 18 00 03 59.0000000  0  5G15G13G10G12G05                                 
  21341964.340 9 112152802.962 9     -1847.101 9        54.800                  
  23748948.161 8 124801567.509 8     -2843.970 8        49.623                  
  24162174.696 8 126973078.808 8      2903.058 8        49.607                  
  25121606.121 7 132014929.797 7      2735.826 7        45.337                  
  23415740.684 8 123050553.566 8     -2498.203 8        50.535                  
 02  5 18 00 04  0.0000000  0  5G15G13G10G12G05                                 
  21342320.380 8 112154650.026 8     -1847.043 8        53.361                  
  23749494.453 8 124804410.540 8     -2843.814 8        50.631                  
  24161621.364 8 126970174.941 8      2902.952 8        49.245                  
  25121083.292 7 132012193.541 7      2737.553 7        45.611                  
  23416216.339 8 123053052.215 8     -2499.388 8        51.959                  
 02  5 18 00 04  1.0000000  0  5G15G13G10G12G05                                 
  21342667.503 9 112156497.236 9     -1846.749 9        54.215                  
  23750030.810 8 124807253.558 8     -2844.657 8        49.949                  
  24161070.212 8 126967271.000 8      2904.269 8        50.819                  
  25120565.162 7 132009457.104 7      2732.786 7        46.697                  
  23416691.423 8 123055551.119 8     -2500.613 8        49.986                  
 02  5 18 00 04  2.0000000  0  5G15G13G10G12G05                                 
  21343018.397 8 112158344.587 8     -1846.584 8        52.785                  
  23750575.029 8 124810096.573 8     -2843.812 8        48.682                  
  24160516.987 8 126964367.028 8      2903.300 8        48.997                  
  25120042.296 7 132006720.489 7      2735.465 7        46.775                  
  23417168.258 8 123058050.252 8     -2496.241 8        50.855                  
 02  5 18 00 04  3.0000000  0  5G15G13G10G12G05                                 
  21343376.064 9 112160192.092 9     -1847.548 9        55.431                  
  23751113.083 8 124812939.530 8     -2845.587 8        48.172                  
  24159963.351 8 126961462.970 8      2904.252 8        49.357                  
  25119522.343 7 132003983.691 7      2734.241 7        45.780                  
  23417643.431 8 123060549.632 8     -2499.845 8        51.406                  
 02  5 18 00 04  4.0000000  0  5G15G13G10G12G05                                 
  21343721.436 9 112162039.752 9     -1848.269 9        54.546                  
  23751656.069 8 124815782.436 8     -2841.241 8        48.997                  
  24159412.324 8 126958558.888 8      2902.397 8        48.523                  
  25119001.551 7 132001246.702 7      2738.562 7        45.962                  
  23418118.568 8 123063049.271 8     -2499.987 8        51.178                  
 02  5 18 00 04  5.0000000  0  5G15G13G10G12G05                                 
  21344074.439 9 112163887.554 9     -1847.434 9        55.202                  
  23752195.016 8 124818625.350 8     -2844.390 8        48.662                  
  24158859.474 7 126955654.714 7      2901.943 7        47.562                  
  25118480.204 7 131998509.551 7      2736.648 7        47.613                  
  23418595.207 8 123065549.150 8     -2498.523 8        48.445                  
 02  5 18 00 04  6.0000000  0  5G15G13G10G12G05                                 
  21344430.175 9 112165735.503 9     -1849.223 9        54.839                  
  23752734.554 8 124821468.207 8     -2842.918 8        49.259                  
  24158305.230 8 126952750.524 8      2904.700 8        48.595                  
  25117960.466 7 131995772.212 7      2733.345 7        47.566                  
  23419070.005 8 123068049.280 8     -2501.181 8        49.921                  
 02  5 18 00 04  7.0000000  0  5G15G13G10G12G05                                 
  21344776.406 8 112167583.604 8     -1848.837 8        53.444                  
  23753279.166 8 124824310.990 8     -2842.840 8        50.434                  
  24157753.596 8 126949846.227 8      2903.572 8        48.097                  
  25117435.813 7 131993034.682 7      2740.193 7        47.075                  
  23419546.750 8 123070549.658 8     -2500.684 8        52.497                  
 02  5 18 00 04  8.0000000  0  5G15G13G10G12G05                                 
  21345129.229 8 112169431.862 8     -1849.852 8        52.537                  
  23753820.347 7 124827153.767 7     -2845.142 7        47.857                  
  24157201.461 8 126946941.928 8      2906.688 8        49.474                  
  25116919.345 7 131990296.984 7      2738.083 7        47.769                  
  23420020.511 8 123073050.269 8     -2498.279 8        51.156                  
 02  5 18 00 04  9.0000000  0  5G15G13G10G12G05                                 
  21345484.751 8 112171280.270 8     -1847.802 8        51.291                  
  23754359.241 8 124829996.542 8     -2841.093 8        49.222                  
  24156647.611 8 126944037.518 8      2904.749 8        48.589                  
  25116394.585 7 131987559.090 7      2741.602 7        47.663                  
  23420497.382 8 123075551.131 8     -2501.590 8        49.844                  
 02  5 18 00 04 10.0000000  0  5G15G13G10G12G05                                 
  21345830.946 8 112173128.828 8     -1848.103 8        53.223                  
  23754902.834 8 124832839.210 8     -2842.631 8        49.376                  
  24156095.029 7 126941133.103 7      2900.144 7        46.087                  
  25115877.706 7 131984821.035 7      2738.820 7        47.282                  
  23420972.627 8 123078052.248 8     -2500.608 8        52.161                  
 02  5 18 00 04 11.0000000  0  5G15G13G10G12G05                                 
  21346186.772 9 112174977.549 9     -1849.353 9        55.911                  
  23755440.942 8 124835681.880 8     -2841.878 8        50.989                  
  24155543.537 7 126938228.573 7      2911.997 7        46.352                  
  25115352.142 7 131982082.790 7      2731.667 7        46.431                  
  23421449.408 8 123080553.608 8     -2503.381 8        50.314                  
 02  5 18 00 04 12.0000000  0  5G15G13G10G12G05                                 
  21346539.989 9 112176826.409 9     -1848.058 9        56.030                  
  23755981.623 8 124838524.549 8     -2844.917 8        49.698                  
  24154989.812 8 126935324.046 8      2905.424 8        49.068                  
  25114835.030 7 131979344.371 7      2737.808 7        46.439                  
  23421926.189 8 123083055.199 8     -2499.743 8        49.490                  
 02  5 18 00 04 13.0000000  0  5G15G13G10G12G05                                 
  21346886.576 9 112178675.424 9     -1849.519 9        54.804                  
  23756523.197 8 124841367.105 8     -2844.071 8        48.149                  
  24154436.801 8 126932419.412 8      2907.678 8        49.294                  
  25114309.092 7 131976605.763 7      2738.889 7        46.286                  
  23422402.917 8 123085557.047 8     -2502.063 8        48.492                  
 02  5 18 00 04 14.0000000  0  5G15G13G10G12G05                                 
  21347242.777 9 112180524.571 9     -1847.874 9        54.367                  
  23757064.933 8 124844209.660 8     -2842.554 8        50.439                  
  24153886.167 8 126929514.763 8      2903.046 8        50.076                  
  25113792.927 7 131973866.978 7      2738.202 7        45.955                  
  23422878.608 8 123088059.138 8     -2501.474 8        50.706                  
 02  5 18 00 04 15.0000000  0  5G15G13G10G12G05                                 
  21347595.172 9 112182373.888 9     -1849.225 9        54.417                  
  23757605.471 8 124847052.204 8     -2843.530 8        51.109                  
  24153331.656 7 126926610.038 7      2904.343 7        47.745                  
  25113267.810 7 131971128.014 7      2737.831 7        45.006                  
  23423354.317 8 123090561.476 8     -2503.681 8        50.128                  
 02  5 18 00 04 16.0000000  0  5G15G13G10G12G05                                 
  21347943.493 8 112184223.348 8     -1849.054 8        53.435                  
  23758141.666 8 124849894.679 8     -2841.768 8        49.916                  
  24152778.217 7 126923705.263 7      2903.252 7        47.442                  
  25112751.109 7 131968388.867 7      2740.550 7        45.891                  
  23423830.830 8 123093064.055 8     -2501.000 8        50.560                  
 02  5 18 00 04 17.0000000  0  5G15G13G10G12G05                                 
  21348299.641 8 112186072.949 8     -1848.388 8        53.414                  
  23758688.655 8 124852737.126 8     -2842.022 8        49.089                  
  24152226.993 7 126920800.430 7      2904.632 7        47.058                  
  25112224.956 7 131965649.538 7      2736.265 7        45.235                  
  23424306.933 8 123095566.896 8     -2506.578 8        50.027                  
 02  5 18 00 04 18.0000000  0  5G15G13G10G12G05                                 
  21348649.623 9 112187922.699 9     -1850.192 9        55.494                  
  23759229.550 8 124855579.540 8     -2842.119 8        48.773                  
  24151673.750 8 126917895.537 8      2906.003 8        49.071                  
  25111708.184 7 131962910.034 7      2738.584 7        44.439                  
  23424785.018 8 123098069.973 8     -2504.148 8        48.734                  
 02  5 18 00 04 19.0000000  0  5G15G13G10G12G05                                 
  21348998.570 8 112189772.615 8     -1849.177 8        53.044                  
  23759767.515 8 124858421.931 8     -2843.317 8        50.245                  
  24151119.864 8 126914990.601 8      2904.015 8        48.064                  
  25111182.191 7 131960170.345 7      2738.096 7        45.194                  
  23425259.959 8 123100573.280 8     -2503.897 8        51.846                  
 02  5 18 00 04 20.0000000  0  5G15G13G10G12G05                                 
  21349354.932 9 112191622.666 9     -1849.869 9        54.665                  
  23760308.303 8 124861264.249 8     -2840.707 8        50.073                  
  24150568.372 8 126912085.587 8      2906.317 8        49.560                  
  25110664.919 7 131957430.487 7      2737.185 7        46.020                  
  23425736.526 8 123103076.852 8     -2502.291 8        50.502                  
 02  5 18 00 04 21.0000000  0  5G15G13G10G12G05                                 
  21349705.165 9 112193472.869 9     -1850.439 9        56.311                  
  23760848.073 8 124864106.548 8     -2841.472 8        49.540                  
  24150015.898 8 126909180.544 8      2902.267 8        48.333                  
  25110140.767 7 131954690.439 7      2739.150 7        44.822                  
  23426211.306 8 123105580.673 8     -2503.311 8        48.783                  
 02  5 18 00 04 22.0000000  0  5G15G13G10G12G05                                 
  21350054.790 8 112195323.238 8     -1850.504 8        52.244                  
  23761392.917 8 124866948.849 8     -2842.442 8        50.151                  
  24149461.547 8 126906275.412 8      2904.806 8        48.400                  
  25109620.724 7 131951950.221 7      2737.988 7        46.559                  
  23426688.230 8 123108084.721 8     -2505.090 8        50.577                  
 02  5 18 00 04 23.0000000  0  5G15G13G10G12G05                                 
  21350412.206 8 112197173.757 8     -1850.717 8        53.157                  
  23761931.418 8 124869791.041 8     -2842.896 8        48.935                  
  24148909.841 8 126903370.256 8      2905.491 8        48.329                  
  25109098.395 8 131949209.812 8      2743.095 8        48.145                  
  23427165.601 8 123110589.030 8     -2506.417 8        49.723                  
 02  5 18 00 04 24.0000000  0  5G15G13G10G12G05                                 
  21350760.795 9 112199024.420 9     -1850.159 9        54.048                  
  23762472.671 8 124872633.232 8     -2841.416 8        49.410                  
  24148357.134 8 126900465.005 8      2907.184 8        49.133                  
  25108577.281 7 131946469.240 7      2736.595 7        46.919                  
  23427642.507 8 123113093.584 8     -2505.343 8        49.996                  
 02  5 18 00 04 25.0000000  0  5G15G13G10G12G05                                 
  21351112.189 9 112200875.232 9     -1850.568 9        56.166                  
  23763014.460 8 124875475.413 8     -2841.291 8        48.987                  
  24147802.730 8 126897559.759 8      2904.607 8        50.027                  
  25108055.219 8 131943728.461 8      2742.642 8        48.258                  
  23428117.430 8 123115598.380 8     -2503.775 8        50.439                  
 02  5 18 00 04 26.0000000  0  5G15G13G10G12G05                                 
  21351468.676 8 112202726.196 8     -1851.965 8        53.041                  
  23763555.909 8 124878317.506 8     -2842.910 8        49.626                  
  24147250.452 8 126894654.386 8      2906.792 8        49.288                  
  25107534.177 7 131940987.524 7      2741.952 7        45.317                  
  23428595.820 8 123118103.414 8     -2504.395 8        50.380                  
 02  5 18 00 04 27.0000000  0  5G15G13G10G12G05                                 
  21351816.122 9 112204577.312 9     -1851.477 9        55.391                  
  23764096.894 8 124881159.575 8     -2844.749 8        48.652                  
  24146698.585 8 126891749.019 8      2905.488 8        49.111                  
  25107011.847 7 131938246.396 7      2742.472 7        45.339                  
  23429071.815 8 123120608.703 8     -2508.278 8        49.851                  
 02  5 18 00 04 28.0000000  0  5G15G13G10G12G05                                 
  21352169.017 9 112206428.572 9     -1850.750 9        54.555                  
  23764638.647 8 124884001.649 8     -2838.706 8        49.819                  
  24146144.681 8 126888843.544 8      2906.877 8        48.963                  
  25106490.429 7 131935505.108 7      2742.264 7        45.888                  
  23429548.900 8 123123114.232 8     -2506.843 8        50.423                  
 02  5 18 00 04 29.0000000  0  5G15G13G10G12G05                                 
  21352526.558 9 112208279.973 9     -1850.131 9        54.083                  
  23765175.736 8 124886843.638 8     -2841.438 8        51.439                  
  24145591.832 8 126885938.055 8      2906.731 8        48.214                  
  25105970.673 7 131932763.617 7      2736.806 7        44.867                  
  23430026.128 8 123125620.003 8     -2505.924 8        49.025                  
 02  5 18 00 04 30.0000000  0  5G15G13G10G12G05                                 
  21352873.181 8 112210131.533 8     -1852.489 8        52.434                  
  23765718.972 8 124889685.595 8     -2842.926 8        51.570                  
  24145040.161 8 126883032.472 8      2905.986 8        49.941                  
  25105447.486 7 131930021.964 7      2745.056 7        46.811                  
  23430502.838 8 123128126.032 8     -2505.649 8        49.586                  
 02  5 18 00 04 31.0000000  0  5G15G13G10G12G05                                 
  21353227.471 8 112211983.250 8     -1852.954 8        52.580                  
  23766258.205 8 124892527.545 8     -2841.452 8        50.809                  
  24144486.865 8 126880126.866 8      2904.254 8        48.336                  
  25104927.050 7 131927280.122 7      2741.017 7        46.976                  
  23430979.869 8 123130632.289 8     -2506.598 8        49.348                  
 02  5 18 00 04 32.0000000  0  5G15G13G10G12G05                                 
  21353582.743 9 112213835.105 9     -1852.699 9        54.854                  
  23766799.673 8 124895369.446 8     -2841.182 8        50.228                  
  24143932.889 8 126877221.187 8      2906.571 8        50.429                  
  25104403.202 7 131924538.113 7      2744.588 7        47.915                  
  23431455.471 8 123133138.801 8     -2505.470 8        50.379                  
 02  5 18 00 04 33.0000000  0  5G15G13G10G12G05                                 
  21353930.545 8 112215687.107 8     -1853.081 8        53.343                  
  23767340.747 8 124898211.266 8     -2839.952 8        51.109                  
  24143381.165 8 126874315.460 8      2903.974 8        50.005                  
  25103884.035 7 131921795.909 7      2740.567 7        46.087                  
  23431933.003 8 123135645.562 8     -2505.115 8        50.486                  
 02  5 18 00 04 34.0000000  0  5G15G13G10G12G05                                 
  21354286.282 9 112217539.258 9     -1851.942 9        54.203                  
  23767879.390 8 124901053.099 8     -2843.239 8        49.410                  
  24142828.048 8 126871409.673 8      2906.219 8        48.388                  
  25103358.239 7 131919053.544 7      2741.953 7        47.358                  
  23432410.928 8 123138152.567 8     -2506.420 8        50.336                  
 02  5 18 00 04 35.0000000  0  5G15G13G10G12G05                                 
  21354639.802 9 112219391.567 9     -1853.141 9        55.562                  
  23768421.912 8 124903894.911 8     -2838.745 8        48.636                  
  24142273.822 7 126868503.829 7      2903.876 7        47.623                  
  25102840.234 8 131916310.990 8      2743.571 8        48.939                  
  23432888.424 8 123140659.819 8     -2506.738 8        49.561                  
 02  5 18 00 04 36.0000000  0  5G15G13G10G12G05                                 
  21354987.873 9 112221244.023 9     -1852.431 9        55.001                  
  23768959.162 8 124906736.610 8     -2839.538 8        48.997                  
  24141721.902 7 126865597.936 7      2906.543 7        47.614                  
  25102314.420 7 131913568.275 7      2739.474 7        47.264                  
  23433364.740 8 123143167.296 8     -2509.785 8        49.458                  
 02  5 18 00 04 37.0000000  0  5G15G13G10G12G05                                 
  21355344.807 9 112223096.621 9     -1852.840 9        55.138                  
  23769502.523 7 124909578.317 7     -2842.056 7        47.218                  
  24141169.356 8 126862691.969 8      2906.830 8        50.556                  
  25101796.916 7 131910825.362 7      2742.219 7        47.287                  
  23433842.469 8 123145675.045 8     -2508.164 8        51.787                  
 02  5 18 00 04 38.0000000  0  5G15G13G10G12G05                                 
  21355695.915 9 112224949.367 9     -1852.694 9        54.415                  
  23770044.991 8 124912420.044 8     -2842.374 8        48.398                  
  24140614.862 8 126859785.984 8      2906.184 8        49.204                  
  25101270.870 7 131908082.288 7      2742.811 7        46.837                  
  23434319.554 8 123148183.038 8     -2506.770 8        50.634                  
 02  5 18 00 04 39.0000000  0  5G15G13G10G12G05                                 
  21356044.915 9 112226802.275 9     -1852.633 9        56.100                  
  23770583.492 8 124915261.633 8     -2843.232 8        48.130                  
  24140062.602 7 126856879.894 7      2909.532 7        47.757                  
  25100751.828 7 131905339.018 7      2744.328 7        47.865                  
  23434796.103 8 123150691.255 8     -2509.085 8        50.274                  
 02  5 18 00 04 40.0000000  0  5G15G13G10G12G05                                 
  21356402.778 8 112228655.324 8     -1852.920 8        52.095                  
  23771128.783 8 124918103.228 8     -2843.418 8        48.197                  
  24139509.752 8 126853973.801 8      2906.029 8        48.457                  
  25100225.639 7 131902595.580 7      2744.450 7        47.216                  
  23435276.762 8 123153199.744 8     -2507.445 8        50.016                  
 02  5 18 00 04 41.0000000  0  5G15G13G10G12G05                                 
  21356752.582 8 112230508.515 8     -1853.746 8        53.905                  
  23771665.336 8 124920944.820 8     -2842.930 8        49.378                  
  24138956.081 8 126851067.599 8      2905.180 8        50.781                  
  25099707.991 7 131899851.970 7      2742.581 7        46.493                  
  23435752.435 8 123155708.452 8     -2507.156 8        49.560                  
 02  5 18 00 04 42.0000000  0  5G15G13G10G12G05                                 
  21357103.423 8 112232361.865 8     -1855.206 8        52.762                  
  23772205.713 8 124923786.315 8     -2843.523 8        49.232                  
  24138403.088 7 126848161.393 7      2906.593 7        47.469                  
  25099182.302 7 131897108.180 7      2741.248 7        46.369                  
  23436228.662 8 123158217.427 8     -2508.330 8        48.517                  
 02  5 18 00 04 43.0000000  0  5G15G13G10G12G05                                 
  21357461.679 9 112234215.364 9     -1853.195 9        54.720                  
  23772747.019 8 124926627.778 8     -2839.613 8        50.837                  
  24137850.917 7 126845255.083 7      2906.146 7        47.663                  
  25098663.743 7 131894364.206 7      2741.496 7        46.714                  
  23436705.676 8 123160726.629 8     -2509.009 8        48.679                  
 02  5 18 00 04 44.0000000  0  5G15G13G10G12G05                                 
  21357809.731 9 112236069.009 9     -1854.079 9        54.726                  
  23773284.841 7 124929469.251 7     -2841.174 7        47.983                  
  24137297.567 7 126842348.765 7      2908.195 7        46.891                  
  25098139.127 7 131891620.057 7      2742.548 7        45.545                  
  23437183.887 8 123163236.098 8     -2508.311 8        48.948                  
 02  5 18 00 04 45.0000000  0  5G15G13G10G12G05                                 
  21358161.608 9 112237922.796 9     -1855.143 9        54.058                  
  23773829.132 8 124932310.646 8     -2841.841 8        49.699                  
  24136744.021 7 126839442.344 7      2905.527 7        47.737                  
  25097619.674 7 131888875.725 7      2742.962 7        47.520                  
  23437662.616 8 123165745.797 8     -2511.699 8        49.209                  
 02  5 18 00 04 46.0000000  0  5G15G13G10G12G05                                 
  21358519.846 8 112239776.742 8     -1854.698 8        53.161                  
  23774371.153 8 124935151.995 8     -2838.005 8        48.589                  
  24136191.957 8 126836535.900 8      2906.386 8        50.237                  
  25097093.735 7 131886131.230 7      2744.668 7        47.538                  
  23438139.594 8 123168255.736 8     -2508.971 8        49.897                  
 02  5 18 00 04 47.0000000  0  5G15G13G10G12G05                                 
  21358867.256 9 112241630.838 9     -1853.537 9        54.251                  
  23774909.582 8 124937993.361 8     -2841.063 8        50.038                  
  24135638.143 8 126833629.389 8      2907.257 8        48.405                  
  25096575.230 7 131883386.545 7      2743.205 7        44.802                  
  23438616.679 8 123170765.936 8     -2509.531 8        50.603                  
 02  5 18 00 04 48.0000000  0  5G15G13G10G12G05                                 
  21359222.724 9 112243485.079 9     -1855.331 9        55.242                  
  23775453.158 8 124940834.650 8     -2841.641 8        48.579                  
  24135084.274 8 126830722.829 8      2906.460 8        49.825                  
  25096049.755 7 131880641.688 7      2747.019 7        46.990                  
  23439096.623 8 123173276.377 8     -2509.993 8        50.538                  
 02  5 18 00 04 49.0000000  0  5G15G13G10G12G05                                 
  21359578.300 9 112245339.462 9     -1855.061 9        56.124                  
  23775991.516 8 124943675.882 8     -2839.564 8        49.732                  
  24134532.086 8 126827816.220 8      2906.368 8        49.896                  
  25095529.695 7 131877896.658 7      2742.199 7        46.282                  
  23439572.743 8 123175787.054 8     -2510.110 8        49.479                  
 02  5 18 00 04 50.0000000  0  5G15G13G10G12G05                                 
  21359925.245 9 112247194.001 9     -1854.818 9        54.605                  
  23776534.502 8 124946517.115 8     -2842.152 8        50.069                  
  24133978.950 8 126824909.537 8      2909.828 8        50.418                  
  25095005.436 7 131875151.445 7      2743.631 7        47.051                  
  23440050.310 8 123178297.983 8     -2513.980 8        48.932                  
 02  5 18 00 04 51.0000000  0  5G15G13G10G12G05                                 
  21360283.340 9 112249048.695 9     -1854.155 9        54.332                  
  23777071.823 8 124949358.310 8     -2840.436 8        49.488                  
  24133424.474 7 126822002.825 7      2905.109 7        46.916                  
  25094484.143 7 131872406.057 7      2744.720 7        47.939                  
  23440528.146 8 123180809.167 8     -2514.268 8        49.870                  
 02  5 18 00 04 52.0000000  0  5G15G13G10G12G05                                 
  21360636.075 8 112250903.531 8     -1854.630 8        53.345                  
  23777613.469 8 124952199.439 8     -2840.405 8        48.865                  
  24132872.625 8 126819096.024 8      2906.579 8        49.027                  
  25093960.777 8 131869660.487 8      2743.720 8        49.049                  
  23441005.463 8 123183320.587 8     -2511.851 8        50.369                  
 02  5 18 00 04 53.0000000  0  5G15G13G10G12G05                                 
  21360984.735 8 112252758.510 8     -1854.813 8        53.898                  
  23778155.044 8 124955040.542 8     -2839.551 8        49.518                  
  24132320.812 8 126816189.214 8      2905.365 8        49.767                  
  25093439.449 8 131866914.752 8      2744.626 8        48.253                  
  23441482.995 8 123185832.244 8     -2510.454 8        51.118                  
 02  5 18 00 04 54.0000000  0  5G15G13G10G12G05                                 
  21361342.026 8 112254613.648 8     -1854.648 8        51.670                  
  23778693.080 8 124957881.626 8     -2840.491 8        49.865                  
  24131765.139 8 126813282.295 8      2906.992 8        49.168                  
  25092916.154 7 131864168.827 7      2747.034 7        47.478                  
  23441961.331 8 123188344.144 8     -2511.915 8        51.079                  
 02  5 18 00 04 55.0000000  0  5G15G13G10G12G05                                 
  21361693.599 8 112256468.939 8     -1856.039 8        53.601                  
  23779236.691 8 124960722.633 8     -2841.131 8        48.208                  
  24131213.594 8 126810375.375 8      2907.247 8        48.928                  
  25092393.896 7 131861422.731 7      2749.953 7        46.487                  
  23442440.703 8 123190856.301 8     -2513.484 8        49.864                  
 02  5 18 00 04 56.0000000  0  5G15G13G10G12G05                                 
  21362044.064 8 112258324.369 8     -1855.574 8        53.010                  
  23779777.390 8 124963563.629 8     -2839.940 8        49.584                  
  24130660.422 8 126807468.351 8      2905.411 8        50.299                  
  25091871.299 7 131858676.459 7      2749.282 7        47.081                  
  23442919.271 8 123193368.695 8     -2511.159 8        51.824                  
 02  5 18 00 04 57.0000000  0  5G15G13G10G12G05                                 
  21362402.035 9 112260179.945 9     -1854.916 9        54.474                  
  23780316.606 8 124966404.612 8     -2839.032 8        48.342                  
  24130105.947 7 126804561.313 7      2909.342 7        47.586                  
  25091347.558 7 131855930.025 7      2742.597 7        46.031                  
  23443395.731 8 123195881.342 8     -2512.481 8        50.653                  
 02  5 18 00 04 58.0000000  0  5G15G13G10G12G05                                 
  21362751.106 9 112262035.674 9     -1855.412 9        55.130                  
  23780859.270 8 124969245.491 8     -2842.386 8        49.591                  
  24129552.293 8 126801654.192 8      2905.141 8        48.633                  
  25090826.533 8 131853183.394 8      2743.064 8        48.472                  
  23443873.888 8 123198394.245 8     -2513.666 8        51.370                  
 02  5 18 00 04 59.0000000  0  5G15G13G10G12G05                                 
  21363103.340 9 112263891.564 9     -1856.172 9        55.758                  
  23781397.074 8 124972086.368 8     -2839.463 8        49.388                  
  24129000.944 8 126798747.035 8      2906.807 8        49.578                  
  25090302.417 7 131850436.604 7      2749.822 7        46.540                  
  23444352.027 8 123200907.376 8     -2514.203 8        51.834                  
