     2.11           OBSERVATION DATA    G                   RINEX VERSION / TYPE
BLANK OR G = GPS,  R = GLONASS,  E = GALILEO,  M = MIXED    COMMENT             
GNSS-SDR            joel                17-APR-25 09:02     PGM / RUN BY / DATE 
GPS OBSERVATION DATA FILE GENERATED BY GNSS-SDR             COMMENT             
GNSS-SDR VERSION 0.0.16                                     COMMENT             
See https://gnss-sdr.org                                    COMMENT             
DEFAULT MARKER NAME                                         MARKER NAME         
joel                CTTC                                    OBSERVER / AGENCY   
GNSS-SDR            Software Receiver   0.0.16              REC # / TYPE / VERS 
Antenna number      Antenna type                            ANT # / TYPE        
        0.0000        0.0000        0.0000                  APPROX POSITION XYZ 
        0.0000        0.0000        0.0000                  ANTENNA: DELTA H/E/N
     1     1                                                WAVELENGTH FACT L1/2
     4    C1    L1    D1    S1                              # / TYPES OF OBSERV 
  2002    05    18    00    00   42.1400000     GPS         TIME OF FIRST OBS   
    18                                                      LEAP SECONDS        
                                                            END OF HEADER       
 02  5 18 00 00 43.0000000  0  7G01G10G21G16G23G07G08                           
  23763590.557 7 124878517.381 7      3399.696 7        46.684                  
  21313658.664 9 112004040.667 9      -798.335 9        54.379                  
  21783585.520 8 114473519.344 8      1786.636 8        53.259                  
  23471245.193 8 123342228.695 8     -3662.994 8        49.406                  
  23001127.174 8 120871741.352 8     -2818.485 8        49.977                  
  24961618.630 7 131174192.514 7     -1906.860 7        45.635                  
  20445704.806 9 107442910.360 9       868.249 9        55.798                  
 02  5 18 00 00 44.0000000  0  7G01G10G21G16G23G07G08                           
  23762945.592 7 124875120.259 7      3394.653 7        46.770                  
  21313811.211 8 112004839.024 8      -799.526 8        53.914                  
  21783249.386 9 114471732.133 9      1786.414 9        54.226                  
  23471943.854 8 123345892.470 8     -3663.426 8        50.485                  
  23001664.817 8 120874560.620 8     -2818.305 8        50.206                  
  24961982.032 7 131176097.041 7     -1909.812 7        46.109                  
  20445541.823 9 107442042.516 9       867.789 9        56.825                  
 02  5 18 00 00 45.0000000  0  7G01G10G21G16G23G07G08                           
  23762299.002 7 124871723.311 7      3394.044 7        47.506                  
  21313963.044 9 112005638.022 9      -798.032 9        54.605                  
  21782906.712 8 114469945.232 8      1786.910 8        53.225                  
  23472640.764 8 123349556.442 8     -3662.073 8        50.282                  
  23002198.993 8 120877380.250 8     -2818.289 8        51.033                  
  24962342.700 7 131178001.923 7     -1904.901 7        46.791                  
  20445380.198 9 107441175.149 9       867.250 9        57.368                  
 02  5 18 00 00 46.0000000  0  7G01G10G21G16G23G07G08                           
  23761651.178 8 124868326.515 8      3395.471 8        48.416                  
  21314115.253 9 112006437.619 9      -799.383 9        54.144                  
  21782563.555 8 114468158.641 8      1786.830 8        53.634                  
  23473337.638 8 123353220.599 8     -3665.614 8        49.298                  
  23002736.511 8 120880200.292 8     -2822.643 8        50.576                  
  24962709.087 7 131179907.164 7     -1905.451 7        45.005                  
  20445215.677 9 107440308.259 9       866.660 9        56.301                  
 02  5 18 00 00 47.0000000  0  7G01G10G21G16G23G07G08                           
  23761005.713 7 124864929.872 7      3392.840 7        47.629                  
  21314268.462 8 112007237.812 8      -801.047 8        53.804                  
  21782227.278 8 114466372.352 8      1785.611 8        52.244                  
  23474035.637 8 123356884.951 8     -3665.565 8        50.480                  
  23003272.582 8 120883020.723 8     -2822.779 8        49.774                  
  24963068.469 7 131181812.745 7     -1907.411 7        45.937                  
  20445048.388 9 107439441.823 9       865.979 9        55.631                  
 02  5 18 00 00 48.0000000  0  7G01G10G21G16G23G07G08                           
  23760360.034 7 124861533.391 7      3396.517 7        47.347                  
  21314420.241 9 112008038.612 9      -801.060 9        56.882                  
  21781887.784 8 114464586.358 8      1785.159 8        52.282                  
  23474732.958 8 123360549.505 8     -3664.552 8        50.440                  
  23003811.941 8 120885841.546 8     -2822.509 8        50.774                  
  24963433.193 7 131183718.683 7     -1905.886 7        46.243                  
  20444880.991 9 107438575.862 9       864.952 9        57.924                  
 02  5 18 00 00 49.0000000  0  7G01G10G21G16G23G07G08                           
  23759712.085 8 124858137.070 8      3396.604 8        49.104                  
  21314573.540 9 112008840.055 9      -802.225 9        57.279                  
  21781545.575 8 114462800.662 8      1785.502 8        53.589                  
  23475429.671 8 123364214.251 8     -3667.134 8        50.711                  
  23004345.867 8 120888662.780 8     -2821.147 8        49.431                  
  24963795.113 7 131185624.983 7     -1907.315 7        46.815                  
  20444713.254 9 107437710.377 9       865.610 9        57.236                  
 02  5 18 00 00 50.0000000  0  7G01G10G21G16G23G07G08                           
  23759066.281 7 124854740.906 7      3396.990 7        47.098                  
  21314726.105 9 112009642.095 9      -801.909 9        56.271                  
  21781204.919 8 114461015.265 8      1787.111 8        53.307                  
  23476128.386 8 123367879.173 8     -3665.728 8        48.833                  
  23004883.850 8 120891484.407 8     -2822.127 8        49.600                  
  24964157.050 7 131187531.626 7     -1905.313 7        47.781                  
  20444545.267 9 107436845.361 9       864.884 9        58.654                  
 02  5 18 00 00 51.0000000  0  7G01G10G21G16G23G07G08                           
  23758421.549 7 124851344.921 7      3393.905 7        47.527                  
  21314878.993 9 112010444.732 9      -802.743 9        54.759                  
  21780869.375 8 114459230.167 8      1783.596 8        53.158                  
  23476824.849 8 123371544.307 8     -3665.764 8        50.494                  
  23005422.261 8 120894306.419 8     -2821.814 8        49.856                  
  24964522.918 7 131189438.629 7     -1906.597 7        47.332                  
  20444381.391 9 107435980.807 9       863.709 9        54.628                  
 02  5 18 00 00 52.0000000  0  7G01G10G21G16G23G07G08                           
  23757774.333 8 124847949.075 8      3397.190 8        48.306                  
  21315031.952 9 112011247.989 9      -804.183 9        54.026                  
  21780530.221 8 114457445.364 8      1784.977 8        51.519                  
  23477522.170 8 123375209.640 8     -3666.343 8        49.674                  
  23005957.206 8 120897128.815 8     -2822.246 8        51.387                  
  24964882.460 7 131191345.991 7     -1911.302 7        46.037                  
  20444219.211 9 107435116.730 9       864.520 9        56.362                  
 02  5 18 00 00 53.0000000  0  7G01G10G21G16G23G07G08                           
  23757127.188 7 124844553.402 7      3393.063 7        47.986                  
  21315184.857 9 112012051.876 9      -805.068 9        55.024                  
  21780186.153 8 114455660.858 8      1784.931 8        51.848                  
  23478220.813 8 123378875.143 8     -3662.367 8        49.494                  
  23006496.976 8 120899951.603 8     -2823.619 8        49.660                  
  24965249.365 7 131193253.699 7     -1908.641 7        46.797                  
  20444056.979 9 107434253.131 9       863.371 9        57.121                  
 02  5 18 00 00 54.0000000  0  7G01G10G21G16G23G07G08                           
  23756482.510 7 124841157.887 7      3394.703 7        46.979                  
  21315338.173 9 112012856.360 9      -805.104 9        54.014                  
  21779846.981 8 114453876.667 8      1783.999 8        53.865                  
  23478916.865 8 123382540.856 8     -3666.087 8        50.115                  
  23007032.225 8 120902774.776 8     -2824.017 8        50.437                  
  24965609.086 7 131195161.758 7     -1906.380 7        46.830                  
  20443895.210 9 107433390.008 9       863.128 9        54.943                  
 02  5 18 00 00 55.0000000  0  7G01G10G21G16G23G07G08                           
  23755836.723 8 124837762.521 8      3394.965 8        48.816                  
  21315491.221 9 112013661.441 9      -805.396 9        54.167                  
  21779511.615 8 114452092.796 8      1782.432 8        53.360                  
  23479614.686 8 123386206.755 8     -3667.159 8        49.607                  
  23007570.725 8 120905598.340 8     -2822.360 8        49.872                  
  24965973.632 7 131197070.174 7     -1908.913 7        47.057                  
  20443734.175 9 107432527.338 9       862.160 9        56.865                  
 02  5 18 00 00 56.0000000  0  7G01G10G21G16G23G07G08                           
  23755189.239 7 124834367.326 7      3392.404 7        46.773                  
  21315644.805 9 112014467.138 9      -806.163 9        54.591                  
  21779171.568 9 114450309.209 9      1782.481 9        54.233                  
  23480314.079 7 123389872.845 7     -3668.050 7        47.429                  
  23008107.922 8 120908422.322 8     -2824.774 8        51.899                  
  24966337.589 7 131198978.942 7     -1904.841 7        46.369                  
  20443571.674 9 107431665.145 9       861.569 9        56.022                  
 02  5 18 00 00 57.0000000  0  7G01G10G21G16G23G07G08                           
  23754544.650 8 124830972.292 8      3395.849 8        48.708                  
  21315798.336 9 112015273.470 9      -806.509 9        55.377                  
  21778828.089 8 114448525.933 8      1784.772 8        51.743                  
  23481009.506 7 123393539.124 7     -3663.732 7        47.422                  
  23008644.386 8 120911246.685 8     -2824.401 8        50.930                  
  24966698.346 7 131200888.067 7     -1912.639 7        45.964                  
  20443405.277 9 107430803.429 9       861.552 9        58.266                  
 02  5 18 00 00 58.0000000  0  7G01G10G21G16G23G07G08                           
  23753898.220 8 124827577.410 8      3397.145 8        48.503                  
  21315952.081 9 112016080.397 9      -806.609 9        55.501                  
  21778490.329 8 114446742.946 8      1783.034 8        51.993                  
  23481707.827 7 123397205.601 7     -3665.607 7        47.738                  
  23009182.922 8 120914071.446 8     -2825.130 8        50.080                  
  24967065.037 7 131202797.535 7     -1911.458 7        45.917                  
  20443239.113 9 107429942.189 9       861.865 9        56.998                  
 02  5 18 00 00 59.0000000  0  7G01G10G21G16G23G07G08                           
  23753251.076 8 124824182.700 8      3395.359 8        49.095                  
  21316105.969 9 112016887.921 9      -807.637 9        56.592                  
  21778154.999 8 114444960.266 8      1782.947 8        50.761                  
  23482406.274 8 123400872.275 8     -3666.557 8        48.522                  
  23009718.796 8 120916896.586 8     -2824.324 8        49.961                  
  24967425.347 7 131204707.368 7     -1910.910 7        44.696                  
  20443072.681 9 107429081.403 9       860.775 9        55.324                  
 02  5 18 00 01  0.0000000  0  7G01G10G21G16G23G07G08                           
  23752605.861 8 124820788.142 8      3397.692 8        49.838                  
  21316259.643 9 112017696.078 9      -807.977 9        57.438                  
  21777813.522 8 114443177.873 8      1780.439 8        52.410                  
  23483102.773 8 123404539.131 8     -3670.428 8        48.699                  
  23010258.709 8 120919722.103 8     -2826.592 8        51.591                  
  24967791.144 7 131206617.536 7     -1908.935 7        46.978                  
  20442905.695 9 107428221.093 9       859.875 9        57.002                  
 02  5 18 00 01  1.0000000  0  7G01G10G21G16G23G07G08                           
  23751959.914 8 124817393.741 8      3396.173 8        50.105                  
  21316414.138 9 112018504.852 9      -808.688 9        55.335                  
  21777470.294 8 114441395.790 8      1782.213 8        53.966                  
  23483801.148 8 123408206.186 8     -3665.098 8        49.379                  
  23010795.155 8 120922548.020 8     -2823.881 8        49.272                  
  24968153.278 7 131208528.075 7     -1912.297 7        47.398                  
  20442740.425 9 107427361.259 9       859.801 9        56.642                  
 02  5 18 00 01  2.0000000  0  7G01G10G21G16G23G07G08                           
  23751313.180 8 124813999.510 8      3395.810 8        49.066                  
  21316567.401 9 112019314.225 9      -810.838 9        54.345                  
  21777134.696 8 114439613.991 8      1782.071 8        50.746                  
  23484499.755 8 123411873.434 8     -3666.528 8        49.124                  
  23011333.263 8 120925374.329 8     -2824.886 8        50.197                  
  24968517.824 7 131210438.945 7     -1912.135 7        45.641                  
  20442578.621 9 107426501.904 9       858.932 9        57.193                  
 02  5 18 00 01  3.0000000  0  7G01G10G21G16G23G07G08                           
  23750667.947 8 124810605.432 8      3396.393 8        48.964                  
  21316721.039 9 112020124.192 9      -810.331 9        55.032                  
  21776798.651 8 114437832.515 8      1781.650 8        51.973                  
  23485196.004 8 123415540.857 8     -3666.904 8        51.015                  
  23011872.067 8 120928201.043 8     -2826.686 8        50.886                  
  24968882.030 7 131212350.184 7     -1910.559 7        44.744                  
  20442416.924 9 107425643.000 9       858.104 9        55.570                  
 02  5 18 00 01  4.0000000  0  7G01G10G21G16G23G07G08                           
  23750023.180 8 124807211.508 8      3390.088 8        49.268                  
  21316875.088 9 112020934.780 9      -810.880 9        54.674                  
  21776456.387 9 114436051.350 9      1780.677 9        54.057                  
  23485895.362 8 123419208.501 8     -3668.045 8        52.166                  
  23012407.620 8 120931028.149 8     -2826.596 8        53.063                  
  24969242.842 7 131214261.774 7     -1910.283 7        45.143                  
  20442255.888 9 107424784.575 9       858.148 9        56.759                  
 02  5 18 00 01  5.0000000  0  7G01G10G21G16G23G07G08                           
  23749375.874 8 124803817.766 8      3389.047 8        48.139                  
  21317028.833 9 112021745.999 9      -812.003 9        56.107                  
  21776115.411 8 114434270.482 8      1779.852 8        53.745                  
  23486593.469 8 123422876.316 8     -3666.011 8        49.209                  
  23012947.782 8 120933855.640 8     -2827.706 8        51.187                  
  24969609.996 7 131216173.713 7     -1912.792 7        45.784                  
  20442094.638 9 107423926.625 9       858.151 9        56.302                  
 02  5 18 00 01  6.0000000  0  7G01G10G21G16G23G07G08                           
  23748729.569 8 124800424.169 8      3392.093 8        48.421                  
  21317182.703 9 112022557.814 9      -812.129 9        56.325                  
  21775779.938 8 114432489.913 8      1779.896 8        52.030                  
  23487290.468 8 123426544.329 8     -3664.422 8        48.789                  
  23013485.015 8 120936683.498 8     -2827.003 8        48.881                  
  24969970.879 7 131218085.992 7     -1910.493 7        46.428                  
  20441934.710 9 107423069.154 9       857.032 9        57.028                  
 02  5 18 00 01  7.0000000  0  7G01G10G21G16G23G07G08                           
  23748085.481 8 124797030.723 8      3392.592 8        49.177                  
  21317336.662 9 112023370.226 9      -813.274 9        54.951                  
  21775443.053 8 114430709.640 8      1779.829 8        52.921                  
  23487989.665 8 123430212.541 8     -3668.269 8        50.152                  
  23014023.247 8 120939511.762 8     -2827.343 8        48.923                  
  24970337.480 7 131219998.640 7     -1914.431 7        46.141                  
  20441772.817 9 107422212.146 9       856.574 9        57.068                  
 02  5 18 00 01  8.0000000  0  7G01G10G21G16G23G07G08                           
  23747438.568 8 124793637.467 8      3393.928 8        48.889                  
  21317491.408 9 112024183.271 9      -813.296 9        57.850                  
  21775100.897 8 114428929.669 8      1778.966 8        52.584                  
  23488687.432 8 123433880.933 8     -3666.719 8        50.799                  
  23014562.427 8 120942340.417 8     -2828.543 8        49.931                  
  24970700.025 8 131221911.639 8     -1914.163 8        48.182                  
  20441607.314 9 107421355.601 9       857.239 9        58.692                  
 02  5 18 00 01  9.0000000  0  7G01G10G21G16G23G07G08                           
  23746792.514 8 124790244.353 8      3391.219 8        48.029                  
  21317645.475 9 112024996.930 9      -813.809 9        55.603                  
  21774760.474 8 114427149.990 8      1780.312 8        53.915                  
  23489384.413 8 123437549.528 8     -3667.220 8        48.443                  
  23015099.356 8 120945169.476 8     -2829.959 8        50.449                  
  24971064.499 8 131223824.982 8     -1912.733 8        48.047                  
  20441442.580 9 107420499.537 9       855.923 9        57.489                  
 02  5 18 00 01 10.0000000  0  7G01G10G21G16G23G07G08                           
  23746148.782 8 124786851.394 8      3397.264 8        49.665                  
  21317800.560 9 112025811.190 9      -814.380 9        54.984                  
  21774425.144 8 114425370.613 8      1779.871 8        53.375                  
  23490083.825 8 123441218.312 8     -3669.609 8        49.564                  
  23015639.429 8 120947998.930 8     -2828.591 8        50.119                  
  24971429.760 8 131225738.682 8     -1914.152 8        48.423                  
  20441277.524 9 107419643.949 9       855.830 9        56.887                  
 02  5 18 00 01 11.0000000  0  7G01G10G21G16G23G07G08                           
  23745502.299 7 124783458.613 7      3393.349 7        47.542                  
  21317955.324 9 112026626.045 9      -815.053 9        56.144                  
  21774088.474 8 114423591.533 8      1779.056 8        51.792                  
  23490781.896 8 123444887.279 8     -3669.680 8        50.922                  
  23016176.500 8 120950828.753 8     -2827.748 8        50.590                  
  24971791.840 8 131227652.729 8     -1913.670 8        48.147                  
  20441111.842 9 107418788.837 9       854.973 9        57.305                  
 02  5 18 00 01 12.0000000  0  7G01G10G21G16G23G07G08                           
  23744855.905 8 124780065.977 8      3389.545 8        49.999                  
  21318109.748 9 112027441.519 9      -816.640 9        57.108                  
  21773745.228 8 114421812.764 8      1779.355 8        53.133                  
  23491479.449 8 123448556.446 8     -3669.312 8        51.405                  
  23016715.734 8 120953658.963 8     -2829.948 8        50.665                  
  24972158.744 7 131229567.130 7     -1918.454 7        47.876                  
  20440946.553 9 107417934.178 9       854.478 9        57.349                  
 02  5 18 00 01 13.0000000  0  7G01G10G21G16G23G07G08                           
  23744211.298 8 124776673.505 8      3391.713 8        48.966                  
  21318266.030 9 112028257.629 9      -816.411 9        56.971                  
  21773406.360 8 114420034.306 8      1778.243 8        52.768                  
  23492178.503 8 123452225.792 8     -3669.395 8        50.377                  
  23017255.235 8 120956489.562 8     -2828.608 8        50.187                  
  24972519.055 7 131231481.871 7     -1913.301 7        46.491                  
  20440784.410 9 107417079.995 9       854.123 9        56.041                  
 02  5 18 00 01 14.0000000  0  7G01G10G21G16G23G07G08                           
  23743565.815 8 124773281.202 8      3392.187 8        48.570                  
  21318421.151 9 112029074.330 9      -816.833 9        54.917                  
  21773072.709 8 114418256.155 8      1778.606 8        51.988                  
  23492876.288 8 123455895.338 8     -3670.831 8        49.975                  
  23017792.396 8 120959320.566 8     -2830.583 8        50.850                  
  24972887.372 7 131233396.973 7     -1915.976 7        46.569                  
  20440624.053 9 107416226.288 9       854.178 9        54.650                  
 02  5 18 00 01 15.0000000  0  7G01G10G21G16G23G07G08                           
  23742918.849 8 124769889.055 8      3390.615 8        48.705                  
  21318576.290 9 112029891.630 9      -817.226 9        55.309                  
  21772733.484 8 114416478.292 8      1778.188 8        52.842                  
  23493573.967 8 123459565.079 8     -3669.919 8        49.045                  
  23018333.863 8 120962151.968 8     -2830.897 8        50.297                  
  24973249.648 7 131235312.428 7     -1916.105 7        46.908                  
  20440463.804 9 107415373.060 9       853.195 9        55.708                  
 02  5 18 00 01 16.0000000  0  7G01G10G21G16G23G07G08                           
  23742273.813 8 124766497.061 8      3395.033 8        48.235                  
  21318731.358 9 112030709.537 9      -818.504 9        55.980                  
  21772392.310 8 114414700.739 8      1778.254 8        52.833                  
  23494273.932 8 123463234.995 8     -3672.089 8        49.590                  
  23018869.988 8 120964983.752 8     -2831.743 8        50.732                  
  24973615.838 7 131237228.229 7     -1915.940 7        46.184                  
  20440303.823 9 107414520.308 9       853.054 9        56.604                  
 02  5 18 00 01 17.0000000  0  7G01G10G21G16G23G07G08                           
  23741629.742 7 124763105.249 7      3388.895 7        46.925                  
  21318887.979 9 112031528.086 9      -819.215 9        56.123                  
  21772053.782 9 114412923.472 9      1777.477 9        54.416                  
  23494971.199 8 123466905.115 8     -3670.897 8        50.236                  
  23019409.257 8 120967815.906 8     -2834.098 8        50.225                  
  24973980.742 8 131239144.390 8     -1916.846 8        48.113                  
  20440143.252 9 107413668.011 9       852.010 9        57.660                  
 02  5 18 00 01 18.0000000  0  7G01G10G21G16G23G07G08                           
  23740983.956 7 124759713.578 7      3392.965 7        47.715                  
  21319043.762 9 112032347.234 9      -820.193 9        55.371                  
  21771719.292 8 114411146.520 8      1775.583 8        53.195                  
  23495669.449 8 123470575.416 8     -3672.516 8        49.396                  
  23019949.169 8 120970648.452 8     -2830.600 8        49.601                  
  24974342.553 7 131241060.889 7     -1914.785 7        47.697                  
  20439983.771 9 107412816.189 9       850.983 9        57.426                  
 02  5 18 00 01 19.0000000  0  7G01G10G21G16G23G07G08                           
  23740337.043 7 124756322.076 7      3392.725 7        47.749                  
  21319200.973 9 112033166.975 9      -819.750 9        54.668                  
  21771381.442 8 114409369.842 8      1774.968 8        52.677                  
  23496368.503 8 123474245.912 8     -3669.740 8        50.746                  
  23020485.794 8 120973481.406 8     -2832.119 8        50.266                  
  24974711.120 8 131242977.739 8     -1916.068 8        48.139                  
  20439822.199 9 107411964.844 9       850.792 9        56.584                  
 02  5 18 00 01 20.0000000  0  7G01G10G21G16G23G07G08                           
  23739693.741 7 124752931.001 7      3389.512 7        47.300                  
  21319357.971 8 112033987.152 8      -819.462 8        53.409                  
  21771039.572 8 114407593.704 8      1774.784 8        50.988                  
  23497066.682 8 123477916.470 8     -3671.954 8        50.064                  
  23021027.333 8 120976314.630 8     -2831.822 8        50.787                  
  24975072.396 7 131244895.298 7     -1918.474 7        47.201                  
  20439658.590 9 107411114.080 9       849.389 9        56.528                  
 02  5 18 00 01 21.0000000  0  7G01G10G21G16G23G07G08                           
  23739049.527 7 124749551.260 7      3371.114 7        46.157                  
  21319513.628 9 112034801.279 9      -808.489 9        55.033                  
  21770703.545 8 114405827.042 8      1759.840 8        51.142                  
  23497763.699 8 123481581.723 8     -3662.768 8        51.005                  
  23021565.065 8 120979143.129 8     -2823.847 8        51.684                  
  24975442.999 7 131246828.028 7     -1945.603 7        43.748                  
  20439496.071 9 107410268.186 9       841.609 9        57.166                  
 02  5 18 00 01 22.0000000  0  7G01G10G21G16G23G07G08                           
  23738408.583 6 124746190.719 6      3349.288 6        40.869                  
  21319666.443 8 112035604.798 8      -797.092 8        51.772                  
  21770375.487 7 114404076.282 7      1746.021 7        47.489                  
  23498461.698 8 123485237.980 8     -3651.727 8        50.762                  
  23022102.262 8 120981963.485 8     -2816.329 8        53.394                  
  24975813.299 7 131248786.024 7     -1970.507 7        45.109                  
  20439334.410 9 107409430.090 9       834.140 9        59.035                  
 02  5 18 00 01 23.0000000  0  7G01G10G21G16G23G07G08                           
  23737774.214 8 124742848.752 8      3334.441 8        50.008                  
  21319817.687 8 112036397.515 8      -787.664 8        48.409                  
  21770044.321 8 114402341.020 8      1728.428 8        52.042                  
  23499151.014 7 123488885.100 7     -3641.236 7        44.496                  
  23022637.403 7 120984775.660 7     -2810.099 7        46.725                  
  24976193.141 8 131250768.738 8     -1995.511 8        50.206                  
  20439175.662 9 107408599.821 9       827.728 9        56.928                  
 02  5 18 00 01 24.0000000  0  7G01G10G21G16G23G07G08                           
  23737141.312 8 124739520.651 8      3329.001 8        52.857                  
  21319966.947 8 112037182.893 8      -785.854 8        53.985                  
  21769713.798 9 114400617.231 9      1723.279 9        58.391                  
  23499846.994 7 123492525.811 7     -3642.094 7        44.026                  
  23023171.151 7 120987581.799 7     -2806.865 7        43.028                  
  24976572.071 7 131252769.980 7     -2006.482 7        45.737                  
  20439019.058 8 107407775.426 8       826.047 8        49.893                  
 02  5 18 00 01 25.0000000  0  7G01G10G21G16G23G07G08                           
  23736507.783 8 124736193.747 8      3326.357 8        49.775                  
  21320116.475 9 112037968.300 9      -786.647 9        57.163                  
  21769383.185 9 114398894.542 9      1722.547 9        58.956                  
  23500542.135 8 123496166.368 8     -3639.924 8        49.144                  
  23023704.613 8 120990387.953 8     -2805.568 8        48.385                  
  24976959.400 6 131254773.014 6     -2002.783 6        40.218                  
  20438859.112 8 107406951.827 8       821.284 8        48.550                  
 02  5 18 00 01 26.0000000  0  7G01G10G21G16G23G07G08                           
  23735874.612 7 124732867.676 7      3327.995 7        47.404                  
  21320265.931 9 112038754.008 9      -786.440 9        55.774                  
  21769056.146 8 114397172.437 8      1723.390 8        53.313                  
  23501230.950 8 123499808.066 8     -3642.426 8        48.390                  
  23024237.967 8 120993193.707 8     -2806.321 8        49.289                  
  24977333.399 7 131256776.122 7     -2001.784 7        46.462                  
  20438700.435 8 107406128.546 8       824.528 8        49.641                  
 02  5 18 00 01 27.0000000  0  7G01G10G21G16G23G07G08                           
  23735240.923 7 124729533.121 7      3345.197 7        44.816                  
  21320416.246 8 112039545.660 8      -797.645 8        51.836                  
  21768730.840 8 114395443.341 8      1738.090 8        48.992                  
  23501927.342 7 123503457.754 7     -3652.781 7        44.975                  
  23024776.575 7 120996001.936 7     -2807.619 7        44.539                  
  24977714.670 7 131258766.673 7     -1976.597 7        47.881                  
  20438542.723 7 107405301.656 7       827.416 7        47.276                  
 02  5 18 00 01 28.0000000  0  7G01G10G21G16G23G07G08                           
  23734601.927 6 124726183.117 6      3361.523 6        39.818                  
  21320569.401 7 112040347.183 7      -808.990 7        45.936                  
  21768400.782 7 114393700.657 7      1747.458 7        45.196                  
  23502624.019 6 123507122.190 6     -3662.775 6        39.576                  
  23025305.516 6 120998814.607 6     -2820.013 6        39.585                  
  24978084.881 7 131260733.732 7     -1954.036 7        45.400                  
  20438385.529 7 107404467.319 7       837.860 7        47.237                  
 02  5 18 00 01 29.0000000  0  7G01G10G21G16G23G07G08                           
  23733962.716 6 124722820.152 6      3366.445 6        37.354                  
  21320723.879 7 112041157.106 7      -805.020 7        42.456                  
  21768063.897 6 114391947.129 6      1756.234 6        41.714                  
  23503323.002 6 123510798.262 6     -3688.598 6        37.148                  
  23025843.392 6 121001631.185 6     -2822.233 6        37.038                  
  24978460.005 7 131262681.137 7     -1952.677 7        42.283                  
  20438226.531 7 107403627.462 7       841.202 7        47.659                  
 02  5 18 00 01 30.0000000  0  7G01G10G21G16G23G07G08                           
  23733325.882 5 124719471.905 5      3333.982 5        35.284                  
  21320875.622 6 112041959.424 6      -789.903 6        37.243                  
  21767729.300 6 114390203.161 6      1743.179 6        36.682                  
  23504026.005 5 123514488.926 5     -3693.751 5        35.312                  
  23026377.693 5 121004431.272 5     -2787.461 5        35.533                  
  24978829.233 6 131264637.294 6     -1960.542 6        37.089                  
  20438068.211 9 107402788.503 9       838.010 9        57.510                  
 02  5 18 00 01 31.0000000  0  7G01G10G21G16G23G07G08                           
  23732691.210 5 124716146.415 5      3316.318 5        35.282                  
  21321026.062 5 112042749.132 5      -791.698 5        35.435                  
  21767402.582 5 114388474.737 5      1705.625 5        35.249                  
  23504733.922 5 123518196.519 5     -3716.690 5        35.517                  
  23026906.170 5 121007208.277 5     -2763.344 5        35.360                  
  24979203.339 5 131266610.022 5     -1976.303 5        34.952                  
  20437910.732 9 107401952.411 9       834.908 9        54.300                  
 02  5 18 00 01 32.0000000  0  7G01G10G21G16G23G07G08                           
  23732063.686 5 124712832.568 5      3315.785 5        35.440                  
  21321175.465 5 112043532.677 5      -775.979 5        35.378                  
  21767081.458 5 114386755.131 5      1723.923 5        35.354                  
  23505435.907 5 123521906.230 5     -3704.743 5        35.701                  
  23027436.344 5 121009976.852 5     -2783.140 5        35.972                  
  24979581.948 5 131268594.346 5     -1978.530 5        34.806                  
  20437753.984 8 107401119.884 8       832.665 8        50.617                  
 02  5 18 00 01 33.0000000  0  7G01G10G21G16G23G07G08                           
  23731427.977 5 124709503.887 5      3330.585 5        35.911                  
  21321326.619 6 112044325.512 6      -797.418 6        36.133                  
  21766747.683 5 114385026.119 5      1740.239 5        35.960                  
  23506138.570 6 123525601.255 6     -3684.530 6        36.105                  
  23027963.248 6 121012763.134 6     -2793.854 6        36.174                  
  24979960.128 5 131270570.404 5     -1964.899 5        35.963                  
  20437596.147 8 107400286.877 8       833.106 8        53.801                  
 02  5 18 00 01 34.0000000  0  7G01G10G21G16G23G07G08                           
  23730789.571 6 124706159.340 6      3341.280 6        36.253                  
  21321481.525 6 112045128.277 6      -803.108 6        38.277                  
  21766415.533 6 114383286.783 6      1735.744 6        38.021                  
  23506842.770 6 123529283.380 6     -3674.899 6        36.149                  
  23028501.981 6 121015567.068 6     -2793.967 6        36.638                  
  24980330.624 6 131272535.887 6     -1967.597 6        39.547                  
  20437439.615 9 107399452.783 9       831.679 9        54.647                  
 02  5 18 00 01 35.0000000  0  7G01G10G21G16G23G07G08                           
  23730154.935 6 124702819.425 6      3334.165 6        36.708                  
  21321631.286 6 112045928.823 6      -802.472 6        39.072                  
  21766081.383 6 114381552.116 6      1738.963 6        38.550                  
  23507539.269 6 123532957.656 6     -3671.022 6        36.948                  
  23029031.994 6 121018372.185 6     -2804.342 6        37.154                  
  24980710.466 6 131274510.746 6     -1971.830 6        38.300                  
  20437283.779 8 107398622.432 8       830.732 8        52.854                  
 02  5 18 00 01 36.0000000  0  7G01G10G21G16G23G07G08                           
  23729518.815 6 124699476.536 6      3349.771 6        38.734                  
  21321785.174 7 112046731.855 7      -801.773 7        42.766                  
  21765753.450 6 114379816.387 6      1740.231 6        41.099                  
  23508233.248 6 123536623.841 6     -3657.883 6        39.188                  
  23029568.833 6 121021183.657 6     -2817.136 6        39.292                  
  24981080.140 6 131276486.549 6     -1971.763 6        41.019                  
  20437128.587 8 107397793.288 8       826.969 8        51.354                  
 02  5 18 00 01 38.0000000  0  7G01G10G21G16G23G07G08                           
  23728252.688 7 124692777.095 7      3351.270 7        46.427                  
  21322097.274 8 112048347.564 8      -810.334 8        49.390                  
  21765096.799 8 114376337.941 8      1745.245 8        52.445                  
  23509616.811 7 123543932.682 7     -3648.809 7        45.730                  
  23030644.762 7 121026828.956 7     -2830.976 7        47.401                  
  24981832.748 7 131280436.249 7     -1971.708 7        44.462                  
  20436807.516 8 107396138.424 8       827.018 8        53.065                  
 02  5 18 00 01 39.0000000  0  7G01G10G21G16G23G07G08                           
  23727598.771 7 124689417.048 7      3361.631 7        42.130                  
  21322248.088 7 112049162.507 7      -823.981 7        46.429                  
  21764762.613 7 114374592.031 7      1756.776 7        45.564                  
  23510317.205 7 123547577.814 7     -3650.900 7        42.190                  
  23031181.101 7 121029664.167 7     -2836.784 7        42.129                  
  24982214.787 7 131282404.639 7     -1952.239 7        42.959                  
  20436648.964 8 107395310.887 8       828.544 8        52.870                  
 02  5 18 00 01 40.0000000  0  7G01G10G21G16G23G07G08                           
  23726961.258 6 124686042.982 6      3377.340 6        37.612                  
  21322405.657 6 112049986.407 6      -822.253 6        40.875                  
  21764424.084 6 114372835.847 6      1754.459 6        39.972                  
  23511013.418 6 123551223.357 6     -3641.659 6        39.931                  
  23031723.444 6 121032509.227 6     -2844.117 6        38.420                  
  24982582.925 6 131284358.285 6     -1948.106 6        38.701                  
  20436490.895 8 107394479.711 8       833.335 8        50.630                  
 02  5 18 00 01 41.0000000  0  7G01G10G21G16G23G07G08                           
  23726319.831 6 124682663.853 6      3391.676 6        36.530                  
  21322562.976 6 112050813.854 6      -827.685 6        39.200                  
  21764093.329 6 114371077.920 6      1758.401 6        38.478                  
  23511702.233 6 123554851.598 6     -3629.364 6        37.023                  
  23032267.752 6 121035366.773 6     -2863.184 6        36.841                  
  24982957.067 6 131286315.249 6     -1945.911 6        39.737                  
  20436330.895 8 107393651.654 8       827.010 8        52.011                  
 02  5 18 00 01 42.0000000  0  7G01G10G21G16G23G07G08                           
  23725677.029 5 124679276.481 5      3393.797 5        35.908                  
  21322718.794 6 112051646.781 6      -840.158 6        37.030                  
  21763758.695 6 114369314.875 6      1760.584 6        36.674                  
  23512397.320 6 123558473.074 6     -3613.131 6        36.389                  
  23032812.811 6 121038233.701 6     -2863.172 6        36.722                  
  24983326.509 6 131288266.891 6     -1948.632 6        37.305                  
  20436174.166 7 107392823.509 7       829.440 7        47.172                  
 02  5 18 00 01 43.0000000  0  7G01G10G21G16G23G07G08                           
  23725030.688 5 124675882.760 5      3398.491 5        35.795                  
  21322877.185 5 112052484.220 5      -834.099 5        35.902                  
  21763421.042 5 114367547.222 5      1760.053 5        35.820                  
  23513082.955 6 123562093.185 6     -3629.584 6        36.149                  
  23033359.103 6 121041106.308 6     -2865.228 6        36.282                  
  24983702.705 6 131290212.691 6     -1941.424 6        36.192                  
  20436013.577 7 107391994.041 7       828.127 7        45.108                  
 02  5 18 00 01 44.0000000  0  7G01G10G21G16G23G07G08                           
  23724384.223 5 124672489.955 5      3376.838 5        35.495                  
  21323035.326 5 112053321.868 5      -839.539 5        35.590                  
  21763080.852 5 114365779.749 5      1769.929 5        35.451                  
  23513774.450 5 123565719.619 5     -3623.989 5        35.758                  
  23033902.696 5 121043975.851 5     -2870.129 5        35.720                  
  24984065.142 5 131292156.556 5     -1949.057 5        35.943                  
  20435851.988 9 107391164.199 9       830.948 9        56.878                  
 02  5 18 00 01 45.0000000  0  7G01G10G21G16G23G07G08                           
  23723739.419 5 124669106.697 5      3367.667 5        35.296                  
  21323193.628 6 112054154.859 6      -829.490 6        36.040                  
  21762747.559 5 114364017.134 5      1767.686 5        35.763                  
  23514469.269 5 123569368.150 5     -3657.210 5        35.349                  
  23034443.038 5 121046828.901 5     -2851.748 5        35.505                  
  24984437.747 5 131294099.956 5     -1947.309 5        35.707                  
  20435693.865 8 107390332.068 8       832.212 8        52.893                  
 02  5 18 00 01 46.0000000  0  7G01G10G21G16G23G07G08                           
  23723101.763 6 124665736.236 6      3372.772 6        36.617                  
  21323349.446 6 112054981.046 6      -826.757 6        39.980                  
  21762419.787 6 114362264.032 6      1748.844 6        39.920                  
  23515163.284 5 123573020.147 5     -3656.011 5        35.015                  
  23034990.098 5 121049672.144 5     -2834.289 5        35.305                  
  24984810.156 7 131296055.850 7     -1967.311 7        42.116                  
  20435538.172 8 107389503.396 8       818.578 8        50.134                  
 02  5 18 00 01 47.0000000  0  7G01G10G21G16G23G07G08                           
  23722465.054 6 124662388.253 6      3346.522 6        39.118                  
  21323506.657 7 112055794.549 7      -806.127 7        44.009                  
  21762087.531 6 114360529.021 6      1723.582 6        41.142                  
  23515859.247 5 123576665.726 5     -3651.387 5        35.049                  
  23035508.889 7 121052503.582 7     -2825.448 7        42.403                  
  24985189.997 6 131298039.133 6     -1987.721 6        36.286                  
  20435382.175 7 107388682.630 7       821.662 7        43.151                  
 02  5 18 00 01 48.0000000  0  7G01G10G21G16G23G07G08                           
  23721831.990 6 124659059.051 6      3321.908 6        37.319                  
  21323659.402 6 112056597.680 6      -797.925 6        41.307                  
  21761757.544 6 114358808.945 6      1710.698 6        38.098                  
  23516549.867 5 123580306.536 5     -3640.194 5        35.149                  
  23036058.826 7 121055324.648 7     -2818.397 7        44.803                  
  24985566.337 5 131300045.164 5     -2003.401 5        34.887                  
  20435228.913 6 107387868.740 6       806.537 6        40.730                  
 02  5 18 00 01 49.0000000  0  7G01G10G21G16G23G07G08                           
  23721193.369 6 124655733.143 6      3326.266 6        41.173                  
  21323813.826 7 112057399.511 7      -803.702 7        46.919                  
  21761431.094 7 114357091.713 7      1715.332 7        42.606                  
  23517243.310 6 123583947.689 6     -3641.092 6        37.278                  
  23036595.236 7 121058144.302 7     -2820.219 7        46.591                  
  24985955.221 6 131302054.923 6     -2019.922 6        37.269                  
  20435072.470 7 107387055.996 7       813.897 7        46.066                  
 02  5 18 00 01 50.0000000  0  7G01G10G21G16G23G07G08                           
  23720565.881 7 124652407.319 7      3326.835 7        43.063                  
  21323960.566 8 112058202.007 8      -806.450 8        51.591                  
  21761099.821 8 114355374.603 8      1715.229 8        48.353                  
  23517937.522 7 123587589.171 7     -3638.976 7        42.165                  
  23037132.504 7 121060964.098 7     -2817.973 7        44.864                  
  24986319.731 6 131304065.203 6     -2012.557 6        41.856                  
  20434916.955 9 107386243.913 9       811.939 9        54.807                  
 02  5 18 00 01 51.0000000  0  7G01G10G21G16G23G07G08                           
  23719929.886 6 124649076.955 6      3331.444 6        41.236                  
  21324116.795 7 112059008.026 7      -816.602 7        46.689                  
  21760777.785 7 114353654.036 7      1723.972 7        44.608                  
  23518628.320 7 123591231.292 7     -3645.344 7        44.988                  
  23037674.382 7 121063787.314 7     -2824.574 7        42.273                  
  24986714.583 6 131306070.001 6     -2006.675 6        41.059                  
  20434768.232 8 107385430.504 8       819.814 8        51.256                  
 02  5 18 00 01 52.0000000  0  7G01G10G21G16G23G07G08                           
  23719293.928 6 124645726.653 6      3365.307 6        36.430                  
  21324272.649 6 112059826.477 6      -822.067 6        39.721                  
  21760450.299 6 114351917.883 6      1747.665 6        38.300                  
  23519326.874 7 123594879.436 7     -3650.719 7        46.400                  
  23038212.294 6 121066621.885 6     -2835.850 6        38.435                  
  24987090.797 6 131308050.882 6     -1956.731 6        36.113                  
  20434611.395 7 107384610.886 7       820.976 7        44.787                  
 02  5 18 00 01 53.0000000  0  7G01G10G21G16G23G07G08                           
  23718647.999 5 124642353.357 5      3375.072 5        35.143                  
  21324431.129 6 112060659.399 6      -839.410 6        37.115                  
  21760112.182 5 114350163.616 5      1756.573 5        35.950                  
  23520021.961 7 123598534.291 7     -3659.997 7        45.509                  
  23038753.957 6 121069469.910 6     -2857.211 6        36.569                  
  24987465.939 5 131310003.849 5     -1926.321 5        34.881                  
  20434454.737 7 107383783.900 7       825.983 7        42.007                  
 02  5 18 00 01 54.0000000  0  7G01G10G21G16G23G07G08                           
  23718004.392 5 124638964.824 5      3390.597 5        35.172                  
  21324591.539 6 112061501.954 6      -843.146 6        37.896                  
  21759774.457 6 114348397.659 6      1771.786 6        36.425                  
  23520716.512 8 123602192.471 8     -3650.976 8        49.552                  
  23039298.176 6 121072327.344 6     -2863.748 6        37.098                  
  24987831.504 5 131311939.395 5     -1937.741 5        34.841                  
  20434298.902 7 107382952.399 7       830.039 7        43.321                  
 02  5 18 00 01 55.0000000  0  7G01G10G21G16G23G07G08                           
  23717358.248 5 124635556.785 5      3417.762 5        35.337                  
  21324757.364 6 112062356.610 6      -868.032 6        38.612                  
  21759439.770 6 114346619.210 6      1780.279 6        37.311                  
  23521407.418 6 123605832.191 6     -3618.671 6        39.338                  
  23039840.233 5 121075207.495 5     -2888.336 5        35.709                  
  24988200.570 6 131313862.976 6     -1915.327 6        36.142                  
  20434141.082 8 107382120.324 8       832.047 8        50.819                  
 02  5 18 00 01 56.0000000  0  6G01G10G21G16G23G08                              
  23716704.296 5 124632125.191 5      3447.225 5        35.013                  
  21324922.742 6 112063225.758 6      -873.264 6        37.250                  
  21759100.759 6 114344825.187 6      1800.589 6        36.432                  
  23522097.520 5 123609454.185 5     -3617.981 5        35.811                  
  23040398.426 5 121078113.125 5     -2911.431 5        35.132                  
  20433984.997 8 107381285.852 8       835.949 8        49.509                  
 02  5 18 00 01 57.0000000  0  5G10G21G16G23G08                                 
  21325091.926 6 112064106.438 6      -887.820 6        38.194                  
  21758749.508 6 114343018.510 6      1814.425 6        36.884                  
  23522785.888 6 123613066.961 6     -3616.525 6        37.991                  
  23040955.564 5 121081036.337 5     -2934.370 5        35.714                  
  20433825.158 8 107380449.206 8       842.812 8        48.439                  
 02  5 18 00 01 58.0000000  0  5G10G21G16G23G08                                 
  21325255.123 7 112064989.875 7      -881.174 7        45.104                  
  21758411.212 7 114341208.790 7      1804.913 7        42.816                  
  23523476.794 7 123616685.046 7     -3618.990 7        43.297                  
  23041498.836 7 121083960.113 7     -2917.594 7        44.095                  
  20433664.355 8 107379610.841 8       836.862 8        50.257                  
 02  5 18 00 01 59.0000000  0  5G10G21G16G23G08                                 
  21325424.397 7 112065867.589 7      -880.088 7        46.774                  
  21758069.020 7 114339405.802 7      1801.696 7        45.824                  
  23524163.929 6 123620319.430 6     -3638.404 6        38.387                  
  23042061.317 6 121086868.755 6     -2903.385 6        39.791                  
  20433503.694 9 107378772.359 9       837.676 9        54.700                  
 02  5 18 00 02  0.0000000  0  5G10G21G16G23G08                                 
  21325588.256 7 112066751.626 7      -886.733 7        46.484                  
  21757723.826 7 114337595.856 7      1813.346 7        45.847                  
  23524854.067 6 123623955.468 6     -3631.277 6        41.059                  
  23042616.901 7 121089783.708 7     -2920.341 7        44.703                  
  20433339.567 8 107377931.164 8       849.361 8        50.527                  
 02  5 18 00 02  1.0000000  0  5G10G21G16G23G08                                 
  21325762.479 6 112067644.473 6      -898.270 6        41.485                  
  21757372.914 6 114335775.549 6      1828.291 6        39.931                  
  23525555.515 8 123627590.565 8     -3640.020 8        48.701                  
  23043175.433 6 121092709.326 6     -2918.407 6        39.481                  
  20433178.121 7 107377087.007 7       843.555 7        46.958                  
 02  5 18 00 02  2.0000000  0  5G10G21G16G23G08                                 
  21325938.024 7 112068539.624 7      -895.576 7        46.843                  
  21757026.362 7 114333952.656 7      1821.922 7        44.615                  
  23526240.953 7 123631234.542 7     -3642.773 7        42.643                  
  23043732.499 7 121095632.853 7     -2926.381 7        44.952                  
  20433014.816 8 107376240.851 8       845.619 8        49.633                  
 02  5 18 00 02  3.0000000  0  5G10G21G16G23G08                                 
  21326099.560 8 112069435.623 8      -896.562 8        53.400                  
  21756674.718 7 114332128.305 7      1823.785 7        47.219                  
  23526939.524 6 123634888.139 6     -3649.976 6        40.047                  
  23044286.707 7 121098552.836 7     -2921.293 7        44.509                  
  20432849.778 8 107375392.501 8       853.643 8        49.515                  
 02  5 18 00 02  4.0000000  0  5G10G21G16G23G08                                 
  21326268.458 8 112070332.625 8      -897.871 8        52.062                  
  21756331.954 8 114330303.661 8      1822.504 8        48.856                  
  23527632.950 6 123638549.369 6     -3680.248 6        40.021                  
  23044843.131 7 121101469.590 7     -2921.088 7        44.314                  
  20432691.762 8 107374543.325 8       849.243 8        51.452                  
 02  5 18 00 02  6.0000000  0  5G10G21G16G23G08                                 
  21326613.348 9 112072127.019 9      -896.878 9        55.435                  
  21755637.618 7 114326655.160 7      1823.328 7        46.438                  
  23529030.861 7 123645886.519 7     -3669.578 7        42.903                  
  23045947.544 7 121107296.240 7     -2911.502 7        46.461                  
  20432365.634 8 107372843.355 8       851.667 8        51.467                  
 02  5 18 00 02  7.0000000  0  5G10G21G16G23G08                                 
  21326781.906 8 112073023.573 8      -897.167 8        53.601                  
  21755288.546 8 114324831.846 8      1822.982 8        53.963                  
  23529730.862 6 123649565.983 6     -3692.351 6        41.096                  
  23046502.037 7 121110203.251 7     -2907.951 7        43.728                  
  20432205.635 8 107371992.531 8       851.557 8        52.845                  
 02  5 18 00 02  9.0000000  0  5G10G21G16G23G08                                 
  21327126.868 8 112074813.807 8      -894.311 8        51.315                  
  21754588.777 8 114321190.607 8      1817.149 8        50.452                  
  23531135.421 6 123656946.735 6     -3692.916 6        41.447                  
  23047604.056 7 121116002.269 7     -2898.769 7        43.713                  
  20431891.033 8 107370289.923 8       851.557 8        52.895                  
 02  5 18 00 02 10.0000000  0  5G10G21G16G23G08                                 
  21327290.620 8 112075707.511 8      -893.954 8        51.519                  
  21754257.682 8 114319372.291 8      1818.043 8        50.776                  
  23531838.460 6 123660645.768 6     -3698.540 6        41.794                  
  23048157.906 7 121118895.571 7     -2896.567 7        43.135                  
  20431718.615 8 107369438.621 8       853.655 8        53.226                  
 02  5 18 00 02 11.0000000  0  5G10G21G16G23G08                                 
  21327467.576 7 112076598.272 7      -891.986 7        47.822                  
  21753905.877 7 114317557.994 7      1812.383 7        47.570                  
  23532542.911 6 123664352.831 6     -3711.905 6        40.565                  
  23048709.487 6 121121781.485 6     -2872.064 6        41.487                  
  20431569.784 9 107368587.749 9       849.959 9        56.281                  
 02  5 18 00 02 12.0000000  0  5G10G21G16G23G08                                 
  21327636.028 7 112077480.685 7      -877.372 7        42.609                  
  21753569.064 6 114315755.322 6      1801.707 6        41.062                  
  23533249.130 7 123668061.301 7     -3707.524 7        44.461                  
  23049255.225 6 121124656.677 6     -2873.200 6        39.040                  
  20431402.583 8 107367741.165 8       838.649 8        50.084                  
 02  5 18 00 02 13.0000000  0  5G10G21G16G23G08                                 
  21327803.997 6 112078357.465 6      -879.769 6        41.348                  
  21753223.262 6 114313960.807 6      1798.210 6        39.625                  
  23533954.742 7 123671773.035 7     -3712.449 7        46.777                  
  23049802.124 6 121127523.432 6     -2868.111 6        38.682                  
  20431239.350 7 107366897.247 7       836.387 7        47.493                  
 02  5 18 00 02 14.0000000  0  5G10G21G16G23G08                                 
  21327967.319 7 112079232.985 7      -875.711 7        47.357                  
  21752881.446 7 114312168.572 7      1793.929 7        45.567                  
  23534659.854 7 123675488.129 7     -3732.958 7        43.875                  
  23050343.341 7 121130386.905 7     -2864.719 7        42.910                  
  20431081.941 9 107366054.038 9       842.795 9        55.001                  
 02  5 18 00 02 15.0000000  0  5G10G21G16G23G08                                 
  21328131.625 8 112080107.255 8      -874.446 8        49.534                  
  21752541.345 7 114310378.948 7      1786.684 7        46.041                  
  23535369.897 7 123679206.142 7     -3720.221 7        45.702                  
  23050888.686 7 121133246.929 7     -2849.716 7        43.618                  
  20430916.707 9 107365211.479 9       841.908 9        55.929                  
 02  5 18 00 02 17.0000000  0  5G10G21G16G23G08                                 
  21328462.452 8 112081849.383 8      -871.602 8        52.249                  
  21751865.449 8 114306807.447 8      1786.135 8        49.454                  
  23536790.717 6 123686669.657 6     -3744.299 6        38.148                  
  23051973.818 6 121138946.454 6     -2831.106 6        40.868                  
  20430593.188 8 107363525.864 8       842.788 8        49.468                  
 02  5 18 00 02 18.0000000  0  5G10G21G16G23G08                                 
  21328628.241 8 112082717.019 8      -868.047 8        49.788                  
  21751521.649 8 114305025.606 8      1780.553 8        48.407                  
  23537502.601 6 123690418.772 6     -3745.352 6        38.038                  
  23052516.053 6 121141783.411 6     -2834.718 6        40.220                  
  20430437.602 8 107362682.110 8       843.606 8        53.477                  
 02  5 18 00 02 19.0000000  0  7G01G10G21G16G23G07G08                           
  23701635.295 6 124552932.614 6      3387.799 6        40.900                  
  21328794.262 7 112083581.799 7      -858.071 7        46.762                  
  21751186.676 7 114303248.552 7      1776.290 7        44.387                  
  23538215.414 7 123694170.701 7     -3749.195 7        44.472                  
  23053051.445 6 121144615.236 6     -2833.348 6        41.206                  
  24996738.265 7 131358510.514 7     -1883.896 7        42.992                  
  20430269.848 8 107361839.877 8       840.502 8        53.481                  
 02  5 18 00 02 20.0000000  0  7G01G10G21G16G23G07G08                           
  23700991.402 6 124549542.507 6      3390.720 6        41.861                  
  21328959.711 7 112084444.091 7      -863.517 7        46.955                  
  21750849.809 7 114301475.185 7      1762.559 7        45.900                  
  23538929.424 7 123697924.962 7     -3753.856 7        46.665                  
  23053593.198 7 121147443.088 7     -2821.699 7        42.626                  
  24997095.163 7 131360404.246 7     -1908.506 7        43.198                  
  20430119.748 9 107360998.720 9       840.251 9        54.254                  
 02  5 18 00 02 21.0000000  0  7G01G10G21G16G23G07G08                           
  23700345.151 6 124546161.260 6      3382.792 6        40.380                  
  21329123.695 7 112085301.831 7      -851.920 7        45.522                  
  21750509.637 7 114299708.515 7      1758.569 7        44.117                  
  23539654.281 7 123701682.292 7     -3762.921 7        46.402                  
  23054128.786 7 121150263.982 7     -2816.035 7        42.636                  
  24997459.155 6 131362306.313 6     -1902.078 6        40.836                  
  20429959.338 8 107360160.199 8       839.047 8        50.783                  
 02  5 18 00 02 22.0000000  0  7G01G10G21G16G23G07G08                           
  23699703.886 6 124542784.971 6      3372.613 6        41.092                  
  21329286.107 7 112086157.355 7      -852.694 7        46.005                  
  21750174.021 7 114297945.464 7      1763.643 7        44.684                  
  23540357.481 7 123705440.889 7     -3757.198 7        46.861                  
  23054663.964 7 121153081.234 7     -2819.110 7        43.724                  
  24997822.968 6 131364213.300 6     -1904.928 6        41.115                  
  20429803.234 8 107359322.871 8       836.563 8        53.493                  
 02  5 18 00 02 23.0000000  0  7G01G10G21G16G23G07G08                           
  23699060.798 6 124539414.005 6      3369.058 6        41.623                  
  21329449.716 7 112087010.355 7      -853.508 7        46.342                  
  21749842.533 7 114296186.893 7      1751.351 7        45.721                  
  23541076.388 7 123709200.809 7     -3758.643 7        47.240                  
  23055203.233 7 121155894.759 7     -2812.685 7        45.123                  
  24998183.029 6 131366125.983 6     -1920.130 6        41.783                  
  20429646.255 8 107358487.416 8       833.289 8        53.037                  
 02  5 18 00 02 24.0000000  0  7G01G10G21G16G23G07G08                           
  23698421.497 6 124536052.574 6      3364.028 6        39.696                  
  21329609.894 7 112087858.518 7      -848.253 7        44.378                  
  21749511.169 7 114294435.251 7      1746.606 7        43.269                  
  23541798.153 7 123712961.987 7     -3760.171 7        45.935                  
  23055733.979 7 121158701.803 7     -2798.153 7        42.895                  
  24998552.292 6 131368048.121 6     -1929.241 6        40.146                  
  20429485.827 8 107357654.930 8       827.369 8        49.790                  
 02  5 18 00 02 25.0000000  0  7G01G10G21G16G23G07G08                           
  23697782.841 6 124532699.901 6      3355.777 6        39.571                  
  21329769.661 7 112088702.203 7      -837.412 7        44.466                  
  21749175.464 7 114292690.521 7      1744.752 7        42.118                  
  23542496.850 7 123716723.515 7     -3762.029 7        46.737                  
  23056268.995 6 121161503.082 6     -2801.724 6        41.500                  
  24998919.232 6 131369980.104 6     -1925.585 6        38.306                  
  20429329.383 8 107356825.083 8       829.394 8        49.320                  
 02  5 18 00 02 26.0000000  0  7G01G10G21G16G23G07G08                           
  23697146.364 6 124529353.431 6      3350.657 6        39.992                  
  21329929.606 7 112089542.811 7      -843.780 7        45.657                  
  21748842.779 7 114290951.346 7      1734.526 7        43.652                  
  23543224.887 7 123720477.262 7     -3745.349 7        43.068                  
  23056792.665 7 121164304.536 7     -2806.149 7        44.001                  
  24999288.263 6 131371922.237 6     -1940.750 6        37.863                  
  20429171.546 7 107355998.964 7       825.624 7        47.496                  
 02  5 18 00 02 27.0000000  0  7G01G10G21G16G23G07G08                           
  23696509.262 7 124526000.545 7      3357.776 7        44.739                  
  21330090.249 8 112090387.778 8      -845.235 8        48.955                  
  21748514.882 8 114289210.304 8      1743.256 8        48.902                  
  23543932.304 6 123724208.630 6     -3733.824 6        36.843                  
  23057337.509 6 121167121.645 6     -2826.999 6        39.951                  
  24999656.187 6 131373869.027 6     -1942.689 6        39.845                  
  20429013.584 7 107355176.628 7       823.104 7        47.567                  
 02  5 18 00 02 28.0000000  0  7G01G10G21G16G23G07G08                           
  23695869.372 6 124522635.749 6      3374.395 6        38.924                  
  21330250.766 7 112091240.548 7      -856.054 7        43.340                  
  21748185.377 7 114287463.297 7      1756.348 7        44.537                  
  23544640.757 5 123727917.364 5     -3690.366 5        35.351                  
  23057875.831 6 121169958.375 6     -2839.415 6        36.105                  
  25000029.292 7 131375814.251 7     -1939.429 7        44.189                  
  20428856.909 8 107354356.459 8       820.978 8        50.800                  
 02  5 18 00 02 29.0000000  0  7G01G10G21G16G23G07G08                           
  23695225.587 6 124519258.442 6      3382.666 6        37.214                  
  21330414.679 6 112092101.156 6      -860.023 6        41.527                  
  21747849.207 6 114285709.407 6      1751.392 6        41.739                  
  23545343.814 5 123731605.620 5     -3688.398 5        35.086                  
  23058418.317 5 121172814.071 5     -2855.095 5        35.534                  
  25000396.286 7 131377756.299 7     -1941.716 7        43.689                  
  20428697.606 8 107353538.257 8       818.934 8        50.469                  
 02  5 18 00 02 30.0000000  0  7G01G10G21G16G23G07G08                           
  23694583.428 6 124515878.536 6      3387.904 6        40.548                  
  21330577.948 7 112092963.940 7      -863.720 7        46.579                  
  21747511.644 7 114283954.268 7      1753.944 7        46.034                  
  23546041.760 6 123735289.317 6     -3680.540 6        38.012                  
  23058970.559 6 121175674.480 6     -2858.518 6        38.793                  
  25000771.071 7 131379697.694 7     -1944.765 7        45.497                  
  20428541.628 8 107352720.481 8       817.895 8        53.777                  
 02  5 18 00 02 31.0000000  0  7G01G10G21G16G23G07G08                           
  23693940.894 7 124512498.711 7      3379.389 7        47.914                  
  21330744.309 9 112093827.556 9      -863.511 9        54.485                  
  21747177.171 8 114282199.251 8      1754.837 8        50.872                  
  23546744.174 8 123738973.358 8     -3682.536 8        48.925                  
  23059507.005 8 121178535.156 8     -2862.848 8        48.582                  
  25001135.545 7 131381639.708 7     -1936.785 7        47.867                  
  20428386.542 9 107351903.184 9       817.128 9        56.252                  
 02  5 18 00 02 32.0000000  0  7G01G10G21G16G23G07G08                           
  23693295.625 8 124509119.066 8      3379.125 8        48.953                  
  21330909.150 8 112094691.763 8      -864.715 8        52.972                  
  21746847.273 8 114280444.610 8      1754.135 8        51.703                  
  23547445.908 8 123742657.476 8     -3684.895 8        52.456                  
  23060053.833 8 121181396.268 8     -2860.250 8        50.914                  
  25001508.114 7 131383581.894 7     -1944.184 7        47.263                  
  20428231.028 9 107351086.409 9       816.707 9        56.182                  
 02  5 18 00 02 33.0000000  0  7G01G10G21G16G23G07G08                           
  23692653.252 8 124505739.590 8      3379.332 8        50.762                  
  21331074.546 8 112095556.566 8      -865.992 8        52.678                  
  21746514.927 8 114278690.267 8      1753.734 8        53.663                  
  23548145.748 8 123746341.794 8     -3684.535 8        51.619                  
  23060599.660 8 121184257.782 8     -2860.211 8        50.567                  
  25001875.841 7 131385524.421 7     -1944.193 7        45.635                  
  20428073.727 9 107350270.114 9       815.891 9        55.918                  
 02  5 18 00 02 34.0000000  0  7G01G10G21G16G23G07G08                           
  23692011.093 8 124502360.283 8      3376.508 8        50.143                  
  21331240.102 8 112096421.916 8      -863.909 8        53.812                  
  21746178.061 9 114276936.213 9      1753.990 9        54.817                  
  23548848.215 8 123750026.277 8     -3684.603 8        50.715                  
  23061139.144 8 121187119.670 8     -2862.238 8        50.860                  
  25002245.891 8 131387467.310 8     -1948.652 8        49.073                  
  20427916.712 9 107349454.307 9       814.848 9        56.892                  
 02  5 18 00 02 35.0000000  0  7G01G10G21G16G23G07G08                           
  23691367.022 7 124498981.095 7      3380.021 7        47.901                  
  21331405.284 8 112097287.818 8      -865.099 8        53.865                  
  21745841.355 8 114275182.439 8      1753.630 8        53.372                  
  23549549.539 8 123753710.964 8     -3682.764 8        50.678                  
  23061687.544 8 121189981.970 8     -2862.471 8        50.602                  
  25002616.244 7 131389410.569 7     -1947.454 7        46.923                  
  20427761.037 9 107348638.986 9       814.551 9        55.026                  
