     2.11           OBSERVATION DATA    G                   RINEX VERSION / TYPE
BLANK OR G = GPS,  R = GLONASS,  E = GALILEO,  M = MIXED    COMMENT             
GNSS-SDR            joel                17-APR-25 08:59     PGM / RUN BY / DATE 
GPS OBSERVATION DATA FILE GENERATED BY GNSS-SDR             COMMENT             
GNSS-SDR VERSION 0.0.16                                     COMMENT             
See https://gnss-sdr.org                                    COMMENT             
DEFAULT MARKER NAME                                         MARKER NAME         
joel                CTTC                                    OBSERVER / AGENCY   
GNSS-SDR            Software Receiver   0.0.16              REC # / TYPE / VERS 
Antenna number      Antenna type                            ANT # / TYPE        
        0.0000        0.0000        0.0000                  APPROX POSITION XYZ 
        0.0000        0.0000        0.0000                  ANTENNA: DELTA H/E/N
     1     1                                                WAVELENGTH FACT L1/2
     4    C1    L1    D1    S1                              # / TYPES OF OBSERV 
  2002    05    18    00    00   42.1200000     GPS         TIME OF FIRST OBS   
    18                                                      LEAP SECONDS        
                                                            END OF HEADER       
 02  5 18 00 00 43.0000000  0  7G01G21G16G10G23G07G08                           
  23763590.557 7 124878514.381 7      3399.696 7        46.684                  
  21783585.538 8 114473514.344 8      1786.635 8        53.260                  
  23471245.193 8 123342230.695 8     -3662.994 8        49.407                  
  21313658.681 9 112004040.667 9      -798.336 9        54.379                  
  23001127.174 8 120871743.352 8     -2818.484 8        49.977                  
  24961618.630 7 131174188.514 7     -1906.860 7        45.632                  
  20445704.806 9 107442908.360 9       868.249 9        55.799                  
 02  5 18 00 00 44.0000000  0  7G01G21G16G10G23G07G08                           
  23762945.610 7 124875117.259 7      3394.653 7        46.771                  
  21783249.386 9 114471727.133 9      1786.414 9        54.225                  
  23471943.854 8 123345894.470 8     -3663.426 8        50.485                  
  21313811.211 8 112004839.024 8      -799.526 8        53.913                  
  23001664.817 8 120874562.620 8     -2818.305 8        50.206                  
  24961982.050 7 131176093.041 7     -1909.812 7        46.109                  
  20445541.823 9 107442040.516 9       867.789 9        56.825                  
 02  5 18 00 00 45.0000000  0  7G01G21G16G10G23G07G08                           
  23762299.002 7 124871720.311 7      3394.041 7        47.507                  
  21782906.712 8 114469940.232 8      1786.910 8        53.225                  
  23472640.764 8 123349558.442 8     -3662.072 8        50.280                  
  21313963.044 9 112005638.022 9      -798.032 9        54.604                  
  23002198.993 8 120877382.250 8     -2818.289 8        51.032                  
  24962342.700 7 131177997.923 7     -1904.901 7        46.791                  
  20445380.198 9 107441173.149 9       867.250 9        57.368                  
 02  5 18 00 00 46.0000000  0  7G01G21G16G10G23G07G08                           
  23761651.178 8 124868323.515 8      3395.471 8        48.417                  
  21782563.555 8 114468153.641 8      1786.830 8        53.636                  
  23473337.655 8 123353222.599 8     -3665.613 8        49.296                  
  21314115.253 9 112006437.619 9      -799.383 9        54.144                  
  23002736.529 8 120880202.292 8     -2822.642 8        50.574                  
  24962709.069 7 131179903.164 7     -1905.457 7        45.005                  
  20445215.695 9 107440306.259 9       866.660 9        56.301                  
 02  5 18 00 00 47.0000000  0  7G01G21G16G10G23G07G08                           
  23761005.713 7 124864926.872 7      3392.840 7        47.629                  
  21782227.278 8 114466367.352 8      1785.611 8        52.245                  
  23474035.620 8 123356886.951 8     -3665.564 8        50.480                  
  21314268.462 8 112007237.812 8      -801.047 8        53.803                  
  23003272.582 8 120883022.723 8     -2822.779 8        49.776                  
  24963068.433 7 131181808.745 7     -1907.415 7        45.942                  
  20445048.388 9 107439439.823 9       865.979 9        55.631                  
 02  5 18 00 00 48.0000000  0  7G01G21G16G10G23G07G08                           
  23760360.070 7 124861530.391 7      3396.518 7        47.345                  
  21781887.784 8 114464581.358 8      1785.159 8        52.284                  
  23474732.958 8 123360551.505 8     -3664.554 8        50.438                  
  21314420.241 9 112008038.612 9      -801.060 9        56.882                  
  23003811.941 8 120885843.546 8     -2822.510 8        50.779                  
  24963433.193 7 131183714.683 7     -1905.885 7        46.246                  
  20444880.991 9 107438573.862 9       864.953 9        57.923                  
 02  5 18 00 00 49.0000000  0  7G01G21G16G10G23G07G08                           
  23759712.085 8 124858134.070 8      3396.604 8        49.105                  
  21781545.575 8 114462795.662 8      1785.502 8        53.590                  
  23475429.671 8 123364216.251 8     -3667.134 8        50.711                  
  21314573.540 9 112008840.055 9      -802.225 9        57.280                  
  23004345.867 8 120888664.780 8     -2821.148 8        49.431                  
  24963795.077 7 131185620.983 7     -1907.315 7        46.814                  
  20444713.272 9 107437708.377 9       865.611 9        57.235                  
 02  5 18 00 00 50.0000000  0  7G01G21G16G10G23G07G08                           
  23759066.281 7 124854737.906 7      3396.990 7        47.095                  
  21781204.937 8 114461010.265 8      1787.111 8        53.307                  
  23476128.386 8 123367881.173 8     -3665.728 8        48.833                  
  21314726.105 9 112009642.095 9      -801.909 9        56.271                  
  23004883.832 8 120891486.407 8     -2822.126 8        49.599                  
  24964157.050 7 131187527.626 7     -1905.316 7        47.780                  
  20444545.267 9 107436843.361 9       864.884 9        58.654                  
 02  5 18 00 00 51.0000000  0  7G01G21G16G10G23G07G08                           
  23758421.549 7 124851341.921 7      3393.908 7        47.528                  
  21780869.393 8 114459225.167 8      1783.596 8        53.160                  
  23476824.831 8 123371546.307 8     -3665.767 8        50.493                  
  21314878.993 9 112010444.732 9      -802.743 9        54.759                  
  23005422.261 8 120894308.419 8     -2821.814 8        49.856                  
  24964522.918 7 131189434.629 7     -1906.596 7        47.332                  
  20444381.391 9 107435978.807 9       863.708 9        54.627                  
 02  5 18 00 00 52.0000000  0  7G01G21G16G10G23G07G08                           
  23757774.333 8 124847946.075 8      3397.190 8        48.307                  
  21780530.221 8 114457440.364 8      1784.977 8        51.520                  
  23477522.170 8 123375211.640 8     -3666.343 8        49.675                  
  21315031.952 9 112011247.989 9      -804.183 9        54.026                  
  23005957.206 8 120897130.815 8     -2822.246 8        51.386                  
  24964882.460 7 131191341.991 7     -1911.302 7        46.039                  
  20444219.229 9 107435114.730 9       864.520 9        56.363                  
 02  5 18 00 00 53.0000000  0  7G01G21G16G10G23G07G08                           
  23757127.188 7 124844550.402 7      3393.063 7        47.987                  
  21780186.135 8 114455655.858 8      1784.931 8        51.848                  
  23478220.813 8 123378877.143 8     -3662.367 8        49.494                  
  21315184.857 9 112012051.876 9      -805.068 9        55.026                  
  23006496.958 8 120899953.603 8     -2823.620 8        49.658                  
  24965249.365 7 131193249.699 7     -1908.641 7        46.797                  
  20444056.979 9 107434251.131 9       863.371 9        57.122                  
 02  5 18 00 00 54.0000000  0  7G01G21G16G10G23G07G08                           
  23756482.510 7 124841154.887 7      3394.703 7        46.979                  
  21779846.981 8 114453871.667 8      1783.999 8        53.864                  
  23478916.865 8 123382542.856 8     -3666.088 8        50.114                  
  21315338.173 9 112012856.360 9      -805.104 9        54.014                  
  23007032.225 8 120902776.776 8     -2824.017 8        50.438                  
  24965609.086 7 131195157.758 7     -1906.380 7        46.831                  
  20443895.210 9 107433388.008 9       863.128 9        54.943                  
 02  5 18 00 00 55.0000000  0  7G01G21G16G10G23G07G08                           
  23755836.741 8 124837759.521 8      3394.966 8        48.815                  
  21779511.615 8 114452087.796 8      1782.432 8        53.359                  
  23479614.686 8 123386208.755 8     -3667.159 8        49.607                  
  21315491.203 9 112013661.441 9      -805.396 9        54.167                  
  23007570.725 8 120905600.340 8     -2822.359 8        49.872                  
  24965973.614 7 131197066.174 7     -1908.912 7        47.058                  
  20443734.175 9 107432525.338 9       862.160 9        56.864                  
 02  5 18 00 00 56.0000000  0  7G01G21G16G10G23G07G08                           
  23755189.239 7 124834364.326 7      3392.404 7        46.772                  
  21779171.568 9 114450304.209 9      1782.481 9        54.235                  
  23480314.097 7 123389874.845 7     -3668.050 7        47.429                  
  21315644.805 9 112014467.138 9      -806.163 9        54.591                  
  23008107.922 8 120908424.322 8     -2824.767 8        51.900                  
  24966337.589 7 131198974.942 7     -1904.841 7        46.367                  
  20443571.674 9 107431663.145 9       861.569 9        56.022                  
 02  5 18 00 00 57.0000000  0  7G01G21G16G10G23G07G08                           
  23754544.650 8 124830969.292 8      3395.849 8        48.707                  
  21778828.089 8 114448520.933 8      1784.772 8        51.743                  
  23481009.506 7 123393541.124 7     -3663.732 7        47.421                  
  21315798.336 9 112015273.470 9      -806.509 9        55.377                  
  23008644.386 8 120911248.685 8     -2824.401 8        50.931                  
  24966698.346 7 131200884.067 7     -1912.639 7        45.963                  
  20443405.295 9 107430801.429 9       861.553 9        58.264                  
 02  5 18 00 00 58.0000000  0  7G01G21G16G10G23G07G08                           
  23753898.202 8 124827574.410 8      3397.145 8        48.510                  
  21778490.329 8 114446737.946 8      1783.061 8        51.992                  
  23481707.827 7 123397207.601 7     -3665.607 7        47.739                  
  21315952.081 9 112016080.397 9      -806.607 9        55.501                  
  23009182.922 8 120914073.446 8     -2825.130 8        50.078                  
  24967065.037 7 131202793.535 7     -1911.458 7        45.918                  
  20443239.113 9 107429940.189 9       861.865 9        56.998                  
 02  5 18 00 00 59.0000000  0  7G01G21G16G10G23G07G08                           
  23753251.093 8 124824179.700 8      3395.360 8        49.094                  
  21778154.999 8 114444955.266 8      1782.947 8        50.761                  
  23482406.274 8 123400874.275 8     -3666.557 8        48.523                  
  21316105.969 9 112016887.921 9      -807.637 9        56.592                  
  23009718.796 8 120916898.586 8     -2824.324 8        49.960                  
  24967425.347 7 131204703.368 7     -1910.910 7        44.695                  
  20443072.681 9 107429079.403 9       860.777 9        55.321                  
 02  5 18 00 01  0.0000000  0  7G01G21G16G10G23G07G08                           
  23752605.861 8 124820785.142 8      3397.692 8        49.839                  
  21777813.522 8 114443172.873 8      1780.439 8        52.409                  
  23483102.755 8 123404541.131 8     -3670.428 8        48.697                  
  21316259.643 9 112017696.078 9      -807.977 9        57.438                  
  23010258.709 8 120919724.103 8     -2826.592 8        51.591                  
  24967791.144 7 131206613.536 7     -1908.935 7        46.980                  
  20442905.695 9 107428219.093 9       859.875 9        57.001                  
 02  5 18 00 01  1.0000000  0  7G01G21G16G10G23G07G08                           
  23751959.931 8 124817390.741 8      3396.173 8        50.105                  
  21777470.294 8 114441390.790 8      1782.212 8        53.964                  
  23483801.166 8 123408208.186 8     -3665.098 8        49.381                  
  21316414.138 9 112018504.852 9      -808.688 9        55.333                  
  23010795.155 8 120922550.020 8     -2823.883 8        49.271                  
  24968153.278 7 131208524.075 7     -1912.297 7        47.398                  
  20442740.425 9 107427359.259 9       859.801 9        56.643                  
 02  5 18 00 01  2.0000000  0  7G01G21G16G10G23G07G08                           
  23751313.180 8 124813996.510 8      3395.810 8        49.064                  
  21777134.696 8 114439608.991 8      1782.071 8        50.746                  
  23484499.755 8 123411875.434 8     -3666.529 8        49.124                  
  21316567.401 9 112019314.225 9      -810.838 9        54.344                  
  23011333.263 8 120925376.329 8     -2824.887 8        50.198                  
  24968517.806 7 131210434.945 7     -1912.135 7        45.638                  
  20442578.621 9 107426499.904 9       858.932 9        57.193                  
 02  5 18 00 01  3.0000000  0  7G01G21G16G10G23G07G08                           
  23750667.947 8 124810602.432 8      3396.393 8        48.962                  
  21776798.651 8 114437827.515 8      1781.650 8        51.973                  
  23485196.004 8 123415542.857 8     -3666.904 8        51.016                  
  21316721.039 9 112020124.192 9      -810.331 9        55.032                  
  23011872.067 8 120928203.043 8     -2826.686 8        50.887                  
  24968882.030 7 131212346.184 7     -1910.559 7        44.746                  
  20442416.924 9 107425641.000 9       858.104 9        55.570                  
 02  5 18 00 01  4.0000000  0  7G01G21G16G10G23G07G08                           
  23750023.180 8 124807208.508 8      3390.087 8        49.267                  
  21776456.387 9 114436046.350 9      1780.677 9        54.058                  
  23485895.362 8 123419210.501 8     -3668.045 8        52.167                  
  21316875.088 9 112020934.780 9      -810.880 9        54.673                  
  23012407.602 8 120931030.149 8     -2826.597 8        53.063                  
  24969242.842 7 131214257.774 7     -1910.283 7        45.143                  
  20442255.888 9 107424782.575 9       858.148 9        56.759                  
 02  5 18 00 01  5.0000000  0  7G01G21G16G10G23G07G08                           
  23749375.874 8 124803814.766 8      3389.047 8        48.139                  
  21776115.411 8 114434265.482 8      1779.852 8        53.745                  
  23486593.469 8 123422878.316 8     -3666.011 8        49.209                  
  21317028.833 9 112021745.999 9      -812.003 9        56.108                  
  23012947.782 8 120933857.640 8     -2827.707 8        51.191                  
  24969609.996 7 131216169.713 7     -1912.792 7        45.785                  
  20442094.638 9 107423924.625 9       858.151 9        56.301                  
 02  5 18 00 01  6.0000000  0  7G01G21G16G10G23G07G08                           
  23748729.552 8 124800421.169 8      3392.093 8        48.421                  
  21775779.956 8 114432484.913 8      1779.896 8        52.029                  
  23487290.468 8 123426546.329 8     -3664.422 8        48.789                  
  21317182.703 9 112022557.814 9      -812.129 9        56.325                  
  23013485.015 8 120936685.498 8     -2827.003 8        48.881                  
  24969970.915 7 131218081.992 7     -1910.493 7        46.431                  
  20441934.710 9 107423067.154 9       857.032 9        57.028                  
 02  5 18 00 01  7.0000000  0  7G01G21G16G10G23G07G08                           
  23748085.463 8 124797027.723 8      3392.592 8        49.175                  
  21775443.035 8 114430704.640 8      1779.829 8        52.923                  
  23487989.665 8 123430214.541 8     -3668.269 8        50.151                  
  21317336.662 9 112023370.226 9      -813.274 9        54.950                  
  23014023.247 8 120939513.762 8     -2827.343 8        48.925                  
  24970337.462 7 131219994.640 7     -1914.433 7        46.143                  
  20441772.817 9 107422210.146 9       856.574 9        57.069                  
 02  5 18 00 01  8.0000000  0  7G01G21G16G10G23G07G08                           
  23747438.568 8 124793634.467 8      3393.928 8        48.890                  
  21775100.897 8 114428924.669 8      1778.966 8        52.585                  
  23488687.414 8 123433882.933 8     -3666.720 8        50.795                  
  21317491.408 9 112024183.271 9      -813.296 9        57.850                  
  23014562.427 8 120942342.417 8     -2828.542 8        49.933                  
  24970700.025 8 131221907.639 8     -1914.163 8        48.182                  
  20441607.314 9 107421353.601 9       857.239 9        58.693                  
 02  5 18 00 01  9.0000000  0  7G01G21G16G10G23G07G08                           
  23746792.496 8 124790241.352 8      3391.219 8        48.030                  
  21774760.474 8 114427144.990 8      1780.312 8        53.914                  
  23489384.413 8 123437551.528 8     -3667.220 8        48.442                  
  21317645.475 9 112024996.930 9      -813.809 9        55.602                  
  23015099.338 8 120945171.476 8     -2829.958 8        50.450                  
  24971064.445 8 131223820.982 8     -1912.736 8        48.039                  
  20441442.580 9 107420497.537 9       855.923 9        57.487                  
 02  5 18 00 01 10.0000000  0  7G01G21G16G10G23G07G08                           
  23746148.782 8 124786848.394 8      3397.264 8        49.665                  
  21774425.144 8 114425365.613 8      1779.871 8        53.374                  
  23490083.825 8 123441220.312 8     -3669.609 8        49.564                  
  21317800.560 9 112025811.190 9      -814.380 9        54.984                  
  23015639.429 8 120948000.930 8     -2828.591 8        50.119                  
  24971429.742 8 131225734.682 8     -1914.152 8        48.424                  
  20441277.524 9 107419641.949 9       855.830 9        56.886                  
 02  5 18 00 01 11.0000000  0  7G01G21G16G10G23G07G08                           
  23745502.317 7 124783455.613 7      3393.349 7        47.541                  
  21774088.474 8 114423586.533 8      1779.057 8        51.791                  
  23490781.896 8 123444889.279 8     -3669.680 8        50.920                  
  21317955.324 9 112026626.045 9      -815.053 9        56.145                  
  23016176.500 8 120950830.753 8     -2827.748 8        50.589                  
  24971791.840 8 131227648.729 8     -1913.670 8        48.147                  
  20441111.842 9 107418786.837 9       854.972 9        57.310                  
 02  5 18 00 01 12.0000000  0  7G01G21G16G10G23G07G08                           
  23744855.887 8 124780062.977 8      3389.539 8        49.999                  
  21773745.228 8 114421807.764 8      1779.355 8        53.132                  
  23491479.467 8 123448558.446 8     -3669.312 8        51.404                  
  21318109.748 9 112027441.519 9      -816.640 9        57.107                  
  23016715.734 8 120953660.963 8     -2829.950 8        50.664                  
  24972158.762 7 131229563.130 7     -1918.453 7        47.877                  
  20440946.553 9 107417932.178 9       854.478 9        57.350                  
 02  5 18 00 01 13.0000000  0  7G01G21G16G10G23G07G08                           
  23744211.298 8 124776670.505 8      3391.713 8        48.964                  
  21773406.377 8 114420029.306 8      1778.243 8        52.767                  
  23492178.503 8 123452227.792 8     -3669.395 8        50.376                  
  21318266.030 9 112028257.629 9      -816.409 9        56.970                  
  23017255.253 8 120956491.562 8     -2828.607 8        50.185                  
  24972519.055 7 131231477.871 7     -1913.301 7        46.488                  
  20440784.410 9 107417077.995 9       854.123 9        56.041                  
 02  5 18 00 01 14.0000000  0  7G01G21G16G10G23G07G08                           
  23743565.815 8 124773278.202 8      3392.187 8        48.569                  
  21773072.709 8 114418251.155 8      1778.606 8        51.986                  
  23492876.288 8 123455897.338 8     -3670.833 8        49.974                  
  21318421.151 9 112029074.330 9      -816.833 9        54.918                  
  23017792.396 8 120959322.566 8     -2830.582 8        50.850                  
  24972887.372 7 131233392.973 7     -1915.978 7        46.571                  
  20440624.053 9 107416224.288 9       854.178 9        54.651                  
 02  5 18 00 01 15.0000000  0  7G01G21G16G10G23G07G08                           
  23742918.849 8 124769886.055 8      3390.615 8        48.704                  
  21772733.484 8 114416473.292 8      1778.187 8        52.843                  
  23493573.984 8 123459567.079 8     -3669.919 8        49.045                  
  21318576.290 9 112029891.630 9      -817.226 9        55.308                  
  23018333.863 8 120962153.968 8     -2830.897 8        50.295                  
  24973249.648 7 131235308.428 7     -1916.103 7        46.907                  
  20440463.804 9 107415371.060 9       853.195 9        55.708                  
 02  5 18 00 01 16.0000000  0  7G01G21G16G10G23G07G08                           
  23742273.795 8 124766494.060 8      3395.033 8        48.235                  
  21772392.310 8 114414695.739 8      1778.254 8        52.833                  
  23494273.932 8 123463236.995 8     -3672.089 8        49.590                  
  21318731.358 9 112030709.537 9      -818.504 9        55.979                  
  23018869.988 8 120964985.752 8     -2831.743 8        50.734                  
  24973615.838 7 131237224.229 7     -1915.940 7        46.184                  
  20440303.823 9 107414518.308 9       853.054 9        56.602                  
 02  5 18 00 01 17.0000000  0  7G01G21G16G10G23G07G08                           
  23741629.724 7 124763102.249 7      3388.895 7        46.925                  
  21772053.782 9 114412918.472 9      1777.478 9        54.416                  
  23494971.199 8 123466907.115 8     -3670.899 8        50.235                  
  21318887.997 9 112031528.086 9      -819.215 9        56.123                  
  23019409.257 8 120967817.906 8     -2834.098 8        50.229                  
  24973980.724 8 131239140.390 8     -1916.849 8        48.111                  
  20440143.252 9 107413666.011 9       852.010 9        57.660                  
 02  5 18 00 01 18.0000000  0  7G01G21G16G10G23G07G08                           
  23740983.938 7 124759710.578 7      3392.965 7        47.715                  
  21771719.292 8 114411141.520 8      1775.583 8        53.196                  
  23495669.449 8 123470577.416 8     -3672.516 8        49.396                  
  21319043.762 9 112032347.234 9      -820.193 9        55.370                  
  23019949.169 8 120970650.452 8     -2830.600 8        49.602                  
  24974342.553 7 131241056.889 7     -1914.788 7        47.699                  
  20439983.771 9 107412814.189 9       850.983 9        57.424                  
 02  5 18 00 01 19.0000000  0  7G01G21G16G10G23G07G08                           
  23740337.043 7 124756319.075 7      3392.726 7        47.747                  
  21771381.442 8 114409364.842 8      1774.968 8        52.675                  
  23496368.503 8 123474247.912 8     -3669.740 8        50.748                  
  21319200.973 9 112033166.975 9      -819.750 9        54.666                  
  23020485.776 8 120973483.406 8     -2832.118 8        50.264                  
  24974711.120 8 131242973.739 8     -1916.068 8        48.138                  
  20439822.199 9 107411962.844 9       850.792 9        56.584                  
 02  5 18 00 01 20.0000000  0  7G01G21G16G10G23G07G08                           
  23739693.741 7 124752927.999 7      3389.566 7        47.299                  
  21771039.572 8 114407588.703 8      1774.774 8        50.989                  
  23497066.682 8 123477918.470 8     -3671.961 8        50.066                  
  21319357.971 8 112033987.153 8      -819.463 8        53.409                  
  23021027.333 8 120976316.631 8     -2831.810 8        50.787                  
  24975072.396 7 131244891.296 7     -1918.452 7        47.199                  
  20439658.590 9 107411112.080 9       849.409 9        56.528                  
 02  5 18 00 01 21.0000000  0  7G01G21G16G10G23G07G08                           
  23739049.509 7 124749548.241 7      3371.361 7        46.121                  
  21770703.563 8 114405822.028 8      1759.791 8        51.115                  
  23497763.645 8 123481583.732 8     -3662.640 8        51.044                  
  21319513.610 9 112034801.289 9      -808.427 9        55.031                  
  23021565.083 8 120979145.136 8     -2823.932 8        51.708                  
  24975442.624 7 131246823.986 7     -1946.656 7        43.441                  
  20439496.053 9 107410266.181 9       841.572 9        57.212                  
 02  5 18 00 01 22.0000000  0  7G01G21G16G10G23G07G08                           
  23738410.155 6 124746187.748 6      3349.386 6        39.108                  
  21770374.987 7 114404071.322 7      1746.896 7        45.595                  
  23498461.680 8 123485240.001 8     -3651.686 8        50.808                  
  21319666.443 8 112035604.833 8      -796.657 8        51.580                  
  23022102.244 8 120981965.502 8     -2816.192 8        53.503                  
  24975813.353 7 131248782.032 7     -1970.417 7        44.665                  
  20439334.410 9 107409428.077 9       834.168 9        59.191                  
 02  5 18 00 01 23.0000000  0  7G01G21G16G10G23G07G08                           
  23737774.232 8 124742845.755 8      3334.414 8        49.929                  
  21770044.392 8 114402336.029 8      1728.464 8        51.748                  
  23499151.746 7 123488887.120 7     -3643.142 7        43.151                  
  21319817.705 7 112036397.483 7      -787.451 7        46.651                  
  23022637.492 7 120984777.697 7     -2811.511 7        46.176                  
  24976193.212 8 131250764.727 8     -1995.441 8        50.281                  
  20439175.251 9 107408597.793 9       827.651 9        56.887                  
 02  5 18 00 01 24.0000000  0  7G01G21G16G10G23G07G08                           
  23737141.312 8 124739517.648 8      3328.835 8        53.011                  
  21769713.780 9 114400612.235 9      1723.190 9        58.708                  
  23499847.280 6 123492527.850 6     -3642.283 6        40.935                  
  21319966.947 8 112037182.873 8      -785.885 8        53.508                  
  23023170.400 6 120987583.759 6     -2806.958 6        39.988                  
  24976571.893 7 131252765.950 7     -2007.230 7        45.610                  
  20439019.308 8 107407773.385 8       826.147 8        48.655                  
 02  5 18 00 01 25.0000000  0  7G01G21G16G10G23G07G08                           
  23736507.855 8 124736190.726 8      3326.252 8        49.818                  
  21769383.185 9 114398889.539 9      1722.596 9        59.361                  
  23500542.117 8 123496168.373 8     -3639.934 8        48.565                  
  21320116.528 9 112037968.292 9      -786.569 9        57.206                  
  23023704.613 7 120990389.947 7     -2805.580 7        47.786                  
  24976969.890 6 131254769.037 6     -2002.668 6        37.960                  
  20438859.595 7 107406949.787 7       820.910 7        46.383                  
 02  5 18 00 01 26.0000000  0  7G01G21G16G10G23G07G08                           
  23735874.398 7 124732864.684 7      3328.367 7        46.712                  
  21769056.110 8 114397167.435 8      1723.446 8        52.812                  
  23501231.039 7 123499810.088 7     -3642.118 7        47.673                  
  21320266.003 9 112038753.983 9      -786.730 9        55.029                  
  23024237.109 8 120993195.692 8     -2806.684 8        48.458                  
  24977333.399 7 131256772.112 7     -2001.777 7        45.898                  
  20438699.917 7 107406126.508 7       824.749 7        47.723                  
 02  5 18 00 01 27.0000000  0  7G01G21G16G10G23G07G08                           
  23735241.084 7 124729530.116 7      3345.938 7        43.901                  
  21768731.144 8 114395438.347 8      1738.491 8        48.049                  
  23501926.430 7 123503459.194 7     -3651.983 7        43.928                  
  21320416.299 8 112039545.675 8      -798.116 8        50.933                  
  23024777.683 7 120996003.919 7     -2806.743 7        43.324                  
  24977714.653 7 131258762.651 7     -1976.276 7        47.197                  
  20438543.045 7 107405299.661 7       825.480 7        43.748                  
 02  5 18 00 01 28.0000000  0  7G01G21G16G10G23G07G08                           
  23734599.497 6 124726177.055 6      3364.917 6        38.726                  
  21768400.674 7 114393695.647 7      1748.317 7        43.996                  
  23502623.715 6 123507121.048 6     -3660.531 6        38.260                  
  21320569.365 7 112040347.197 7      -809.801 7        44.709                  
  23025305.481 6 120998819.122 6     -2821.392 6        38.222                  
  24978085.846 7 131260729.748 7     -1953.611 7        44.301                  
  20438386.119 7 107404465.280 7       837.679 7        44.163                  
 02  5 18 00 01 29.0000000  0  7G01G21G16G10G23G07G08                           
  23733961.179 6 124722804.056 6      3372.069 6        36.128                  
  21768063.147 6 114391942.137 6      1756.815 6        40.292                  
  23503321.143 5 123510785.319 5     -3665.150 5        35.884                  
  21320723.754 6 112041157.601 6      -804.656 6        41.084                  
  23025843.124 5 121001642.825 5     -2831.475 5        35.807                  
  24978459.219 6 131262675.279 6     -1939.018 6        41.115                  
  20438226.852 7 107403625.501 7       841.256 7        45.066                  
 02  5 18 00 01 30.0000000  0  7G01G21G16G10G23G07G08                           
  23733326.775 5 124719432.903 5      3369.906 5        34.413                  
  21767729.264 5 114390194.170 5      1743.878 5        35.607                  
  23504023.503 5 123514449.212 5     -3669.820 5        34.392                  
  21320875.265 6 112041959.927 6      -790.175 6        36.075                  
  23026378.712 5 121004471.448 5     -2827.118 5        34.607                  
  24978828.053 5 131264621.214 5     -1952.865 5        35.901                  
  20438068.211 9 107402786.506 9       838.030 9        57.173                  
 02  5 18 00 01 31.0000000  0  7G01G21G16G10G23G07G08                           
  23732688.405 5 124716067.874 5      3362.835 5        34.307                  
  21767402.529 5 114388465.738 5      1702.639 5        34.408                  
  23504731.796 5 123518111.966 5     -3662.453 5        34.536                  
  21321026.794 5 112042749.628 5      -792.716 5        34.588                  
  23026907.385 5 121007296.923 5     -2821.677 5        34.366                  
  24979200.676 5 131266573.568 5     -1955.258 5        34.088                  
  20437910.732 8 107401950.397 8       834.971 8        53.798                  
 02  5 18 00 01 32.0000000  0  7G01G21G16G10G23G07G08                           
  23732060.166 5 124712711.020 5      3354.354 5        34.335                  
  21767081.637 5 114386746.135 5      1724.657 5        34.500                  
  23505432.726 5 123521775.132 5     -3661.520 5        34.594                  
  21321176.287 5 112043533.174 5      -774.514 5        34.539                  
  23027443.223 5 121010117.140 5     -2819.308 5        34.738                  
  24979580.464 5 131268534.812 5     -1968.559 5        33.935                  
  20437754.038 8 107401117.898 8       833.031 8        49.650                  
 02  5 18 00 01 33.0000000  0  7G01G21G16G10G23G07G08                           
  23731420.169 5 124709351.014 5      3371.385 5        34.719                  
  21766745.806 5 114385017.115 5      1742.088 5        34.903                  
  23506130.154 5 123525434.176 5     -3656.752 5        34.772                  
  21321326.494 5 112044326.010 5      -796.471 5        35.068                  
  23027973.272 5 121012942.158 5     -2832.254 5        34.740                  
  24979957.608 5 131270494.900 5     -1955.351 5        34.886                  
  20437596.058 8 107400284.895 8       832.968 8        53.323                  
 02  5 18 00 01 34.0000000  0  7G01G21G16G10G23G07G08                           
  23730780.422 5 124705995.334 5      3340.027 5        34.887                  
  21766413.407 6 114383277.780 6      1734.263 6        36.658                  
  23506829.690 5 123529089.345 5     -3649.037 5        34.730                  
  21321483.473 6 112045128.781 6      -804.001 6        36.932                  
  23028512.523 5 121015771.996 5     -2835.314 5        35.180                  
  24980329.409 6 131272457.866 6     -1963.866 6        38.336                  
  20437439.633 9 107399450.785 9       831.692 9        54.120                  
 02  5 18 00 01 35.0000000  0  6G01G21G16G23G07G08                              
  23730148.037 5 124702655.433 5      3332.813 5        35.191                  
  21766078.720 6 114381543.113 6      1740.050 6        37.131                  
  23507527.065 5 123532754.173 5     -3671.666 5        35.285                  
  23029042.429 5 121018591.224 5     -2802.254 5        35.359                  
  24980707.303 6 131274429.252 6     -1970.831 6        36.847                  
  20437283.654 8 107398620.467 8       831.034 8        51.682                  
 02  5 18 00 01 36.0000000  0  6G01G21G16G23G07G08                              
  23729508.165 6 124699312.542 6      3350.496 6        36.905                  
  21765751.181 6 114379807.393 6      1740.756 6        39.688                  
  23508222.759 6 123536420.317 6     -3655.077 6        37.245                  
  23029570.959 6 121021402.661 6     -2817.973 6        37.677                  
  24981077.889 6 131276405.048 6     -1971.380 6        39.746                  
  20437129.355 8 107397791.262 8       828.601 8        50.555                  
 02  5 18 00 01 37.0000000  0  6G01G21G16G23G07G08                              
  23728867.203 6 124695964.132 6      3351.872 6        41.700                  
  21765412.670 7 114378068.403 7      1739.021 7        45.981                  
  23508904.445 7 123540078.757 7     -3654.778 7        43.514                  
  23030107.137 7 121024222.179 7     -2816.258 7        43.059                  
  24981457.480 7 131278379.242 7     -1975.795 7        42.077                  
  20436965.782 7 107396963.125 7       828.165 7        46.556                  
 02  5 18 00 01 38.0000000  0  6G01G21G16G23G07G08                              
  23728244.343 7 124692613.088 7      3350.660 7        45.939                  
  21765091.975 8 114376328.973 8      1745.753 8        52.129                  
  23509601.622 7 123543729.200 7     -3650.904 7        44.482                  
  23030655.323 7 121027047.934 7     -2829.746 7        46.569                  
  24981828.745 7 131280354.764 7     -1972.272 7        43.669                  
  20436807.319 8 107396136.427 8       827.032 8        52.285                  
 02  5 18 00 01 39.0000000  0  6G01G21G16G23G07G08                              
  23727590.873 6 124689253.056 6      3359.839 6        40.505                  
  21764758.878 7 114374583.024 7      1757.523 7        44.351                  
  23510303.696 6 123547374.320 6     -3651.399 6        40.298                  
  23031182.209 6 121029883.168 6     -2836.463 6        40.578                  
  24982210.677 6 131282323.131 6     -1951.857 6        41.845                  
  20436648.875 8 107395308.890 8       828.498 8        52.080                  
 02  5 18 00 01 40.0000000  0  6G01G21G16G23G07G08                              
  23726952.466 6 124685888.472 6      3379.443 6        36.011                  
  21764421.958 6 114372826.848 6      1753.791 6        38.578                  
  23511001.303 6 123551019.849 6     -3642.368 6        38.073                  
  23031738.811 6 121032728.215 6     -2841.345 6        36.480                  
  24982580.298 6 131284276.777 6     -1946.867 6        37.345                  
  20436491.056 8 107394477.678 8       833.821 8        49.359                  
 02  5 18 00 01 41.0000000  0  6G01G21G16G23G07G08                              
  23726311.058 5 124682509.361 5      3395.313 5        35.093                  
  21764092.542 6 114371068.919 6      1757.651 6        37.078                  
  23511694.925 5 123554648.102 5     -3631.030 5        35.465                  
  23032278.813 5 121035585.765 5     -2861.566 5        35.217                  
  24982956.030 6 131286233.757 6     -1943.409 6        38.490                  
  20436330.627 8 107393649.617 8       826.950 8        51.293                  
 02  5 18 00 01 42.0000000  0  6G01G21G16G23G07G08                              
  23725671.847 5 124679121.975 5      3393.676 5        34.740                  
  21763757.838 5 114369305.881 5      1758.588 5        35.482                  
  23512392.621 5 123558269.571 5     -3611.787 5        35.011                  
  23032817.010 5 121038452.699 5     -2861.799 5        35.267                  
  24983325.579 6 131288185.383 6     -1948.527 6        36.051                  
  20436174.810 7 107392821.545 7       828.978 7        44.829                  
 02  5 18 00 01 43.0000000  0  5G21G16G23G07G08                                 
  21763420.649 5 114367538.221 5      1759.069 5        34.812                  
  23513079.810 5 123561889.688 5     -3632.310 5        34.924                  
  23033362.426 5 121041325.305 5     -2862.107 5        35.017                  
  24983699.292 5 131290142.796 5     -1947.654 5        35.043                  
  20436014.417 7 107391992.006 7       827.587 7        42.206                  
 02  5 18 00 01 44.0000000  0  5G21G16G23G07G08                                 
  21763080.441 5 114365770.743 5      1770.561 5        34.520                  
  23513770.859 5 123565516.119 5     -3621.403 5        34.640                  
  23033905.305 5 121044194.853 5     -2872.124 5        34.569                  
  24984064.285 5 131292102.639 5     -1955.427 5        34.853                  
  20435851.898 9 107391162.211 9       830.829 9        56.512                  
 02  5 18 00 01 45.0000000  0  5G21G16G23G07G08                                 
  21762747.362 5 114364008.134 5      1769.490 5        34.757                  
  23514469.573 5 123569164.646 5     -3657.630 5        34.418                  
  23034442.484 5 121047047.898 5     -2852.943 5        34.532                  
  24984435.138 5 131294060.505 5     -1956.206 5        34.586                  
  20435693.865 8 107390330.066 8       832.034 8        52.043                  
 02  5 18 00 02 19.0000000  0  5G01G16G10G27G08                                 
  23701634.366 6 124552939.624 6      3387.654 6        39.681                  
  23538214.824 7 123694161.688 7     -3749.042 7        43.376                  
  21328794.191 7 112083577.805 7      -856.966 7        45.603                  
  20504871.464 8 107753890.713 8     -1443.551 8        52.505                  
  20430268.633 8 107361835.914 8       840.844 8        52.358                  
 02  5 18 00 02 20.0000000  0  5G01G16G10G27G08                                 
  23700992.707 6 124549546.997 6      3391.522 6        40.729                  
  23538928.602 7 123697915.949 7     -3753.634 7        45.833                  
  21328959.711 7 112084440.093 7      -863.889 7        45.809                  
  20505142.037 8 107755333.238 8     -1442.765 8        52.326                  
  20430120.409 8 107360994.700 8       840.788 8        53.643                  
 02  5 18 00 02 21.0000000  0  5G01G16G10G27G08                                 
  23700346.420 6 124546163.773 6      3383.090 6        38.996                  
  23539654.406 7 123701673.306 7     -3763.384 7        45.488                  
  21329123.803 7 112085297.810 7      -851.153 7        44.238                  
  20505415.683 8 107756774.194 8     -1442.368 8        50.826                  
  20429959.535 8 107360156.206 8       839.315 8        49.761                  
 02  5 18 00 02 22.0000000  0  5G01G16G10G27G08                                 
  23699704.136 6 124542785.998 6      3372.724 6        39.820                  
  23540356.141 7 123705431.879 7     -3757.281 7        46.208                  
  21329284.767 7 112086153.326 7      -852.456 7        44.734                  
  20505689.937 8 107758214.374 8     -1441.369 8        50.927                  
  20429803.645 8 107359318.851 8       836.621 8        52.794                  
 02  5 18 00 02 23.0000000  0  5G01G16G10G27G08                                 
  23699059.886 6 124539413.399 6      3362.956 6        40.454                  
  23541074.779 7 123709191.802 7     -3758.680 7        46.616                  
  21329449.430 7 112087006.347 7      -853.862 7        45.201                  
  20505968.068 8 107759653.731 8     -1437.792 8        50.801                  
  20429646.630 8 107358483.396 8       833.440 8        52.399                  
 02  5 18 00 02 24.0000000  0  5G01G16G10G27G08                                 
  23698421.408 6 124536045.011 6      3365.154 6        38.376                  
  23541796.277 7 123712952.985 7     -3759.975 7        45.316                  
  21329608.982 7 112087854.509 7      -848.714 7        43.127                  
  20506244.645 8 107761090.719 8     -1436.707 8        49.225                  
  20429485.309 8 107357650.961 8       826.967 8        48.701                  
 02  5 18 00 02 25.0000000  0  5G01G16G10G27G08                                 
  23697782.197 6 124532688.908 6      3358.845 6        38.267                  
  23542494.848 7 123716714.518 7     -3762.259 7        46.311                  
  21329769.696 7 112088698.208 7      -837.473 7        43.197                  
  20506518.148 7 107762525.286 7     -1428.233 7        47.530                  
  20429329.151 8 107356821.097 8       829.684 8        48.134                  
 02  5 18 00 02 26.0000000  0  5G01G16G10G27G08                                 
  23697143.773 6 124529340.433 6      3350.961 6        38.838                  
  23543224.887 6 123720468.246 6     -3746.012 6        41.995                  
  21329929.499 7 112089538.811 7      -843.976 7        44.535                  
  20506786.059 7 107763955.970 7     -1431.409 7        45.080                  
  20429171.528 7 107355994.966 7       825.942 7        46.379                  
 02  5 18 00 02 27.0000000  0  5G01G16G10G27G08                                 
  23696508.619 7 124525987.573 7      3355.499 7        43.984                  
  23543931.536 5 123724199.626 5     -3735.795 5        35.798                  
  21330090.231 8 112090383.769 8      -844.811 8        48.038                  
  20507055.130 7 107765382.811 7     -1428.988 7        43.882                  
  20429013.531 7 107355172.626 7       823.399 7        46.408                  
 02  5 18 00 02 28.0000000  0  5G01G16G10G27G08                                 
  23695868.050 6 124522628.832 6      3366.813 6        37.661                  
  23544640.328 5 123727908.367 5     -3687.691 5        34.471                  
  21330251.177 6 112091236.560 6      -855.584 6        41.981                  
  20507329.331 7 107766807.390 7     -1426.150 7        46.704                  
  20428856.909 8 107354352.443 8       821.206 8        49.859                  
 02  5 18 00 02 29.0000000  0  5G01G16G10G27G08                                 
  23695226.123 5 124519262.936 5      3371.769 5        35.876                  
  23545343.671 5 123731596.608 5     -3688.687 5        34.202                  
  21330414.697 6 112092097.163 6      -859.491 6        40.085                  
  20507603.906 8 107768230.484 8     -1423.813 8        49.366                  
  20428697.356 8 107353534.276 8       819.277 8        49.410                  
 02  5 18 00 02 30.0000000  0  5G01G16G10G27G08                                 
  23694583.696 6 124515886.016 6      3391.741 6        39.401                  
  23546041.778 6 123735281.330 6     -3686.191 6        36.826                  
  21330578.144 7 112092959.911 7      -863.451 7        45.507                  
  20507875.587 8 107769653.569 8     -1423.520 8        53.399                  
  20428541.502 8 107352716.489 8       817.960 8        53.070                  
 02  5 18 00 02 31.0000000  0  4G16G10G27G08                                    
  23546744.209 8 123738965.349 8     -3682.552 8        48.614                  
  21330744.130 9 112093823.544 9      -863.447 9        54.196                  
  20508142.389 8 107771077.299 8     -1424.075 8        53.539                  
  20428386.524 9 107351899.187 9       817.137 9        56.182                  
 02  5 18 00 02 32.0000000  0  4G16G10G27G08                                    
  23547445.908 8 123742649.468 8     -3684.878 8        52.446                  
  21330909.061 8 112094687.751 8      -864.717 8        52.865                  
  20508410.389 8 107772501.421 8     -1425.501 8        52.394                  
  20428231.046 9 107351082.411 9       816.691 9        56.225                  
 02  5 18 00 02 33.0000000  0  4G16G10G27G08                                    
  23548145.748 8 123746333.786 8     -3684.513 8        51.662                  
  21331074.546 8 112095552.554 8      -866.008 8        52.608                  
  20508683.070 8 107773926.019 8     -1425.269 8        50.282                  
  20428073.727 9 107350266.117 9       815.895 9        55.956                  
 02  5 18 00 02 34.0000000  0  4G16G10G27G08                                    
  23548848.215 8 123750018.269 8     -3684.592 8        50.749                  
  21331240.067 8 112096417.908 8      -864.104 8        53.754                  
  20508958.431 8 107775351.159 8     -1430.420 8        51.705                  
  20427916.694 9 107349450.308 9       814.942 9        56.929                  
 02  5 18 00 02 35.0000000  0  4G16G10G27G08                                    
  23549549.521 8 123753702.956 8     -3682.767 8        50.689                  
  21331405.284 8 112097283.817 8      -865.100 8        53.867                  
  20509231.238 8 107776776.812 8     -1424.825 8        53.180                  
  20427761.055 9 107348634.986 9       814.551 9        55.040                  
