     2.11           OBSERVATION DATA    G                   RINEX VERSION / TYPE
BLANK OR G = GPS,  R = GLONASS,  E = GALILEO,  M = MIXED    COMMENT             
GNSS-SDR            joel                19-APR-25 14:45     PGM / RUN BY / DATE 
GPS OBSERVATION DATA FILE GENERATED BY GNSS-SDR             COMMENT             
GNSS-SDR VERSION 0.0.16                                     COMMENT             
See https://gnss-sdr.org                                    COMMENT             
DEFAULT MARKER NAME                                         MARKER NAME         
joel                CTTC                                    OBSERVER / AGENCY   
GNSS-SDR            Software Receiver   0.0.16              REC # / TYPE / VERS 
Antenna number      Antenna type                            ANT # / TYPE        
        0.0000        0.0000        0.0000                  APPROX POSITION XYZ 
        0.0000        0.0000        0.0000                  ANTENNA: DELTA H/E/N
     1     1                                                WAVELENGTH FACT L1/2
     4    C1    L1    D1    S1                              # / TYPES OF OBSERV 
  2002    05    18    00    00   42.5200000     GPS         TIME OF FIRST OBS   
    18                                                      LEAP SECONDS        
                                                            END OF HEADER       
 02  5 18 00 00 43.0000000  0  7G01G21G23G16G10G07G08                           
  23763590.557 7 124878509.381 7      3399.697 7        46.686                  
  21783585.538 8 114473509.344 8      1786.633 8        53.261                  
  23001127.174 8 120871733.352 8     -2818.481 8        49.978                  
  23471245.193 8 123342231.695 8     -3662.991 8        49.405                  
  21313658.681 9 112004033.667 9      -798.336 9        54.375                  
  24961618.630 7 131174189.514 7     -1906.849 7        45.635                  
  20445704.806 9 107442912.360 9       868.243 9        55.794                  
 02  5 18 00 00 44.0000000  0  7G01G21G23G16G10G07G08                           
  23762945.592 7 124875112.259 7      3394.658 7        46.771                  
  21783249.386 9 114471722.133 9      1786.422 9        54.226                  
  23001664.817 8 120874552.620 8     -2818.308 8        50.209                  
  23471943.854 8 123345895.470 8     -3663.426 8        50.484                  
  21313811.229 8 112004832.024 8      -799.530 8        53.909                  
  24961981.978 7 131176094.041 7     -1909.811 7        46.108                  
  20445541.823 9 107442044.516 9       867.783 9        56.823                  
 02  5 18 00 00 45.0000000  0  7G01G21G23G16G10G07G08                           
  23762299.002 7 124871715.311 7      3394.046 7        47.503                  
  21782906.712 8 114469935.232 8      1786.908 8        53.224                  
  23002198.993 8 120877372.250 8     -2818.297 8        51.033                  
  23472640.764 8 123349559.442 8     -3662.072 8        50.279                  
  21313963.044 9 112005631.022 9      -798.038 9        54.598                  
  24962342.665 7 131177998.923 7     -1904.903 7        46.789                  
  20445380.215 9 107441177.149 9       867.255 9        57.364                  
 02  5 18 00 00 46.0000000  0  7G01G21G23G16G10G07G08                           
  23761651.160 8 124868318.515 8      3395.460 8        48.413                  
  21782563.537 8 114468148.641 8      1786.822 8        53.631                  
  23002736.511 8 120880192.292 8     -2822.643 8        50.576                  
  23473337.638 8 123353223.599 8     -3665.617 8        49.298                  
  21314115.253 9 112006430.619 9      -799.380 9        54.141                  
  24962709.051 7 131179904.164 7     -1905.454 7        45.009                  
  20445215.695 9 107440310.259 9       866.659 9        56.298                  
 02  5 18 00 00 47.0000000  0  7G01G21G23G16G10G07G08                           
  23761005.695 7 124864921.872 7      3392.865 7        47.626                  
  21782227.296 8 114466362.352 8      1785.607 8        52.242                  
  23003272.582 8 120883012.723 8     -2822.781 8        49.776                  
  23474035.620 8 123356887.951 8     -3665.571 8        50.480                  
  21314268.462 8 112007230.812 8      -801.052 8        53.801                  
  24963068.451 7 131181809.745 7     -1907.413 7        45.937                  
  20445048.370 9 107439443.823 9       865.985 9        55.626                  
 02  5 18 00 00 48.0000000  0  7G01G21G23G16G10G07G08                           
  23760360.034 7 124861525.391 7      3396.523 7        47.343                  
  21781887.784 8 114464576.358 8      1785.164 8        52.279                  
  23003811.941 8 120885833.546 8     -2822.505 8        50.774                  
  23474732.958 8 123360552.505 8     -3664.558 8        50.440                  
  21314420.241 9 112008031.612 9      -801.054 9        56.880                  
  24963433.193 7 131183715.683 7     -1905.880 7        46.245                  
  20444880.973 9 107438577.862 9       864.958 9        57.918                  
 02  5 18 00 00 49.0000000  0  7G01G21G23G16G10G07G08                           
  23759712.085 8 124858129.070 8      3396.596 8        49.108                  
  21781545.575 8 114462790.662 8      1785.498 8        53.588                  
  23004345.867 8 120888654.780 8     -2821.150 8        49.431                  
  23475429.671 8 123364217.251 8     -3667.143 8        50.711                  
  21314573.522 9 112008833.055 9      -802.222 9        57.276                  
  24963795.095 7 131185621.983 7     -1907.311 7        46.813                  
  20444713.254 9 107437712.377 9       865.606 9        57.232                  
 02  5 18 00 00 50.0000000  0  7G01G21G23G16G10G07G08                           
  23759066.299 7 124854732.906 7      3396.990 7        47.099                  
  21781204.919 8 114461005.265 8      1787.113 8        53.308                  
  23004883.850 8 120891476.407 8     -2822.134 8        49.598                  
  23476128.386 8 123367882.173 8     -3665.729 8        48.834                  
  21314726.105 9 112009635.095 9      -801.911 9        56.270                  
  24964157.050 7 131187528.626 7     -1905.321 7        47.783                  
  20444545.267 9 107436847.361 9       864.886 9        58.651                  
 02  5 18 00 00 51.0000000  0  7G01G21G23G16G10G07G08                           
  23758421.549 7 124851336.921 7      3393.906 7        47.526                  
  21780869.375 8 114459220.167 8      1783.597 8        53.157                  
  23005422.261 8 120894298.419 8     -2821.809 8        49.855                  
  23476824.849 8 123371547.307 8     -3665.766 8        50.494                  
  21314878.993 9 112010437.732 9      -802.745 9        54.760                  
  24964522.900 7 131189435.629 7     -1906.609 7        47.332                  
  20444381.391 9 107435982.807 9       863.709 9        54.625                  
 02  5 18 00 00 52.0000000  0  7G01G21G23G16G10G07G08                           
  23757774.333 8 124847941.075 8      3397.185 8        48.305                  
  21780530.221 8 114457435.364 8      1784.979 8        51.519                  
  23005957.188 8 120897120.815 8     -2822.255 8        51.387                  
  23477522.152 8 123375212.640 8     -3666.341 8        49.675                  
  21315031.952 9 112011240.989 9      -804.186 9        54.025                  
  24964882.460 7 131191342.992 7     -1911.301 7        46.038                  
  20444219.229 9 107435118.730 9       864.517 9        56.360                  
 02  5 18 00 00 53.0000000  0  7G01G21G23G16G10G07G08                           
  23757127.188 7 124844545.402 7      3393.060 7        47.984                  
  21780186.153 8 114455650.858 8      1784.932 8        51.850                  
  23006496.958 8 120899943.603 8     -2823.609 8        49.659                  
  23478220.813 8 123378878.143 8     -3662.368 8        49.494                  
  21315184.857 9 112012044.876 9      -805.072 9        55.023                  
  24965249.365 7 131193250.699 7     -1908.645 7        46.798                  
  20444056.979 9 107434255.131 9       863.372 9        57.118                  
 02  5 18 00 00 54.0000000  0  7G01G21G23G16G10G07G08                           
  23756482.510 7 124841149.887 7      3394.708 7        46.976                  
  21779846.981 8 114453866.667 8      1784.002 8        53.867                  
  23007032.225 8 120902766.776 8     -2824.017 8        50.438                  
  23478916.865 8 123382543.856 8     -3666.086 8        50.112                  
  21315338.173 9 112012849.360 9      -805.107 9        54.014                  
  24965609.086 7 131195158.759 7     -1906.370 7        46.829                  
  20443895.210 9 107433392.008 9       863.130 9        54.941                  
 02  5 18 00 00 55.0000000  0  7G01G21G23G16G10G07G08                           
  23755836.723 8 124837754.521 8      3394.958 8        48.819                  
  21779511.615 8 114452082.796 8      1782.430 8        53.353                  
  23007570.725 8 120905590.340 8     -2822.363 8        49.876                  
  23479614.704 8 123386209.755 8     -3667.150 8        49.605                  
  21315491.221 9 112013654.441 9      -805.399 9        54.165                  
  24965973.632 7 131197067.174 7     -1908.911 7        47.058                  
  20443734.175 9 107432529.338 9       862.156 9        56.861                  
 02  5 18 00 00 56.0000000  0  7G01G21G23G16G10G07G08                           
  23755189.275 7 124834359.326 7      3392.417 7        46.777                  
  21779171.568 9 114450299.209 9      1782.480 9        54.232                  
  23008107.940 8 120908414.322 8     -2824.757 8        51.901                  
  23480314.079 7 123389875.845 7     -3668.045 7        47.429                  
  21315644.805 9 112014460.138 9      -806.165 9        54.589                  
  24966337.517 7 131198975.942 7     -1904.852 7        46.370                  
  20443571.674 9 107431667.145 9       861.564 9        56.017                  
 02  5 18 00 00 57.0000000  0  7G01G21G23G16G10G07G08                           
  23754544.650 8 124830964.292 8      3395.853 8        48.712                  
  21778828.089 8 114448515.933 8      1784.774 8        51.743                  
  23008644.403 8 120911238.685 8     -2824.404 8        50.931                  
  23481009.506 7 123393542.124 7     -3663.728 7        47.422                  
  21315798.336 9 112015266.470 9      -806.512 9        55.375                  
  24966698.346 7 131200885.067 7     -1912.633 7        45.964                  
  20443405.295 9 107430805.429 9       861.551 9        58.260                  
 02  5 18 00 00 58.0000000  0  7G01G21G23G16G10G07G08                           
  23753898.202 8 124827569.410 8      3397.139 8        48.509                  
  21778490.329 8 114446732.946 8      1783.034 8        51.992                  
  23009182.922 8 120914063.446 8     -2825.124 8        50.078                  
  23481707.827 7 123397208.601 7     -3665.611 7        47.740                  
  21315952.081 9 112016073.397 9      -806.606 9        55.500                  
  24967065.037 7 131202794.535 7     -1911.472 7        45.918                  
  20443239.113 9 107429944.189 9       861.868 9        56.995                  
 02  5 18 00 00 59.0000000  0  7G01G21G23G16G10G07G08                           
  23753251.076 8 124824174.700 8      3395.363 8        49.101                  
  21778154.999 8 114444950.266 8      1782.949 8        50.758                  
  23009718.796 8 120916888.586 8     -2824.323 8        49.960                  
  23482406.292 8 123400875.275 8     -3666.570 8        48.523                  
  21316105.969 9 112016880.921 9      -807.640 9        56.592                  
  24967425.347 7 131204704.368 7     -1910.927 7        44.695                  
  20443072.681 9 107429083.403 9       860.772 9        55.319                  
 02  5 18 00 01  0.0000000  0  7G01G21G23G16G10G07G08                           
  23752605.843 8 124820780.142 8      3397.666 8        49.843                  
  21777813.522 8 114443167.873 8      1780.440 8        52.408                  
  23010258.727 8 120919714.103 8     -2826.591 8        51.589                  
  23483102.755 8 123404542.131 8     -3670.427 8        48.696                  
  21316259.643 9 112017689.078 9      -807.972 9        57.441                  
  24967791.180 7 131206614.536 7     -1908.947 7        46.978                  
  20442905.695 9 107428223.093 9       859.871 9        57.002                  
 02  5 18 00 01  1.0000000  0  7G01G21G23G16G10G07G08                           
  23751959.914 8 124817385.741 8      3396.173 8        50.108                  
  21777470.294 8 114441385.790 8      1782.210 8        53.966                  
  23010795.155 8 120922540.020 8     -2823.883 8        49.270                  
  23483801.148 8 123408209.186 8     -3665.103 8        49.377                  
  21316414.138 9 112018497.852 9      -808.684 9        55.331                  
  24968153.296 7 131208525.075 7     -1912.298 7        47.400                  
  20442740.425 9 107427363.259 9       859.803 9        56.638                  
 02  5 18 00 01  2.0000000  0  7G01G21G23G16G10G07G08                           
  23751313.180 8 124813991.510 8      3395.815 8        49.065                  
  21777134.696 8 114439603.991 8      1782.065 8        50.745                  
  23011333.280 8 120925366.329 8     -2824.887 8        50.198                  
  23484499.755 8 123411876.434 8     -3666.523 8        49.126                  
  21316567.401 9 112019307.225 9      -810.837 9        54.343                  
  24968517.806 7 131210435.945 7     -1912.136 7        45.640                  
  20442578.603 9 107426503.904 9       858.935 9        57.190                  
 02  5 18 00 01  3.0000000  0  7G01G21G23G16G10G07G08                           
  23750667.947 8 124810597.432 8      3396.392 8        48.962                  
  21776798.651 8 114437822.515 8      1781.648 8        51.973                  
  23011872.085 8 120928193.043 8     -2826.685 8        50.887                  
  23485195.986 8 123415543.857 8     -3666.896 8        51.027                  
  21316721.039 9 112020117.192 9      -810.320 9        55.033                  
  24968882.030 7 131212347.184 7     -1910.550 7        44.746                  
  20442416.942 9 107425645.000 9       858.102 9        55.565                  
 02  5 18 00 01  4.0000000  0  7G01G21G23G16G10G07G08                           
  23750023.180 8 124807203.508 8      3390.100 8        49.267                  
  21776456.387 9 114436041.350 9      1780.685 9        54.056                  
  23012407.602 8 120931020.149 8     -2826.597 8        53.064                  
  23485895.344 8 123419211.501 8     -3668.042 8        52.167                  
  21316875.088 9 112020927.780 9      -810.882 9        54.671                  
  24969242.842 7 131214258.774 7     -1910.279 7        45.143                  
  20442255.888 9 107424786.575 9       858.146 9        56.759                  
 02  5 18 00 01  5.0000000  0  7G01G21G23G16G10G07G08                           
  23749375.803 8 124803809.766 8      3389.056 8        48.140                  
  21776115.429 8 114434260.482 8      1779.830 8        53.745                  
  23012947.782 8 120933847.640 8     -2827.713 8        51.190                  
  23486593.469 8 123422879.316 8     -3666.008 8        49.210                  
  21317028.833 9 112021738.999 9      -812.001 9        56.110                  
  24969609.996 7 131216170.713 7     -1912.787 7        45.787                  
  20442094.620 9 107423928.625 9       858.152 9        56.299                  
 02  5 18 00 01  6.0000000  0  7G01G21G23G16G10G07G08                           
  23748729.552 8 124800416.169 8      3392.085 8        48.427                  
  21775779.938 8 114432479.913 8      1779.866 8        52.029                  
  23013485.015 8 120936675.498 8     -2827.003 8        48.883                  
  23487290.485 8 123426547.329 8     -3664.421 8        48.791                  
  21317182.703 9 112022550.814 9      -812.132 9        56.326                  
  24969970.879 7 131218082.992 7     -1910.499 7        46.431                  
  20441934.710 9 107423071.154 9       857.034 9        57.026                  
 02  5 18 00 01  7.0000000  0  7G01G21G23G16G10G07G08                           
  23748085.481 8 124797022.723 8      3392.587 8        49.175                  
  21775443.053 8 114430699.640 8      1779.837 8        52.924                  
  23014023.247 8 120939503.762 8     -2827.351 8        48.924                  
  23487989.665 8 123430215.541 8     -3668.268 8        50.152                  
  21317336.662 9 112023363.226 9      -813.278 9        54.948                  
  24970337.480 7 131219995.640 7     -1914.429 7        46.142                  
  20441772.817 9 107422214.146 9       856.574 9        57.067                  
 02  5 18 00 01  8.0000000  0  7G01G21G23G16G10G07G08                           
  23747438.568 8 124793629.467 8      3393.927 8        48.891                  
  21775100.897 8 114428919.669 8      1778.965 8        52.585                  
  23014562.427 8 120942332.417 8     -2828.546 8        49.934                  
  23488687.432 8 123433883.933 8     -3666.727 8        50.799                  
  21317491.426 9 112024176.271 9      -813.296 9        57.846                  
  24970700.042 8 131221908.639 8     -1914.161 8        48.185                  
  20441607.314 9 107421357.601 9       857.238 9        58.692                  
 02  5 18 00 01  9.0000000  0  7G01G21G23G16G10G07G08                           
  23746792.496 8 124790236.353 8      3391.206 8        48.026                  
  21774760.474 8 114427139.990 8      1780.308 8        53.914                  
  23015099.338 8 120945161.476 8     -2829.967 8        50.448                  
  23489384.413 8 123437552.528 8     -3667.224 8        48.441                  
  21317645.475 9 112024989.930 9      -813.811 9        55.599                  
  24971064.499 8 131223821.982 8     -1912.736 8        48.049                  
  20441442.580 9 107420501.537 9       855.921 9        57.485                  
 02  5 18 00 01 10.0000000  0  7G01G21G23G16G10G07G08                           
  23746148.764 8 124786843.394 8      3397.270 8        49.663                  
  21774425.144 8 114425360.613 8      1779.870 8        53.374                  
  23015639.447 8 120947990.930 8     -2828.600 8        50.120                  
  23490083.825 8 123441221.312 8     -3669.609 8        49.563                  
  21317800.560 9 112025804.190 9      -814.386 9        54.981                  
  24971429.742 8 131225735.682 8     -1914.162 8        48.427                  
  20441277.541 9 107419645.949 9       855.828 9        56.886                  
 02  5 18 00 01 11.0000000  0  7G01G21G23G16G10G07G08                           
  23745502.281 7 124783450.614 7      3393.350 7        47.543                  
  21774088.456 8 114423581.533 8      1779.053 8        51.792                  
  23016176.500 8 120950820.753 8     -2827.752 8        50.591                  
  23490781.896 8 123444890.279 8     -3669.681 8        50.919                  
  21317955.324 9 112026619.045 9      -815.057 9        56.142                  
  24971791.822 8 131227649.729 8     -1913.669 8        48.148                  
  20441111.842 9 107418790.837 9       854.968 9        57.306                  
 02  5 18 00 01 12.0000000  0  7G01G21G23G16G10G07G08                           
  23744855.905 8 124780057.977 8      3389.551 8        50.000                  
  21773745.228 8 114421802.764 8      1779.353 8        53.125                  
  23016715.734 8 120953650.963 8     -2829.947 8        50.663                  
  23491479.485 8 123448559.446 8     -3669.310 8        51.402                  
  21318109.748 9 112027434.519 9      -816.638 9        57.105                  
  24972158.744 7 131229564.130 7     -1918.452 7        47.879                  
  20440946.553 9 107417936.178 9       854.476 9        57.346                  
 02  5 18 00 01 13.0000000  0  7G01G21G23G16G10G07G08                           
  23744211.298 8 124776665.505 8      3391.716 8        48.964                  
  21773406.360 8 114420024.306 8      1778.249 8        52.765                  
  23017255.253 8 120956481.562 8     -2828.608 8        50.189                  
  23492178.503 8 123452228.792 8     -3669.396 8        50.377                  
  21318266.030 9 112028250.629 9      -816.412 9        56.964                  
  24972519.055 7 131231478.871 7     -1913.300 7        46.490                  
  20440784.410 9 107417081.995 9       854.123 9        56.035                  
 02  5 18 00 01 14.0000000  0  7G01G21G23G16G10G07G08                           
  23743565.815 8 124773273.202 8      3392.187 8        48.572                  
  21773072.709 8 114418246.155 8      1778.602 8        51.986                  
  23017792.378 8 120959312.566 8     -2830.580 8        50.849                  
  23492876.306 8 123455898.338 8     -3670.835 8        49.972                  
  21318421.169 9 112029067.330 9      -816.836 9        54.914                  
  24972887.372 7 131233393.973 7     -1915.988 7        46.574                  
  20440624.053 9 107416228.288 9       854.174 9        54.646                  
 02  5 18 00 01 15.0000000  0  7G01G21G23G16G10G07G08                           
  23742918.849 8 124769881.055 8      3390.617 8        48.707                  
  21772733.466 8 114416468.292 8      1778.189 8        52.839                  
  23018333.863 8 120962143.968 8     -2830.900 8        50.297                  
  23493573.984 8 123459568.080 8     -3669.918 8        49.045                  
  21318576.290 9 112029884.630 9      -817.225 9        55.309                  
  24973249.648 7 131235309.428 7     -1916.110 7        46.907                  
  20440463.804 9 107415375.060 9       853.193 9        55.705                  
 02  5 18 00 01 16.0000000  0  7G01G21G23G16G10G07G08                           
  23742273.813 8 124766489.061 8      3395.020 8        48.234                  
  21772392.310 8 114414690.739 8      1778.257 8        52.835                  
  23018869.988 8 120964975.752 8     -2831.742 8        50.734                  
  23494273.968 8 123463237.996 8     -3672.086 8        49.587                  
  21318731.358 9 112030702.537 9      -818.502 9        55.979                  
  24973615.838 7 131237225.229 7     -1915.938 7        46.185                  
  20440303.823 9 107414522.308 9       853.054 9        56.599                  
 02  5 18 00 01 17.0000000  0  7G01G21G23G16G10G07G08                           
  23741629.724 7 124763097.249 7      3388.886 7        46.924                  
  21772053.764 9 114412913.472 9      1777.475 9        54.418                  
  23019409.257 8 120967807.905 8     -2834.095 8        50.225                  
  23494971.217 8 123466908.115 8     -3670.904 8        50.232                  
  21318887.997 9 112031521.086 9      -819.217 9        56.121                  
  24973980.742 8 131239141.390 8     -1916.847 8        48.113                  
  20440143.252 9 107413670.011 9       852.008 9        57.659                  
 02  5 18 00 01 18.0000000  0  7G01G21G23G16G10G07G08                           
  23740983.956 7 124759705.579 7      3392.971 7        47.715                  
  21771719.292 8 114411136.520 8      1775.584 8        53.193                  
  23019949.169 8 120970640.452 8     -2830.605 8        49.602                  
  23495669.449 8 123470578.416 8     -3672.522 8        49.394                  
  21319043.780 9 112032340.234 9      -820.186 9        55.369                  
  24974342.553 7 131241057.889 7     -1914.784 7        47.698                  
  20439983.771 9 107412818.189 9       850.983 9        57.422                  
 02  5 18 00 01 19.0000000  0  7G01G21G23G16G10G07G08                           
  23740337.043 7 124756314.076 7      3392.729 7        47.750                  
  21771381.442 8 114409359.842 8      1774.971 8        52.677                  
  23020485.776 8 120973473.406 8     -2832.123 8        50.263                  
  23496368.485 8 123474248.912 8     -3669.737 8        50.747                  
  21319200.973 9 112033159.976 9      -819.742 9        54.665                  
  24974711.102 8 131242974.739 8     -1916.071 8        48.138                  
  20439822.199 9 107411966.844 9       850.791 9        56.582                  
 02  5 18 00 01 20.0000000  0  7G01G21G23G16G10G07G08                           
  23739693.776 7 124752922.979 7      3390.292 7        47.307                  
  21771039.554 8 114407583.690 8      1774.650 8        50.990                  
  23021027.333 8 120976306.645 8     -2831.651 8        50.788                  
  23497066.682 8 123477919.477 8     -3671.992 8        50.063                  
  21319357.971 8 112033980.166 8      -819.477 8        53.407                  
  24975072.378 7 131244892.276 7     -1918.161 7        47.211                  
  20439658.590 9 107411116.073 9       849.558 9        56.522                  
 02  5 18 00 01 21.0000000  0  7G01G21G23G16G10G07G08                           
  23739050.116 7 124749543.053 7      3371.635 7        47.414                  
  21770703.795 8 114405816.870 8      1759.525 8        51.510                  
  23021565.512 8 120979135.224 8     -2825.607 8        51.009                  
  23497763.556 8 123481584.839 8     -3661.064 8        50.620                  
  21319513.503 9 112034794.411 9      -808.254 9        55.099                  
  24975443.768 7 131246824.702 7     -1946.258 7        46.894                  
  20439496.036 9 107410270.107 9       841.533 9        56.361                  
 02  5 18 00 01 22.0000000  0  7G01G21G23G16G10G07G08                           
  23738407.671 7 124746181.991 7      3352.544 7        47.307                  
  21770374.254 8 114404065.683 8      1742.651 8        53.868                  
  23022101.743 8 120981955.677 8     -2818.277 8        51.649                  
  23498461.931 8 123485241.203 8     -3654.526 8        50.278                  
  21319666.479 8 112035598.110 8      -798.652 8        53.738                  
  24975813.103 7 131248782.129 7     -1971.020 7        46.121                  
  20439334.267 9 107409431.933 9       834.886 9        56.129                  
 02  5 18 00 01 23.0000000  0  7G01G21G23G16G10G07G08                           
  23737774.214 8 124742839.792 8      3334.719 8        48.318                  
  21770045.286 8 114402330.147 8      1728.520 8        52.278                  
  23022636.796 8 120984767.994 8     -2806.686 8        49.569                  
  23499154.266 8 123488888.556 8     -3640.511 8        49.422                  
  21319817.455 9 112036391.222 9      -787.902 9        54.801                  
  24976193.195 7 131250764.588 7     -1994.713 7        46.188                  
  20439173.946 9 107408601.557 9       826.453 9        56.709                  
 02  5 18 00 01 24.0000000  0  7G01G21G23G16G10G07G08                           
  23737141.079 8 124739511.608 8      3326.350 8        49.294                  
  21769713.619 8 114400606.280 8      1721.446 8        53.329                  
  23023171.079 8 120987574.399 8     -2807.258 8        50.766                  
  23499846.548 8 123492529.222 8     -3639.645 8        50.561                  
  21319967.322 9 112037176.673 9      -784.895 9        56.696                  
  24976571.053 7 131252765.698 7     -2003.986 7        45.350                  
  20439016.181 9 107407777.078 9       823.623 9        54.763                  
 02  5 18 00 01 25.0000000  0  7G01G21G23G16G10G07G08                           
  23736508.677 8 124736184.514 8      3326.641 8        48.079                  
  21769382.953 8 114398883.491 8      1723.353 8        53.947                  
  23023704.577 8 120990380.874 8     -2805.833 8        49.432                  
  23500541.385 8 123496169.440 8     -3640.699 8        49.541                  
  21320116.814 9 112037962.191 9      -785.667 9        56.143                  
  24976955.040 7 131254768.453 7     -2002.331 7        47.275                  
  20438857.790 9 107406953.449 9       823.098 9        56.124                  
 02  5 18 00 01 26.0000000  0  7G01G21G23G16G10G07G08                           
  23735874.291 8 124732856.735 8      3331.654 8        49.329                  
  21769056.235 9 114397160.422 9      1724.976 9        54.334                  
  23024239.129 8 120993188.633 8     -2808.680 8        51.429                  
  23501231.754 8 123499809.190 8     -3640.995 8        48.994                  
  21320266.039 9 112038748.822 9      -788.458 9        57.600                  
  24977333.381 7 131256770.985 7     -2001.407 7        46.570                  
  20438699.685 9 107406130.202 9       823.913 9        57.193                  
 02  5 18 00 01 27.0000000  0  7G01G21G23G16G10G07G08                           
  23735238.493 7 124729515.970 7      3351.489 7        47.770                  
  21768730.018 8 114395427.340 8      1742.602 8        52.435                  
  23024776.343 8 120996004.657 8     -2820.035 8        50.961                  
  23501925.751 7 123503451.628 7     -3644.295 7        47.652                  
  21320417.443 9 112039543.857 9      -802.588 9        55.877                  
  24977714.170 8 131258758.458 8     -1972.640 8        49.105                  
  20438542.169 9 107405303.145 9       831.512 9        56.720                  
 02  5 18 00 01 28.0000000  0  7G01G21G23G16G10G07G08                           
  23734599.890 7 124726151.964 7      3377.596 7        45.669                  
  21768397.780 9 114393676.180 9      1760.534 9        55.205                  
  23025312.217 8 120998834.972 8     -2837.972 8        51.962                  
  23502619.677 8 123507098.936 8     -3651.278 8        48.020                  
  21320571.956 9 112040353.407 9      -816.545 9        54.919                  
  24978082.897 8 131260718.843 8     -1949.939 8        50.170                  
  20438384.386 9 107404468.969 9       836.901 9        56.768                  
 02  5 18 00 01 29.0000000  0  7G01G21G23G16G10G07G08                           
  23733954.550 7 124722768.957 7      3387.742 7        46.956                  
  21768058.036 8 114391910.116 8      1769.854 8        53.837                  
  23025855.007 8 121001676.544 8     -2848.472 8        50.906                  
  23503313.763 8 123510751.417 8     -3650.324 8        49.745                  
  21320728.328 9 112041174.944 9      -825.172 9        54.626                  
  24978456.378 8 131262656.420 8     -1933.581 8        48.057                  
  20438226.638 9 107403628.788 9       839.982 9        57.493                  
 02  5 18 00 01 30.0000000  0  7G01G21G23G16G10G07G08                           
  23733308.531 8 124719374.936 8      3399.275 8        48.794                  
  21767718.989 8 114390137.675 8      1775.467 8        52.518                  
  23026399.011 8 121004533.573 8     -2868.973 8        50.039                  
  23504007.600 8 123514388.454 8     -3627.087 8        49.612                  
  21320886.094 9 112042003.499 9      -832.963 9        55.540                  
  24978821.174 7 131264590.098 7     -1933.534 7        46.216                  
  20438068.086 9 107402789.552 9       838.219 9        58.192                  
 02  5 18 00 01 31.0000000  0  7G01G21G23G16G10G07G08                           
  23732661.994 8 124715970.333 8      3406.122 8        49.503                  
  21767384.410 8 114388359.686 8      1778.056 8        52.167                  
  23026944.016 8 121007407.534 8     -2877.581 8        49.629                  
  23504694.878 8 123518006.418 8     -3615.920 8        51.224                  
  21321045.039 8 112042838.732 8      -834.457 8        52.860                  
  24979191.188 7 131266522.157 7     -1929.364 7        45.589                  
  20437910.410 9 107401952.238 9       835.719 9        55.909                  
 02  5 18 00 01 32.0000000  0  7G01G21G23G16G10G07G08                           
  23732014.046 8 124712570.502 8      3395.217 8        48.902                  
  21767048.597 9 114386585.684 9      1770.188 9        54.261                  
  23027492.738 8 121010279.450 8     -2870.629 8        50.793                  
  23505383.443 8 123521623.060 8     -3618.991 8        50.200                  
  21321204.091 8 112043671.875 8      -832.880 8        52.235                  
  24979557.824 7 131268460.208 7     -1943.536 7        44.920                  
  20437752.984 9 107401116.998 9       834.522 9        55.332                  
 02  5 18 00 01 33.0000000  0  7G01G21G23G16G10G07G08                           
  23731369.027 8 124709179.108 8      3383.932 8        50.173                  
  21766708.281 8 114384817.538 8      1766.105 8        52.399                  
  23028036.779 8 121013143.128 8     -2859.092 8        48.656                  
  23506071.579 8 123525246.102 8     -3625.281 8        49.794                  
  21321361.999 8 112044500.842 8      -826.425 8        52.905                  
  24979931.198 7 131270404.397 7     -1949.839 7        46.963                  
  20437595.647 9 107400283.083 9       833.052 9        56.573                  
 02  5 18 00 01 34.0000000  0  7G01G21G23G16G10G07G08                           
  23730725.618 8 124705796.373 8      3378.195 8        49.131                  
  21766371.200 8 114383055.564 8      1759.331 8        52.744                  
  23028579.139 8 121015998.979 8     -2850.075 8        51.119                  
  23506762.181 8 123528874.311 8     -3627.390 8        49.305                  
  21321518.389 8 112045325.470 8      -821.744 8        52.356                  
  24980299.246 7 131272355.600 7     -1951.118 7        46.947                  
  20437439.400 9 107399450.833 9       831.648 9        56.218                  
 02  5 18 00 01 35.0000000  0  7G01G21G23G16G10G07G08                           
  23730080.975 8 124702420.679 8      3370.800 8        48.023                  
  21766039.837 8 114381297.945 8      1753.811 8        52.671                  
  23029123.019 8 121018845.779 8     -2844.013 8        52.261                  
  23507456.536 8 123532512.645 8     -3641.465 8        48.698                  
  21321673.760 9 112046146.812 9      -817.383 9        54.907                  
  24980672.941 8 131274309.637 8     -1959.782 8        48.103                  
  20437282.600 9 107398618.672 9       830.424 9        57.638                  
 02  5 18 00 01 36.0000000  0  7G01G21G23G16G10G07G08                           
  23729440.781 8 124699054.490 8      3362.981 8        48.323                  
  21765709.492 8 114379547.365 8      1747.285 8        50.628                  
  23029662.145 8 121021684.985 8     -2834.948 8        51.749                  
  23508150.032 8 123536154.399 8     -3646.773 8        49.715                  
  21321828.041 9 112046963.278 9      -815.978 9        54.130                  
  24981044.509 7 131276272.454 7     -1966.582 7        47.118                  
  20437124.548 9 107397788.830 9       829.195 9        54.216                  
 02  5 18 00 01 37.0000000  0  7G01G21G23G16G10G07G08                           
  23728805.627 7 124695696.054 7      3355.640 7        47.445                  
  21765375.574 8 114377802.186 8      1742.747 8        52.271                  
  23030201.325 8 121024516.684 8     -2826.058 8        50.903                  
  23508840.956 8 123539802.016 8     -3649.665 8        49.127                  
  21321983.055 9 112047775.963 9      -810.127 9        55.303                  
  24981420.706 7 131278240.905 7     -1970.693 7        46.353                  
  20436965.460 9 107396960.242 9       828.610 9        54.475                  
 02  5 18 00 01 38.0000000  0  7G01G21G23G16G10G07G08                           
  23728165.433 8 124692344.074 8      3348.134 8        48.511                  
  21765040.369 8 114376061.353 8      1738.713 8        53.588                  
  23030738.611 8 121027341.559 8     -2822.301 8        50.465                  
  23509537.258 8 123543455.892 8     -3657.030 8        49.403                  
  21322136.443 9 112048585.620 9      -808.570 9        56.125                  
  24981794.847 7 131280213.447 7     -1973.491 7        47.344                  
  20436806.640 9 107396132.452 9       827.463 9        55.840                  
 02  5 18 00 01 39.0000000  0  7G01G21G23G16G10G07G08                           
  23727529.546 8 124688997.352 8      3343.321 8        48.549                  
  21764711.347 8 114374323.866 8      1735.271 8        53.532                  
  23031273.466 8 121030159.947 8     -2815.424 8        49.929                  
  23510232.846 8 123547117.066 8     -3662.622 8        49.816                  
  21322289.902 9 112049392.979 9      -806.786 9        55.986                  
  24982172.205 7 131282188.315 7     -1973.746 7        47.864                  
  20436647.999 9 107395304.935 9       827.815 9        55.725                  
 02  5 18 00 01 40.0000000  0  7G01G21G23G16G10G07G08                           
  23726891.676 7 124685653.888 7      3342.918 7        47.337                  
  21764383.539 8 114372588.304 8      1735.869 8        53.350                  
  23031811.091 8 121032973.727 8     -2812.773 8        51.332                  
  23510933.401 8 123550784.418 8     -3672.061 8        51.892                  
  21322443.897 9 112050199.196 9      -806.219 9        56.356                  
  24982546.615 8 131284163.889 8     -1971.347 8        48.929                  
  20436489.429 9 107394477.338 9       828.477 9        56.565                  
 02  5 18 00 01 41.0000000  0  7G01G21G23G16G10G07G08                           
  23726255.163 8 124682310.476 8      3338.078 8        48.594                  
  21764053.999 8 114370851.994 8      1730.458 8        52.705                  
  23032344.321 8 121035784.151 8     -2803.229 8        49.510                  
  23511632.455 8 123554460.000 8     -3677.817 8        50.603                  
  21322595.248 9 112051006.186 9      -804.588 9        58.016                  
  24982922.633 7 131286135.723 7     -1976.725 7        47.746                  
  20436329.895 9 107393648.335 9       827.519 9        55.618                  
 02  5 18 00 01 42.0000000  0  7G01G21G23G16G10G07G08                           
  23725622.153 7 124678974.440 7      3330.241 7        47.178                  
  21763722.904 8 114369120.520 8      1731.623 8        53.487                  
  23032879.802 8 121038586.131 8     -2799.670 8        51.533                  
  23512334.547 8 123558143.939 8     -3687.529 8        51.043                  
  21322749.136 9 112051809.614 9      -802.586 9        56.853                  
  24983296.024 7 131288111.650 7     -1972.590 7        45.439                  
  20436170.485 9 107392819.923 9       829.068 9        56.156                  
 02  5 18 00 01 43.0000000  0  7G01G21G23G16G10G07G08                           
  23724987.320 8 124675640.312 8      3329.049 8        48.074                  
  21763389.039 8 114367389.758 8      1727.805 8        53.058                  
  23033410.208 8 121041383.638 8     -2793.873 8        50.645                  
  23513035.691 8 123561835.697 8     -3697.287 8        51.493                  
  21322901.594 8 112052612.688 8      -800.836 8        52.480                  
  24983675.562 7 131290086.048 7     -1974.691 7        45.854                  
  20436011.379 9 107391990.741 9       829.085 9        54.857                  
 02  5 18 00 01 44.0000000  0  7G01G21G23G16G10G07G08                           
  23724352.970 8 124672311.263 8      3331.378 8        49.061                  
  21763061.303 8 114365661.970 8      1729.041 8        52.828                  
  23033941.919 8 121044173.954 8     -2787.517 8        48.573                  
  23513740.624 8 123565536.474 8     -3704.686 8        49.978                  
  21323054.267 8 112053413.551 8      -802.004 8        53.695                  
  24984052.259 7 131292061.755 7     -1974.354 7        47.523                  
  20435851.184 9 107391161.352 9       829.490 9        56.919                  
 02  5 18 00 01 45.0000000  0  7G01G21G23G16G10G07G08                           
  23723719.585 8 124668981.122 8      3332.403 8        48.904                  
  21762736.712 8 114363932.972 8      1729.586 8        53.644                  
  23034472.790 8 121046963.188 8     -2791.036 8        48.818                  
  23514444.324 8 123569242.291 8     -3705.861 8        51.228                  
  21323206.619 8 112054215.808 8      -803.010 8        53.036                  
  24984426.347 7 131294034.070 7     -1974.023 7        46.219                  
  20435693.096 9 107390330.989 9       829.974 9        55.652                  
 02  5 18 00 01 46.0000000  0  7G01G21G23G16G10G07G08                           
  23723084.788 8 124665644.875 8      3341.482 8        48.514                  
  21762408.744 8 114362199.683 8      1738.943 8        51.757                  
  23035004.625 8 121049757.925 8     -2804.338 8        51.091                  
  23515149.043 8 123572946.645 8     -3696.047 8        49.773                  
  21323359.792 9 112055022.347 9      -812.234 9        54.603                  
  24984798.469 7 131296000.792 7     -1961.190 7        47.746                  
  20435536.242 9 107389499.741 9       831.942 9        54.524                  
 02  5 18 00 01 47.0000000  0  7G01G21G23G16G10G07G08                           
  23722446.917 7 124662289.030 7      3361.108 7        47.275                  
  21762073.289 8 114360453.693 8      1750.696 8        51.636                  
  23035541.679 8 121052574.833 8     -2826.306 8        51.578                  
  23515852.064 8 123576634.005 8     -3682.796 8        49.764                  
  21323516.450 9 112055840.973 9      -822.437 9        55.062                  
  24985172.933 7 131297955.111 7     -1953.405 7        46.092                  
  20435379.281 9 107388667.424 9       831.656 9        55.232                  
 02  5 18 00 01 48.0000000  0  7G01G21G23G16G10G07G08                           
  23721809.082 8 124658933.300 8      3347.201 8        48.983                  
  21761739.317 8 114358709.265 8      1736.564 8        53.658                  
  23036076.159 8 121055397.402 8     -2819.024 8        49.441                  
  23516550.635 8 123580310.522 8     -3668.791 8        48.528                  
  21323671.731 9 112056660.138 9      -813.866 9        54.871                  
  24985544.036 7 131299915.155 7     -1974.497 7        44.886                  
  20435222.105 8 107387838.075 8       826.154 8        53.876                  
 02  5 18 00 01 49.0000000  0  7G01G21G23G16G10G07G08                           
  23721171.748 7 124655595.084 7      3328.285 7        47.490                  
  21761410.188 8 114356979.847 8      1721.276 8        52.335                  
  23036614.821 8 121058214.468 8     -2814.868 8        50.568                  
  23517248.188 8 123583974.510 8     -3655.940 8        49.272                  
  21323825.566 9 112057469.535 9      -803.890 9        56.375                  
  24985923.878 7 131301900.477 7     -1994.214 7        46.271                  
  20435066.966 9 107387016.867 9       817.881 9        55.283                  
 02  5 18 00 01 50.0000000  0  7G01G21G23G16G10G07G08                           
  23720540.042 7 124652272.158 7      3322.831 7        47.083                  
  21761087.509 8 114355263.679 8      1712.593 8        52.814                  
  23037146.978 8 121061027.236 8     -2811.148 8        51.630                  
  23517944.062 8 123587626.569 8     -3648.277 8        49.030                  
  21323978.006 9 112058270.461 9      -799.608 9        56.481                  
  24986303.041 7 131303908.354 7     -2012.123 7        44.743                  
  20434912.899 9 107386203.009 9       812.852 9        56.881                  
 02  5 18 00 01 51.0000000  0  7G01G21G23G16G10G07G08                           
  23719908.980 7 124648952.128 7      3315.991 7        47.897                  
  21760762.596 8 114353550.268 8      1715.566 8        50.507                  
  23037685.854 8 121063840.267 8     -2813.168 8        50.334                  
  23518637.076 8 123591275.284 8     -3647.254 8        49.705                  
  21324129.857 9 112059070.366 9      -799.490 9        54.364                  
  24986687.815 7 131305921.240 7     -2014.099 7        45.079                  
  20434759.780 9 107385391.180 9       811.436 9        54.236                  
 02  5 18 00 01 52.0000000  0  7G01G21G23G16G10G07G08                           
  23719277.238 7 124645631.624 7      3322.623 7        47.505                  
  21760434.896 8 114351836.779 8      1714.351 8        52.731                  
  23038219.388 8 121066654.486 8     -2815.006 8        50.809                  
  23519332.092 8 123594923.339 8     -3647.867 8        49.101                  
  21324282.209 8 112059871.266 8      -802.845 8        53.448                  
  24987069.050 7 131307934.206 7     -2012.010 7        45.624                  
  20434605.963 9 107384579.821 9       811.003 9        54.363                  
 02  5 18 00 01 53.0000000  0  7G01G21G23G16G10G07G08                           
  23718641.709 7 124642301.694 7      3340.829 7        47.882                  
  21760103.891 9 114350116.116 9      1729.735 9        55.257                  
  23038756.995 8 121069475.025 8     -2826.407 8        51.462                  
  23520027.518 8 123598573.001 8     -3653.444 8        49.941                  
  21324436.079 9 112060678.436 9      -813.144 9        54.650                  
  24987453.610 7 131309936.498 7     -1985.276 7        46.914                  
  20434451.771 9 107383765.951 9       816.522 9        56.545                  
 02  5 18 00 01 54.0000000  0  7G01G21G23G16G10G07G08                           
  23718002.945 7 124638949.035 7      3363.324 7        47.817                  
  21759772.563 8 114348377.900 8      1747.164 8        53.812                  
  23039297.122 8 121072309.867 8     -2841.794 8        50.901                  
  23520721.176 8 123602226.781 8     -3655.697 8        52.668                  
  21324593.398 9 112061499.813 9      -829.134 9        55.916                  
  24987825.964 7 131311912.595 7     -1961.042 7        45.708                  
  20434296.114 9 107382945.326 9       824.540 9        56.911                  
 02  5 18 00 01 55.0000000  0  7G01G21G23G16G10G07G08                           
  23717363.162 8 124635572.819 8      3382.853 8        48.053                  
  21759441.790 8 114346621.321 8      1762.030 8        52.948                  
  23039836.552 8 121075158.923 8     -2854.416 8        50.548                  
  23521418.050 8 123605885.957 8     -3662.184 8        51.046                  
  21324753.754 9 112062335.845 9      -842.242 9        56.357                  
  24988200.213 7 131313860.944 7     -1935.719 7        46.637                  
  20434140.654 9 107382117.444 9       830.184 9        56.612                  
 02  5 18 00 01 56.0000000  0  7G01G21G23G16G10G07G08                           
  23716717.679 8 124632182.108 8      3398.875 8        48.235                  
  21759107.639 8 114344854.276 8      1772.742 8        51.180                  
  23040383.523 8 121078019.882 8     -2872.797 8        50.263                  
  23522114.567 8 123609542.381 8     -3646.603 8        49.203                  
  21324915.487 9 112063181.127 9      -851.594 9        56.500                  
  24988565.081 7 131315795.305 7     -1927.786 7        46.954                  
  20433984.353 9 107381286.663 9       830.007 9        55.875                  
 02  5 18 00 01 57.0000000  0  7G01G21G23G16G10G07G08                           
  23716066.800 8 124628769.778 8      3424.728 8        48.997                  
  21758764.929 8 114343073.337 8      1790.409 8        52.290                  
  23040931.887 8 121080905.592 8     -2897.718 8        51.585                  
  23522805.472 8 123613179.329 8     -3628.958 8        49.441                  
  21325079.328 9 112064039.708 9      -865.240 9        55.734                  
  24988934.005 7 131317716.247 7     -1913.810 7        47.656                  
  20433825.927 9 107380454.820 9       832.930 9        56.287                  
 02  5 18 00 01 58.0000000  0  7G01G21G23G16G10G07G08                           
  23715414.259 7 124625334.171 7      3443.780 7        47.870                  
  21758421.290 8 114341276.976 8      1804.528 8        53.055                  
  23041484.362 8 121083816.263 8     -2921.416 8        49.648                  
  23523494.252 8 123616798.821 8     -3612.340 8        48.816                  
  21325245.724 9 112064912.652 9      -879.778 9        54.574                  
  24989293.083 7 131319620.929 7     -1898.850 7        47.054                  
  20433665.713 9 107379620.974 9       835.271 9        57.357                  
 02  5 18 00 01 59.0000000  0  7G01G21G23G16G10G07G08                           
  23714757.233 8 124621882.699 8      3448.947 8        48.057                  
  21758082.100 8 114339469.448 8      1808.282 8        53.472                  
  23042042.340 8 121086741.245 8     -2925.720 8        49.521                  
  23524181.745 8 123620412.516 8     -3614.827 8        49.271                  
  21325414.479 9 112065795.640 9      -884.676 9        56.785                  
  24989649.730 7 131321511.627 7     -1882.599 7        45.179                  
  20433505.106 9 107378784.545 9       836.298 9        57.542                  
 02  5 18 00 02  0.0000000  0  7G01G21G23G16G10G07G08                           
  23714099.725 7 124618430.928 7      3444.710 7        47.748                  
  21757737.353 9 114337661.050 9      1804.565 9        54.542                  
  23042598.978 8 121089663.484 8     -2913.645 8        50.937                  
  23524871.453 8 123624033.613 8     -3631.294 8        49.583                  
  21325579.607 9 112066679.559 9      -879.581 9        54.132                  
  24990014.294 8 131323398.621 8     -1888.848 8        48.768                  
  20433343.999 9 107377946.826 9       837.408 9        57.129                  
 02  5 18 00 02  1.0000000  0  7G01G21G23G16G10G07G08                           
  23713445.915 8 124614990.096 8      3442.488 8        48.213                  
  21757389.961 8 114335859.259 8      1804.617 8        53.334                  
  23043149.630 8 121092571.177 8     -2908.120 8        49.067                  
  23525562.895 8 123627670.655 8     -3640.418 8        50.593                  
  21325746.361 8 112067557.895 8      -880.557 8        51.363                  
  24990371.299 7 131325289.808 7     -1884.926 7        47.404                  
  20433182.534 9 107377108.996 9       839.461 9        54.190                  
 02  5 18 00 02  2.0000000  0  7G01G21G23G16G10G07G08                           
  23712787.334 8 124611534.269 8      3465.739 8        48.870                  
  21757048.127 9 114334046.555 9      1817.695 9        55.039                  
  23043706.518 8 121095490.862 8     -2928.757 8        48.100                  
  23526254.408 8 123631305.538 8     -3632.843 8        49.806                  
  21325914.615 9 112068445.785 9      -893.609 9        54.803                  
  24990732.450 7 131327166.145 7     -1865.267 7        46.988                  
  20433020.873 9 107376267.986 9       843.108 9        56.966                  
 02  5 18 00 02  3.0000000  0  7G01G21G23G16G10G07G08                           
  23712128.896 8 124608068.412 8      3466.793 8        49.509                  
  21756704.166 8 114332226.146 8      1822.171 8        53.005                  
  23044264.317 8 121098416.898 8     -2927.890 8        49.281                  
  23526948.173 8 123634942.829 8     -3640.252 8        50.356                  
  21326084.603 9 112069340.355 9      -896.709 9        55.509                  
  24991084.398 7 131329030.785 7     -1860.913 7        47.202                  
  20432857.461 9 107375424.175 9       845.125 9        57.764                  
 02  5 18 00 02  4.0000000  0  7G01G21G23G16G10G07G08                           
  23711467.796 7 124604600.748 7      3468.613 7        47.560                  
  21756352.504 8 114330403.558 8      1821.017 8        51.521                  
  23044819.990 8 121101340.598 8     -2924.516 8        48.861                  
  23527640.544 8 123638588.788 8     -3649.879 8        50.644                  
  21326257.450 8 112070236.749 8      -897.883 8        53.722                  
  24991436.793 7 131330889.461 7     -1858.135 7        46.082                  
  20432695.872 9 107374578.399 9       847.784 9        57.087                  
 02  5 18 00 02  5.0000000  0  7G01G21G23G16G10G07G08                           
  23710807.804 7 124601132.582 7      3465.946 7        47.626                  
  21756006.130 8 114328579.596 8      1823.855 8        52.383                  
  23045374.627 8 121104260.333 8     -2919.717 8        49.516                  
  23528336.632 8 123642245.043 8     -3662.011 8        50.267                  
  21326429.529 9 112071134.263 9      -897.754 9        55.133                  
  24991792.548 7 131332742.816 7     -1853.112 7        44.705                  
  20432536.051 9 107373730.665 9       848.615 9        57.068                  
 02  5 18 00 02  6.0000000  0  7G01G21G23G16G10G07G08                           
  23710150.367 8 124597664.851 8      3466.887 8        48.398                  
  21755663.957 8 114326755.433 8      1823.003 8        53.684                  
  23045930.872 8 121107177.411 8     -2916.226 8        50.445                  
  23529034.614 8 123645907.472 8     -3664.094 8        50.798                  
  21326601.197 9 112072032.254 9      -898.160 9        55.235                  
  24992141.441 7 131334593.886 7     -1846.829 7        44.449                  
  20432376.141 9 107372882.133 9       847.987 9        55.863                  
 02  5 18 00 02  7.0000000  0  7G01G21G23G16G10G07G08                           
  23709487.605 8 124594197.819 8      3465.294 8        49.002                  
  21755312.491 9 114324931.494 9      1823.055 9        55.376                  
  23046484.418 8 121110092.544 8     -2915.624 8        48.899                  
  23529731.434 8 123649574.245 8     -3669.031 8        50.175                  
  21326770.524 9 112072930.594 9      -898.886 9        55.834                  
  24992499.053 7 131336443.835 7     -1851.941 7        44.456                  
  20432216.660 9 107372033.316 9       849.636 9        57.416                  
 02  5 18 00 02  8.0000000  0  7G01G21G23G16G10G07G08                           
  23708829.506 8 124590732.342 8      3467.081 8        48.009                  
  21754964.992 9 114323108.105 9      1823.846 9        54.347                  
  23047040.395 8 121113003.890 8     -2908.585 8        50.418                  
  23530430.256 8 123653247.930 8     -3676.924 8        50.219                  
  21326939.583 9 112073828.751 9      -897.193 9        54.735                  
  24992849.072 7 131338292.320 7     -1848.841 7        44.618                  
  20432056.447 9 107371183.843 9       849.532 9        55.017                  
 02  5 18 00 02  9.0000000  0  7G01G21G23G16G10G07G08                           
  23708170.640 7 124587269.255 7      3460.245 7        47.616                  
  21754622.228 8 114321285.812 8      1822.027 8        53.761                  
  23047592.441 8 121115910.444 8     -2904.375 8        49.730                  
  23531131.847 8 123656929.469 8     -3686.855 8        49.001                  
  21327109.660 9 112074726.263 9      -896.200 9        54.727                  
  24993197.607 7 131340139.842 7     -1851.484 7        44.887                  
  20431897.716 9 107370333.774 9       850.695 9        57.221                  
 02  5 18 00 02 10.0000000  0  7G01G21G23G16G10G07G08                           
  23707512.702 8 124583809.266 8      3458.970 8        48.763                  
  21754273.639 9 114319465.178 9      1819.655 9        54.164                  
  23048145.916 8 121118811.725 8     -2900.276 8        48.647                  
  23531832.778 8 123660618.734 8     -3691.786 8        48.875                  
  21327280.291 9 112075622.697 9      -895.271 9        55.982                  
  24993551.181 7 131341987.181 7     -1844.302 7        46.019                  
  20431737.735 9 107369483.311 9       850.160 9        57.421                  
 02  5 18 00 02 11.0000000  0  7G01G21G23G16G10G07G08                           
  23706854.676 8 124580351.955 8      3455.756 8        49.119                  
  21753923.746 9 114317646.136 9      1819.243 9        54.024                  
  23048690.921 8 121121709.105 8     -2893.338 8        49.381                  
  23532535.799 8 123664313.510 8     -3699.748 8        48.059                  
  21327454.496 9 112076518.266 9      -895.460 9        54.563                  
  24993904.148 7 131343835.000 7     -1846.336 7        46.253                  
  20431576.217 9 107368632.860 9       851.203 9        55.682                  
 02  5 18 00 02 12.0000000  0  7G01G21G23G16G10G07G08                           
  23706195.863 8 124576897.990 8      3447.599 8        48.067                  
  21753582.305 8 114315829.153 8      1814.993 8        53.231                  
  23049247.166 8 121124601.915 8     -2891.135 8        50.775                  
  23533242.036 8 123668014.208 8     -3705.023 8        48.776                  
  21327623.609 9 112077412.598 9      -892.898 9        54.749                  
  24994251.933 7 131345683.770 7     -1848.116 7        45.399                  
  20431412.912 9 107367782.467 9       849.423 9        55.497                  
 02  5 18 00 02 13.0000000  0  7G01G21G23G16G10G07G08                           
  23705541.302 7 124573451.033 7      3442.737 7        47.455                  
  21753237.182 8 114314016.727 8      1807.450 8        52.725                  
  23049797.639 8 121127486.651 8     -2881.314 8        49.778                  
  23533946.755 8 123671722.934 8     -3711.323 8        49.421                  
  21327794.097 8 112078303.530 8      -886.760 8        53.948                  
  24994605.972 7 131347536.455 7     -1861.134 7        46.023                  
  20431248.534 9 107366932.686 9       848.637 9        54.577                  
 02  5 18 00 02 14.0000000  0  7G01G21G23G16G10G07G08                           
  23704889.155 8 124570021.185 8      3425.448 8        48.731                  
  21752891.524 8 114312217.493 8      1795.403 8        52.390                  
  23050340.732 8 121130360.158 8     -2867.887 8        50.413                  
  23534651.509 8 123675431.739 8     -3708.084 8        48.577                  
  21327961.798 9 112079185.050 9      -877.986 9        55.439                  
  24994964.871 7 131349407.763 7     -1873.286 7        46.391                  
  20431085.462 9 107366088.087 9       842.902 9        56.051                  
 02  5 18 00 02 15.0000000  0  7G01G21G23G16G10G07G08                           
  23704235.559 8 124566599.458 8      3418.150 8        48.976                  
  21752552.674 8 114310424.104 8      1792.526 8        51.255                  
  23050887.721 8 121133226.641 8     -2863.742 8        49.138                  
  23535358.658 8 123679144.753 8     -3715.102 8        49.987                  
  21328126.568 9 112080062.464 9      -877.162 9        54.766                  
  24995318.410 7 131351286.024 7     -1879.051 7        46.992                  
  20430922.818 9 107365245.231 9       842.810 9        55.956                  
 02  5 18 00 02 16.0000000  0  7G01G21G23G16G10G07G08                           
  23703586.503 7 124563180.774 7      3417.736 7        45.911                  
  21752215.146 8 114308632.877 8      1790.700 8        51.711                  
  23051430.278 8 121136090.140 8     -2863.783 8        50.296                  
  23536066.593 8 123682860.768 8     -3718.543 8        50.470                  
  21328291.517 9 112080938.799 9      -876.891 9        54.162                  
  24995678.864 7 131353166.410 7     -1877.963 7        45.817                  
  20430760.138 9 107364403.040 9       841.520 9        56.848                  
 02  5 18 00 02 17.0000000  0  7G01G21G23G16G10G07G08                           
  23702936.875 7 124559766.247 7      3409.381 7        47.339                  
  21751870.327 8 114306844.675 8      1784.424 8        52.315                  
  23051975.712 8 121138950.035 8     -2858.572 8        51.840                  
  23536773.116 8 123686579.620 8     -3718.876 8        49.631                  
  21328458.789 9 112081813.409 9      -872.719 9        56.957                  
  24996034.189 7 131355050.131 7     -1890.940 7        46.615                  
  20430599.085 9 107363561.818 9       840.110 9        56.049                  
 02  5 18 00 02 18.0000000  0  7G01G21G23G16G10G07G08                           
  23702288.193 7 124556357.796 7      3410.021 7        47.091                  
  21751529.529 8 114305060.411 8      1785.736 8        52.222                  
  23052521.521 8 121141802.808 8     -2849.741 8        51.421                  
  23537482.177 8 123690305.754 8     -3735.086 8        49.773                  
  21328622.898 9 112082685.133 9      -872.440 9        57.443                  
  24996395.340 7 131356937.134 7     -1885.066 7        47.667                  
  20430440.461 9 107362721.124 9       843.380 9        56.432                  
 02  5 18 00 02 19.0000000  0  7G01G21G23G16G10G07G08                           
  23701639.851 7 124552949.878 7      3406.030 7        47.525                  
  21751193.341 8 114303274.663 8      1783.467 8        52.763                  
  23053060.826 8 121144647.279 8     -2839.123 8        51.039                  
  23538195.705 8 123694049.600 8     -3749.907 8        50.158                  
  21328790.813 9 112083557.285 9      -870.169 9        56.812                  
  24996754.186 8 131358816.394 8     -1880.566 8        48.395                  
  20430281.427 9 107361877.127 9       843.963 9        58.633                  
 02  5 18 00 02 20.0000000  0  7G01G21G23G16G10G07G08                           
  23700993.064 8 124549550.376 8      3397.725 8        48.113                  
  21750856.385 8 114301494.709 8      1777.073 8        53.869                  
  23053600.614 8 121147483.453 8     -2836.279 8        48.682                  
  23538908.857 8 123697799.861 8     -3750.213 8        50.341                  
  21328957.799 9 112084425.192 9      -867.142 9        54.660                  
  24997108.225 8 131360701.879 8     -1885.570 8        48.849                  
  20430122.500 9 107361034.495 9       842.078 9        57.175                  
 02  5 18 00 02 21.0000000  0  7G01G21G23G16G10G07G08                           
  23700346.045 8 124546156.285 8      3392.228 8        48.516                  
  21750514.122 8 114299718.779 8      1773.557 8        53.697                  
  23054140.759 8 121150315.282 8     -2829.122 8        51.205                  
  23539622.689 8 123701552.652 8     -3752.833 8        50.101                  
  21329123.356 9 112085290.578 9      -864.749 9        54.617                  
  24997469.876 7 131362592.249 7     -1894.447 7        47.143                  
  20429964.449 9 107360193.259 9       840.724 9        55.040                  
 02  5 18 00 02 22.0000000  0  7G01G21G23G16G10G07G08                           
  23699701.616 8 124542768.226 8      3383.652 8        48.769                  
  21750175.986 8 114297947.331 8      1767.963 8        52.395                  
  23054676.740 8 121153142.351 8     -2823.313 8        51.756                  
  23540336.824 8 123705307.889 8     -3757.131 8        49.642                  
  21329287.590 9 112086153.092 9      -859.963 9        54.759                  
  24997831.366 7 131364488.220 7     -1899.535 7        46.755                  
  20429805.843 9 107359353.646 9       838.180 9        57.264                  
 02  5 18 00 02 23.0000000  0  7G01G21G23G16G10G07G08                           
  23699059.690 8 124539388.525 8      3372.831 8        48.004                  
  21749844.248 8 114296182.088 8      1764.026 8        53.873                  
  23055215.026 8 121155962.924 8     -2819.169 8        51.908                  
  23541052.479 8 123709065.867 8     -3759.048 8        50.267                  
  21329451.127 8 112087011.343 8      -856.878 8        53.060                  
  24998196.484 7 131366392.155 7     -1910.364 7        47.582                  
  20429648.685 9 107358516.199 9       836.321 9        56.116                  
 02  5 18 00 02 24.0000000  0  7G01G21G23G16G10G07G08                           
  23698416.423 7 124536013.459 7      3371.439 7        47.254                  
  21749509.972 8 114294420.426 8      1759.830 8        53.416                  
  23055750.007 8 121158780.247 8     -2815.682 8        49.731                  
  23541768.794 8 123712825.104 8     -3756.391 8        48.584                  
  21329613.592 8 112087867.514 8      -854.760 8        52.760                  
  24998559.994 7 131368300.770 7     -1909.789 7        47.745                  
  20429491.223 9 107357680.220 9       835.543 9        55.130                  
 02  5 18 00 02 25.0000000  0  7G01G21G23G16G10G07G08                           
  23697774.550 8 124532644.686 8      3365.101 8        48.640                  
  21749172.123 8 114292663.591 8      1754.692 8        53.309                  
  23056285.434 7 121161593.194 7     -2808.056 7        47.816                  
  23542483.662 8 123716585.645 8     -3762.762 8        48.834                  
  21329774.646 9 112088720.670 9      -851.109 9        55.509                  
  24998920.894 7 131370215.810 7     -1922.211 7        45.528                  
  20429333.529 9 107356846.163 9       832.092 9        56.567                  
 02  5 18 00 02 26.0000000  0  7G01G21G23G16G10G07G08                           
  23697136.268 7 124529285.405 7      3354.172 7        46.239                  
  21748837.275 8 114290913.981 8      1745.999 8        53.428                  
  23056820.683 8 121164399.606 8     -2805.847 8        49.882                  
  23543198.531 8 123720347.282 8     -3761.001 8        50.125                  
  21329934.860 8 112089568.857 8      -845.909 8        53.403                  
  24999290.408 7 131372140.824 7     -1929.056 7        45.304                  
  20429174.638 8 107356014.926 8       829.380 8        53.957                  
 02  5 18 00 02 27.0000000  0  7G01G21G23G16G10G07G08                           
  23696499.362 8 124525934.814 8      3347.017 8        48.185                  
  21748507.699 8 114289171.166 8      1739.603 8        53.110                  
  23057351.983 8 121167200.595 8     -2797.714 8        48.993                  
  23543915.150 8 123724108.991 8     -3761.872 8        50.387                  
  21330094.966 8 112090412.607 8      -842.483 8        53.919                  
  24999655.257 7 131374075.463 7     -1936.771 7        45.206                  
  20429015.389 9 107355186.543 9       825.624 9        55.838                  
 02  5 18 00 02 28.0000000  0  7G01G21G23G16G10G07G08                           
  23695861.188 8 124522588.209 8      3351.599 8        48.056                  
  21748180.124 9 114287432.956 9      1739.269 9        54.253                  
  23057887.249 8 121170005.044 8     -2813.791 8        49.956                  
  23544629.500 8 123727858.913 8     -3738.572 8        50.135                  
  21330254.822 8 112091254.636 8      -843.237 8        53.594                  
  25000028.273 7 131376020.345 7     -1947.016 7        47.547                  
  20428857.355 9 107354362.304 9       822.188 9        56.529                  
 02  5 18 00 02 29.0000000  0  7G01G21G23G16G10G07G08                           
  23695222.353 8 124519233.347 8      3361.223 8        48.189                  
  21747848.046 8 114285691.427 8      1743.830 8        53.023                  
  23058422.820 8 121172826.848 8     -2828.000 8        50.153                  
  23545338.096 8 123731585.729 8     -3716.155 8        50.563                  
  21330416.180 8 112092102.156 8      -852.007 8        53.873                  
  25000396.590 7 131377967.803 7     -1943.447 7        47.536                  
  20428700.179 9 107353541.416 9       819.882 9        55.629                  
 02  5 18 00 02 30.0000000  0  7G01G21G23G16G10G07G08                           
  23694583.106 7 124515866.080 7      3373.711 7        47.941                  
  21747511.322 8 114283943.355 8      1751.045 8        52.439                  
  23058964.537 8 121175668.529 8     -2850.556 8        50.625                  
  23546042.046 8 123735290.136 8     -3693.420 8        48.855                  
  21330579.127 9 112092957.672 9      -859.603 9        54.636                  
  25000769.159 8 131379913.017 8     -1943.931 8        49.748                  
  20428543.129 9 107352722.579 9       818.545 9        56.201                  
 02  5 18 00 02 31.0000000  0  7G01G21G23G16G10G07G08                           
  23693940.697 8 124512487.671 8      3379.482 8        49.498                  
  21747177.296 8 114282189.213 8      1754.538 8        51.526                  
  23059507.773 8 121178527.185 8     -2862.362 8        50.173                  
  23546744.352 8 123738976.358 8     -3682.624 8        50.539                  
  21330742.968 9 112093820.413 9      -863.235 9        57.159                  
  25001135.295 8 131381855.271 8     -1939.609 8        48.209                  
  20428386.507 9 107351905.220 9       817.290 9        56.106                  
 02  5 18 00 02 32.0000000  0  7G01G21G23G16G10G07G08                           
  23693295.536 8 124509108.024 8      3378.560 8        48.547                  
  21746847.273 8 114280434.574 8      1754.048 8        50.738                  
  23060055.512 8 121181388.305 8     -2858.858 8        49.568                  
  23547445.926 8 123742660.476 8     -3684.638 8        51.599                  
  21330908.989 9 112094684.618 9      -864.282 9        55.004                  
  25001508.186 7 131383797.457 7     -1943.935 7        47.177                  
  20428231.207 9 107351088.445 9       816.597 9        55.388                  
 02  5 18 00 02 33.0000000  0  7G01G21G23G16G10G07G08                           
  23692653.305 8 124505728.548 8      3380.994 8        49.681                  
  21746514.892 8 114278680.231 8      1754.029 8        52.572                  
  23060599.088 8 121184249.807 8     -2860.350 8        49.817                  
  23548145.748 8 123746344.794 8     -3684.203 8        50.978                  
  21331075.189 9 112095549.425 9      -865.516 9        54.443                  
  25001876.109 7 131385739.981 7     -1944.601 7        45.145                  
  20428073.852 9 107350272.149 9       815.966 9        54.668                  
 02  5 18 00 02 34.0000000  0  7G01G21G23G16G10G07G08                           
  23692011.182 8 124502349.243 8      3375.346 8        49.077                  
  21746178.132 9 114276926.188 9      1753.547 9        54.096                  
  23061141.234 8 121187111.695 8     -2863.331 8        49.885                  
  23548848.430 8 123750029.277 8     -3684.451 8        49.737                  
  21331240.335 9 112096414.824 9      -866.702 9        54.833                  
  25002246.034 8 131387682.854 8     -1944.538 8        48.703                  
  20427916.533 9 107349456.329 9       816.299 9        56.612                  
 02  5 18 00 02 35.0000000  0  7G01G21G23G16G10G07G08                           
  23691367.004 7 124498970.089 7      3380.026 7        47.822                  
  21745841.355 8 114275172.439 8      1753.633 8        53.380                  
  23061687.544 8 121189973.970 8     -2862.471 8        50.551                  
  23549549.521 8 123753713.964 8     -3682.768 8        50.624                  
  21331405.284 9 112097280.818 9      -865.103 9        54.089                  
  25002616.244 7 131389626.073 7     -1947.454 7        46.939                  
  20427761.037 9 107348640.986 9       814.553 9        55.069                  
