     2.11           OBSERVATION DATA    G                   RINEX VERSION / TYPE
BLANK OR G = GPS,  R = GLONASS,  E = GALILEO,  M = MIXED    COMMENT             
GNSS-SDR            joel                 5-MAY-25 09:44     PGM / RUN BY / DATE 
GPS OBSERVATION DATA FILE GENERATED BY GNSS-SDR             COMMENT             
GNSS-SDR VERSION 0.0.16                                     COMMENT             
See https://gnss-sdr.org                                    COMMENT             
DEFAULT MARKER NAME                                         MARKER NAME         
joel                CTTC                                    OBSERVER / AGENCY   
GNSS-SDR            Software Receiver   0.0.16              REC # / TYPE / VERS 
Antenna number      Antenna type                            ANT # / TYPE        
        0.0000        0.0000        0.0000                  APPROX POSITION XYZ 
        0.0000        0.0000        0.0000                  ANTENNA: DELTA H/E/N
     1     1                                                WAVELENGTH FACT L1/2
     4    C1    L1    D1    S1                              # / TYPES OF OBSERV 
  2002    05    18    00    00   42.1200000     GPS         TIME OF FIRST OBS   
    18                                                      LEAP SECONDS        
                                                            END OF HEADER       
 02  5 18 00 00 43.0000000  0  7G01G16G23G10G21G07G08                           
  23763590.575 7 124878514.381 7      3399.658 7        46.684                  
  23471245.336 8 123342230.695 8     -3662.955 8        49.408                  
  23001127.120 8 120871743.352 8     -2818.427 8        49.973                  
  21313658.628 9 112004039.667 9      -798.323 9        54.379                  
  21783585.556 8 114473515.344 8      1786.659 8        53.263                  
  24961618.683 7 131174189.514 7     -1906.861 7        45.651                  
  20445704.806 9 107442908.360 9       868.245 9        55.799                  
 02  5 18 00 00 44.0000000  0  7G01G16G23G10G21G07G08                           
  23762945.664 7 124875117.259 7      3394.709 7        46.768                  
  23471943.979 8 123345894.470 8     -3663.464 8        50.497                  
  23001664.781 8 120874562.620 8     -2818.299 8        50.208                  
  21313811.158 8 112004838.024 8      -799.547 8        53.922                  
  21783249.386 9 114471728.133 9      1786.420 9        54.226                  
  24961982.050 7 131176094.041 7     -1909.754 7        46.115                  
  20445541.823 9 107442040.516 9       867.788 9        56.824                  
 02  5 18 00 00 45.0000000  0  7G01G16G23G10G21G07G08                           
  23762299.037 7 124871720.310 7      3394.048 7        47.508                  
  23472640.942 8 123349558.442 8     -3662.052 8        50.285                  
  23002198.922 8 120877382.250 8     -2818.291 8        51.046                  
  21313963.009 9 112005637.022 9      -798.024 9        54.602                  
  21782906.747 8 114469941.232 8      1786.936 8        53.222                  
  24962342.700 7 131177998.923 7     -1904.919 7        46.798                  
  20445380.215 9 107441173.149 9       867.241 9        57.367                  
 02  5 18 00 00 46.0000000  0  7G01G16G23G10G21G07G08                           
  23761651.250 8 124868323.515 8      3395.414 8        48.423                  
  23473337.638 8 123353222.599 8     -3665.622 8        49.298                  
  23002736.494 8 120880202.292 8     -2822.657 8        50.582                  
  21314115.217 9 112006436.619 9      -799.386 9        54.140                  
  21782563.591 8 114468154.641 8      1786.862 8        53.642                  
  24962709.087 7 131179904.164 7     -1905.525 7        45.000                  
  20445215.677 9 107440306.259 9       866.657 9        56.301                  
 02  5 18 00 00 47.0000000  0  7G01G16G23G10G21G07G08                           
  23761005.749 7 124864926.872 7      3392.826 7        47.630                  
  23474035.762 8 123356886.951 8     -3665.607 8        50.498                  
  23003272.493 8 120883022.723 8     -2822.778 8        49.774                  
  21314268.426 8 112007236.812 8      -801.053 8        53.807                  
  21782227.313 8 114466368.352 8      1785.595 8        52.254                  
  24963068.451 7 131181809.745 7     -1907.403 7        45.937                  
  20445048.388 9 107439439.823 9       865.997 9        55.628                  
 02  5 18 00 00 48.0000000  0  7G01G16G23G10G21G07G08                           
  23760360.123 7 124861530.391 7      3396.569 7        47.363                  
  23474732.958 8 123360551.505 8     -3664.554 8        50.448                  
  23003811.887 8 120885843.546 8     -2822.547 8        50.783                  
  21314420.188 9 112008037.612 9      -801.064 9        56.893                  
  21781887.784 8 114464582.358 8      1785.174 8        52.287                  
  24963433.193 7 131183715.684 7     -1905.930 7        46.249                  
  20444880.991 9 107438573.862 9       864.960 9        57.933                  
 02  5 18 00 00 49.0000000  0  7G01G16G23G10G21G07G08                           
  23759712.157 8 124858134.070 8      3396.769 8        49.099                  
  23475429.636 8 123364216.251 8     -3667.130 8        50.706                  
  23004345.813 8 120888664.780 8     -2821.048 8        49.419                  
  21314573.522 9 112008839.055 9      -802.222 9        57.285                  
  21781545.610 8 114462796.662 8      1785.497 8        53.600                  
  24963795.166 7 131185621.983 7     -1907.279 7        46.823                  
  20444713.254 9 107437708.377 9       865.601 9        57.248                  
 02  5 18 00 00 50.0000000  0  7G01G16G23G10G21G07G08                           
  23759066.335 7 124854737.906 7      3396.929 7        47.096                  
  23476128.422 8 123367881.173 8     -3665.716 8        48.823                  
  23004883.778 8 120891486.407 8     -2822.125 8        49.606                  
  21314726.070 9 112009641.095 9      -801.916 9        56.273                  
  21781204.973 8 114461011.265 8      1787.108 8        53.317                  
  24964157.050 7 131187528.626 7     -1905.264 7        47.790                  
  20444545.267 9 107436843.361 9       864.889 9        58.655                  
 02  5 18 00 00 51.0000000  0  7G01G16G23G10G21G07G08                           
  23758421.620 7 124851341.914 7      3393.945 7        47.526                  
  23476824.831 8 123371546.307 8     -3665.742 8        50.493                  
  23005422.226 8 120894308.419 8     -2821.817 8        49.866                  
  21314878.957 9 112010443.732 9      -802.751 9        54.766                  
  21780869.375 8 114459226.167 8      1783.618 8        53.155                  
  24964522.936 7 131189435.629 7     -1906.480 7        47.336                  
  20444381.391 9 107435978.807 9       863.699 9        54.643                  
 02  5 18 00 00 52.0000000  0  7G01G16G23G10G21G07G08                           
  23757774.351 8 124847946.068 8      3397.270 8        48.302                  
  23477522.152 8 123375211.640 8     -3666.270 8        49.678                  
  23005957.170 8 120897130.815 8     -2822.212 8        51.387                  
  21315031.934 9 112011246.989 9      -804.177 9        54.030                  
  21780530.257 8 114457441.363 8      1784.993 8        51.516                  
  24964882.460 7 131191342.991 7     -1911.226 7        46.034                  
  20444219.229 9 107435114.730 9       864.514 9        56.364                  
 02  5 18 00 00 53.0000000  0  7G01G16G23G10G21G07G08                           
  23757127.170 7 124844550.395 7      3392.972 7        47.984                  
  23478221.009 8 123378877.143 8     -3662.336 8        49.511                  
  23006496.904 8 120899953.603 8     -2823.639 8        49.665                  
  21315184.839 9 112012050.876 9      -805.068 9        55.027                  
  21780186.189 8 114455656.858 8      1784.912 8        51.855                  
  24965249.365 7 131193250.699 7     -1908.667 7        46.800                  
  20444056.979 9 107434251.131 9       863.388 9        57.118                  
 02  5 18 00 00 54.0000000  0  7G01G16G23G10G21G07G08                           
  23756482.563 7 124841154.880 7      3394.634 7        46.982                  
  23478916.865 8 123382542.856 8     -3665.988 8        50.116                  
  23007032.135 8 120902776.776 8     -2824.037 8        50.434                  
  21315338.173 9 112012855.360 9      -805.134 9        54.012                  
  21779846.999 8 114453872.667 8      1784.015 8        53.871                  
  24965609.122 7 131195158.759 7     -1906.410 7        46.839                  
  20443895.228 9 107433388.008 9       863.163 9        54.952                  
 02  5 18 00 00 55.0000000  0  7G01G16G23G10G21G07G08                           
  23755836.777 8 124837759.515 8      3394.895 8        48.817                  
  23479614.686 8 123386208.755 8     -3667.143 8        49.607                  
  23007570.690 8 120905600.340 8     -2822.342 8        49.874                  
  21315491.185 9 112013660.441 9      -805.410 9        54.167                  
  21779511.633 8 114452088.796 8      1782.392 8        53.361                  
  24965973.632 7 131197067.174 7     -1908.903 7        47.056                  
  20443734.175 9 107432525.338 9       862.139 9        56.856                  
 02  5 18 00 00 56.0000000  0  7G01G16G23G10G21G07G08                           
  23755189.382 7 124834364.319 7      3392.527 7        46.765                  
  23480314.133 7 123389874.845 7     -3668.111 7        47.430                  
  23008107.868 8 120908424.322 8     -2824.752 8        51.900                  
  21315644.788 9 112014466.138 9      -806.159 9        54.596                  
  21779171.585 9 114450305.209 9      1782.477 9        54.236                  
  24966337.535 7 131198975.942 7     -1904.872 7        46.366                  
  20443571.674 9 107431663.145 9       861.547 9        56.024                  
 02  5 18 00 00 57.0000000  0  7G01G16G23G10G21G07G08                           
  23754544.721 8 124830969.285 8      3395.859 8        48.678                  
  23481009.560 7 123393541.124 7     -3663.699 7        47.425                  
  23008644.332 8 120911248.685 8     -2824.429 8        50.931                  
  21315798.318 9 112015272.470 9      -806.512 9        55.391                  
  21778828.107 8 114448521.933 8      1784.756 8        51.747                  
  24966698.364 7 131200885.067 7     -1912.578 7        45.971                  
  20443405.295 9 107430801.429 9       861.561 9        58.269                  
 02  5 18 00 00 58.0000000  0  7G01G16G23G10G21G07G08                           
  23753898.238 8 124827574.403 8      3397.161 8        48.508                  
  23481707.810 7 123397207.601 7     -3665.658 7        47.745                  
  23009182.815 8 120914073.446 8     -2825.114 8        50.081                  
  21315952.063 9 112016079.397 9      -806.613 9        55.505                  
  21778490.347 8 114446738.946 8      1783.065 8        51.998                  
  24967065.072 7 131202794.535 7     -1911.452 7        45.927                  
  20443239.113 9 107429940.189 9       861.866 9        57.003                  
 02  5 18 00 00 59.0000000  0  7G01G16G23G10G21G07G08                           
  23753251.129 8 124824179.693 8      3395.393 8        49.065                  
  23482406.435 8 123400874.282 8     -3666.673 8        48.536                  
  23009718.689 8 120916898.586 8     -2824.305 8        49.974                  
  21316105.933 9 112016886.921 9      -807.613 9        56.595                  
  21778155.017 8 114444956.266 8      1782.958 8        50.761                  
  24967425.383 7 131204704.368 7     -1910.959 7        44.705                  
  20443072.681 9 107429079.403 9       860.788 9        55.327                  
 02  5 18 00 01  0.0000000  0  7G01G16G23G10G21G07G08                           
  23752605.932 8 124820785.135 8      3397.684 8        49.809                  
  23483102.791 8 123404541.138 8     -3670.335 8        48.678                  
  23010258.655 8 120919724.103 8     -2826.642 8        51.600                  
  21316259.607 9 112017695.078 9      -807.983 9        57.450                  
  21777813.540 8 114443173.873 8      1780.451 8        52.413                  
  24967791.180 7 131206614.536 7     -1908.943 7        46.992                  
  20442905.695 9 107428219.093 9       859.880 9        57.005                  
 02  5 18 00 01  1.0000000  0  7G01G16G23G10G21G07G08                           
  23751959.931 8 124817390.734 8      3396.039 8        50.110                  
  23483801.255 8 123408208.194 8     -3665.180 8        49.371                  
  23010795.048 8 120922550.020 8     -2823.872 8        49.265                  
  21316414.085 9 112018503.852 9      -808.682 9        55.348                  
  21777470.312 8 114441391.790 8      1782.226 8        53.962                  
  24968153.278 7 131208525.075 7     -1912.364 7        47.395                  
  20442740.407 9 107427359.259 9       859.802 9        56.638                  
 02  5 18 00 01  2.0000000  0  7G01G16G23G10G21G07G08                           
  23751313.252 8 124813996.503 8      3395.668 8        49.061                  
  23484499.898 8 123411875.441 8     -3666.626 8        49.138                  
  23011333.155 8 120925376.329 8     -2824.962 8        50.189                  
  21316567.383 9 112019313.225 9      -810.821 9        54.344                  
  21777134.713 8 114439609.991 8      1782.117 8        50.755                  
  24968517.824 7 131210435.945 7     -1912.136 7        45.646                  
  20442578.603 9 107426499.904 9       858.941 9        57.194                  
 02  5 18 00 01  3.0000000  0  7G01G16G23G10G21G07G08                           
  23750668.001 8 124810602.425 8      3396.409 8        48.965                  
  23485196.111 8 123415542.864 8     -3666.804 8        51.018                  
  23011872.049 8 120928203.043 8     -2826.678 8        50.902                  
  21316721.003 9 112020123.192 9      -810.318 9        55.030                  
  21776798.669 8 114437828.515 8      1781.647 8        51.978                  
  24968882.048 7 131212347.184 7     -1910.571 7        44.746                  
  20442416.924 9 107425641.000 9       858.084 9        55.571                  
 02  5 18 00 01  4.0000000  0  7G01G16G23G10G21G07G08                           
  23750023.180 8 124807208.501 8      3390.054 8        49.245                  
  23485895.415 8 123419210.508 8     -3667.959 8        52.153                  
  23012407.513 8 120931030.149 8     -2826.555 8        53.057                  
  21316875.052 9 112020933.780 9      -810.893 9        54.687                  
  21776456.405 9 114436047.350 9      1780.653 9        54.059                  
  24969242.877 7 131214258.774 7     -1910.250 7        45.157                  
  20442255.888 9 107424782.575 9       858.138 9        56.761                  
 02  5 18 00 01  5.0000000  0  7G01G16G23G10G21G07G08                           
  23749375.928 8 124803814.759 8      3389.173 8        48.128                  
  23486593.504 8 123422878.323 8     -3665.981 8        49.198                  
  23012947.729 8 120933857.640 8     -2827.674 8        51.165                  
  21317028.779 9 112021744.999 9      -811.983 9        56.109                  
  21776115.482 8 114434266.482 8      1779.853 8        53.735                  
  24969609.978 7 131216170.713 7     -1912.812 7        45.790                  
  20442094.638 9 107423924.625 9       858.141 9        56.311                  
 02  5 18 00 01  6.0000000  0  7G01G16G23G10G21G07G08                           
  23748729.552 8 124800421.163 8      3391.874 8        48.452                  
  23487290.628 8 123426546.336 8     -3664.360 8        48.782                  
  23013484.997 8 120936685.498 8     -2827.079 8        48.886                  
  21317182.685 9 112022556.814 9      -812.119 9        56.330                  
  21775779.956 8 114432485.913 8      1779.910 8        52.021                  
  24969970.915 7 131218082.992 7     -1910.561 7        46.438                  
  20441934.710 9 107423067.154 9       857.047 9        57.041                  
 02  5 18 00 01  7.0000000  0  7G01G16G23G10G21G07G08                           
  23748085.498 8 124797027.716 8      3392.542 8        49.216                  
  23487989.665 8 123430214.549 8     -3668.239 8        50.144                  
  23014023.122 8 120939513.762 8     -2827.327 8        48.925                  
  21317336.645 9 112023369.226 9      -813.297 9        54.966                  
  21775443.071 8 114430705.640 8      1779.795 8        52.926                  
  24970337.480 7 131219995.640 7     -1914.441 7        46.130                  
  20441772.817 9 107422210.146 9       856.592 9        57.079                  
 02  5 18 00 01  8.0000000  0  7G01G16G23G10G21G07G08                           
  23747438.693 8 124793634.460 8      3393.825 8        48.854                  
  23488687.414 8 123433882.940 8     -3666.762 8        50.791                  
  23014562.338 8 120942342.417 8     -2828.535 8        49.937                  
  21317491.390 9 112024182.271 9      -813.301 9        57.857                  
  21775100.933 8 114428925.669 8      1778.951 8        52.592                  
  24970700.025 8 131221908.639 8     -1914.161 8        48.175                  
  20441607.314 9 107421353.601 9       857.243 9        58.686                  
 02  5 18 00 01  9.0000000  0  7G01G16G23G10G21G07G08                           
  23746792.550 8 124790241.346 8      3391.566 8        48.037                  
  23489384.413 8 123437551.535 8     -3667.072 8        48.443                  
  23015099.284 8 120945171.476 8     -2829.935 8        50.437                  
  21317645.457 9 112024995.930 9      -813.801 9        55.609                  
  21774760.510 8 114427145.990 8      1780.310 8        53.921                  
  24971064.571 8 131223821.982 8     -1912.750 8        48.038                  
  20441442.580 9 107420497.537 9       855.912 9        57.483                  
 02  5 18 00 01 10.0000000  0  7G01G16G23G10G21G07G08                           
  23746148.764 8 124786848.386 8      3397.284 8        49.633                  
  23490083.896 8 123441220.319 8     -3669.534 8        49.550                  
  23015639.358 8 120948000.930 8     -2828.597 8        50.125                  
  21317800.542 9 112025810.190 9      -814.374 9        54.991                  
  21774425.180 8 114425366.613 8      1779.838 8        53.374                  
  24971429.813 8 131225735.682 8     -1914.136 8        48.428                  
  20441277.524 9 107419641.949 9       855.831 9        56.890                  
 02  5 18 00 01 11.0000000  0  7G01G16G23G10G21G07G08                           
  23745502.335 7 124783455.607 7      3393.357 7        47.509                  
  23490781.950 8 123444889.285 8     -3669.779 8        50.925                  
  23016176.465 8 120950830.753 8     -2827.733 8        50.592                  
  21317955.306 9 112026625.045 9      -815.046 9        56.142                  
  21774088.474 8 114423587.533 8      1779.039 8        51.796                  
  24971791.876 8 131227649.729 8     -1913.684 8        48.152                  
  20441111.842 9 107418786.837 9       854.971 9        57.308                  
 02  5 18 00 01 12.0000000  0  7G01G16G23G10G21G07G08                           
  23744856.012 8 124780062.970 8      3389.702 8        50.025                  
  23491479.556 8 123448558.453 8     -3669.290 8        51.393                  
  23016715.680 8 120953660.963 8     -2829.886 8        50.659                  
  21318109.712 9 112027440.512 9      -816.643 9        57.086                  
  21773745.246 8 114421808.764 8      1779.370 8        53.131                  
  24972158.798 7 131229564.130 7     -1918.428 7        47.877                  
  20440946.553 9 107417932.178 9       854.466 9        57.353                  
 02  5 18 00 01 13.0000000  0  7G01G16G23G10G21G07G08                           
  23744211.280 8 124776670.499 8      3391.687 8        48.961                  
  23492178.539 8 123452227.799 8     -3669.364 8        50.380                  
  23017255.182 8 120956491.562 8     -2828.596 8        50.192                  
  21318266.030 9 112028256.622 9      -816.416 9        56.969                  
  21773406.431 8 114420030.306 8      1778.207 8        52.767                  
  24972519.073 7 131231478.871 7     -1913.255 7        46.499                  
  20440784.410 9 107417077.995 9       854.141 9        56.038                  
 02  5 18 00 01 14.0000000  0  7G01G16G23G10G21G07G08                           
  23743565.886 8 124773278.195 8      3392.242 8        48.580                  
  23492876.324 8 123455897.345 8     -3670.739 8        49.964                  
  23017792.325 8 120959322.566 8     -2830.558 8        50.849                  
  21318421.116 9 112029073.323 9      -816.895 9        54.918                  
  21773072.727 8 114418252.155 8      1778.647 8        51.981                  
  24972887.461 7 131233393.973 7     -1916.048 7        46.564                  
  20440624.053 9 107416224.288 9       854.212 9        54.648                  
 02  5 18 00 01 15.0000000  0  7G01G16G23G10G21G07G08                           
  23742918.921 8 124769886.048 8      3390.707 8        48.727                  
  23493574.020 8 123459567.087 8     -3670.025 8        49.050                  
  23018333.792 8 120962153.968 8     -2830.889 8        50.294                  
  21318576.272 9 112029890.623 9      -817.237 9        55.317                  
  21772733.502 8 114416474.292 8      1778.176 8        52.862                  
  24973249.648 7 131235309.428 7     -1916.196 7        46.913                  
  20440463.804 9 107415371.060 9       853.170 9        55.706                  
 02  5 18 00 01 16.0000000  0  7G01G16G23G10G21G07G08                           
  23742273.760 8 124766494.054 8      3395.011 8        48.227                  
  23494274.039 8 123463237.002 8     -3672.115 8        49.587                  
  23018869.898 8 120964985.752 8     -2831.757 8        50.713                  
  21318731.340 9 112030708.530 9      -818.497 9        55.983                  
  21772392.328 8 114414696.739 8      1778.235 8        52.845                  
  24973615.838 7 131237225.229 7     -1915.954 7        46.180                  
  20440303.823 9 107414518.308 9       853.057 9        56.602                  
 02  5 18 00 01 17.0000000  0  7G01G16G23G10G21G07G08                           
  23741629.724 7 124763102.242 7      3388.854 7        46.906                  
  23494971.271 8 123466907.122 8     -3670.723 8        50.232                  
  23019409.221 8 120967817.905 8     -2834.134 8        50.226                  
  21318887.962 9 112031527.079 9      -819.287 9        56.138                  
  21772053.835 9 114412919.472 9      1777.480 9        54.426                  
  24973980.724 8 131239141.390 8     -1916.997 8        48.105                  
  20440143.234 9 107413666.011 9       852.036 9        57.652                  
 02  5 18 00 01 18.0000000  0  7G01G16G23G10G21G07G08                           
  23740983.991 7 124759710.572 7      3392.884 7        47.710                  
  23495669.556 8 123470577.423 8     -3672.591 8        49.383                  
  23019949.062 8 120970650.452 8     -2830.504 8        49.602                  
  21319043.744 9 112032346.227 9      -820.207 9        55.379                  
  21771719.327 8 114411142.520 8      1775.600 8        53.201                  
  24974342.553 7 131241057.889 7     -1914.806 7        47.698                  
  20439983.771 9 107412814.189 9       851.011 9        57.420                  
 02  5 18 00 01 19.0000000  0  7G01G16G23G10G21G07G08                           
  23740337.061 7 124756319.069 7      3392.523 7        47.756                  
  23496368.521 8 123474247.919 8     -3669.740 8        50.732                  
  23020485.812 8 120973483.406 8     -2832.143 8        50.271                  
  21319200.920 9 112033165.969 9      -819.821 9        54.671                  
  21771381.496 8 114409365.842 8      1774.925 8        52.682                  
  24974711.156 8 131242974.739 8     -1916.122 8        48.138                  
  20439822.199 9 107411962.844 9       850.782 9        56.586                  
 02  5 18 00 01 20.0000000  0  7G01G16G23G10G21G07G08                           
  23739693.794 7 124752928.029 7      3388.212 7        47.299                  
  23497066.807 8 123477918.463 8     -3671.803 8        50.066                  
  23021027.261 8 120976316.609 8     -2832.034 8        50.797                  
  21319357.953 8 112033986.130 8      -819.449 8        53.406                  
  21771039.590 8 114407589.732 8      1774.823 8        50.977                  
  24975072.449 7 131244892.340 7     -1919.221 7        47.154                  
  20439658.572 9 107411112.088 9       849.282 9        56.547                  
 02  5 18 00 01 21.0000000  0  7G01G16G23G10G21G07G08                           
  23739049.795 7 124749549.123 7      3369.881 7        46.677                  
  23497763.663 8 123481583.798 8     -3660.542 8        53.410                  
  23021565.172 7 120979144.380 7     -2823.298 7        47.150                  
  21319513.556 8 112034799.620 8      -809.354 8        49.992                  
  21770703.581 8 114405823.785 8      1758.607 8        48.735                  
  24975443.160 7 131246825.825 7     -1944.297 7        47.057                  
  20439495.839 9 107410266.290 9       840.639 9        57.827                  
 02  5 18 00 01 22.0000000  0  7G01G16G23G10G21G07G08                           
  23738407.189 7 124746189.690 7      3349.278 7        46.476                  
  23498460.430 8 123485240.536 8     -3652.998 8        51.577                  
  23022101.868 8 120981963.679 8     -2816.691 8        50.443                  
  21319665.782 8 112035602.487 8      -794.005 8        52.391                  
  21770374.630 8 114404073.627 8      1742.781 8        51.965                  
  24975811.137 7 131248784.702 7     -1967.989 7        45.496                  
  20439334.410 8 107409428.639 8       834.000 8        49.190                  
 02  5 18 00 01 23.0000000  0  7G01G16G23G10G21G07G08                           
  23737775.162 7 124742849.187 7      3329.377 7        46.508                  
  23499154.248 7 123488889.193 7     -3658.448 7        46.303                  
  23022636.134 7 120984774.089 7     -2804.431 7        45.429                  
  21319817.008 8 112036394.445 8      -787.290 8        50.307                  
  21770045.393 8 114402339.297 8      1726.704 8        51.421                  
  24976193.445 7 131250768.592 7     -1993.054 7        44.811                  
  20439174.876 9 107408598.482 9       826.891 9        54.803                  
 02  5 18 00 01 24.0000000  0  7G01G16G23G10G21G07G08                           
  23737142.705 7 124739522.805 7      3327.168 7        47.396                  
  23499850.568 7 123492531.946 7     -3648.419 7        46.616                  
  23023170.204 7 120987578.388 7     -2804.998 7        47.407                  
  21319966.143 8 112037178.863 8      -784.847 8        51.032                  
  21769714.584 8 114400616.572 8      1720.359 8        51.121                  
  24976569.338 7 131252770.680 7     -2004.333 7        43.168                  
  20439016.324 9 107407774.023 9       824.605 9        56.674                  
 02  5 18 00 01 25.0000000  0  7G01G16G23G10G21G07G08                           
  23736509.034 7 124736196.529 7      3329.023 7        42.479                  
  23500541.242 7 123496176.398 7     -3644.822 7        44.899                  
  23023698.895 7 120990382.105 7     -2806.047 7        45.994                  
  21320116.100 8 112037964.157 8      -786.953 8        52.812                  
  21769384.525 8 114398893.978 8      1732.013 8        52.920                  
  24976955.702 7 131254772.184 7     -1993.829 7        45.010                  
  20438858.219 9 107406949.507 9       823.555 9        54.076                  
 02  5 18 00 01 26.0000000  0  7G01G16G23G10G21G07G08                           
  23735875.774 6 124732856.789 6      3346.696 6        40.282                  
  23501236.329 6 123499828.186 6     -3650.854 6        39.125                  
  23024237.342 8 120993190.976 8     -2817.525 8        48.365                  
  21320267.700 7 112038757.951 7      -793.397 7        46.001                  
  21769054.967 7 114397160.123 7      1740.525 7        43.016                  
  24977328.700 6 131256756.769 6     -1966.846 6        37.342                  
  20438698.595 7 107406119.478 7       839.371 7        46.320                  
 02  5 18 00 01 27.0000000  0  7G01G16G23G10G21G07G08                           
  23735237.867 7 124729510.964 7      3349.126 7        43.309                  
  23501932.399 6 123503491.423 6     -3677.235 6        36.582                  
  23024772.054 7 120995999.861 7     -2803.349 7        42.794                  
  21320418.694 8 112039556.526 8      -793.792 8        51.393                  
  21768728.964 7 114395420.326 7      1739.414 7        47.686                  
  24977707.648 6 131258727.253 6     -1967.546 6        39.776                  
  20438540.918 7 107405285.933 7       833.531 7        47.665                  
 02  5 18 00 01 28.0000000  0  7G01G16G23G10G21G07G08                           
  23734601.051 6 124726167.454 6      3323.246 6        37.182                  
  23502633.579 6 123507163.210 6     -3668.135 6        36.171                  
  23025303.926 6 120998804.437 6     -2804.320 6        36.737                  
  21320570.956 7 112040354.136 7      -798.190 7        42.130                  
  21768397.708 6 114393681.989 6      1731.318 6        41.147                  
  24978079.109 6 131260696.152 6     -1966.356 6        40.084                  
  20438381.491 8 107404451.866 8       834.766 8        53.240                  
 02  5 18 00 01 29.0000000  0  7G01G16G23G10G21G07G08                           
  23733962.180 5 124722803.349 5      3377.412 5        34.852                  
  23503330.793 5 123510842.751 5     -3671.941 5        35.838                  
  23025842.605 5 121001608.180 5     -2818.955 5        35.115                  
  21320722.002 6 112041154.661 6      -802.818 6        38.241                  
  21768063.325 6 114391940.257 6      1755.190 6        37.163                  
  24978461.542 6 131262659.367 6     -1954.644 6        36.476                  
  20438223.457 8 107403615.567 8       839.956 8        49.672                  
 02  5 18 00 01 30.0000000  0  7G01G16G23G10G21G07G08                           
  23733322.505 5 124719435.726 5      3358.405 5        35.480                  
  23504035.440 5 123514527.053 5     -3687.604 5        35.055                  
  23026378.462 5 121004423.512 5     -2812.647 5        34.889                  
  21320877.356 6 112041967.324 6      -820.474 6        39.355                  
  21767726.208 6 114390183.575 6      1756.934 6        39.087                  
  24978821.603 6 131264599.563 6     -1946.923 6        41.936                  
  20438066.174 8 107402773.196 8       849.614 8        49.400                  
 02  5 18 00 01 31.0000000  0  7G01G16G23G10G21G07G08                           
  23732680.739 5 124716072.669 5      3370.656 5        34.862                  
  23504736.334 5 123518226.921 5     -3700.676 5        35.154                  
  23026911.245 5 121007230.015 5     -2805.547 5        34.930                  
  21321032.780 6 112042779.084 6      -812.731 6        37.064                  
  21767396.114 6 114388427.480 6      1746.045 6        37.257                  
  24979190.723 6 131266535.958 6     -1933.946 6        41.909                  
  20437906.675 7 107401928.407 7       847.300 7        45.145                  
 02  5 18 00 01 32.0000000  0  7G01G16G23G10G21G07G08                           
  23732044.816 5 124712713.129 5      3347.582 5        34.935                  
  23505442.125 5 123521947.239 5     -3723.919 5        35.562                  
  23027443.259 5 121010025.041 5     -2800.507 5        35.286                  
  21321186.168 6 112043589.750 6      -819.549 6        37.387                  
  21767064.411 6 114386671.783 6      1762.770 6        38.975                  
  24979557.074 6 131268465.885 6     -1926.447 6        39.421                  
  20437748.391 6 107401080.688 6       853.762 6        41.577                  
 02  5 18 00 02  1.0000000  0  5G16G10G21G07G08                                 
  23526042.517 8 123630186.018 8     -3732.952 8        48.436                  
  21325810.225 6 112066932.502 6      -798.844 6        36.002                  
  21757256.766 6 114332192.207 6      1718.192 6        38.626                  
  24990025.444 7 131321044.044 7     -1984.776 7        44.802                  
  20433049.446 7 107376387.996 7       824.387 7        44.460                  
 02  5 18 00 02  2.0000000  0  5G16G10G21G07G08                                 
  23526752.597 8 123633918.898 8     -3737.260 8        48.577                  
  21325965.256 5 112067733.903 5      -800.715 5        35.674                  
  21756929.334 6 114330479.378 6      1714.435 6        37.831                  
  24990404.589 7 131323030.931 7     -1983.014 7        44.083                  
  20432892.252 7 107375565.699 7       822.441 7        43.164                  
 02  5 18 00 02  3.0000000  0  5G16G10G21G07G08                                 
  23527462.729 8 123637656.119 8     -3741.364 8        49.298                  
  21326119.966 5 112068537.786 5      -796.919 5        35.328                  
  21756606.405 6 114328764.015 6      1720.645 6        37.131                  
  24990778.802 7 131325012.856 7     -1978.818 7        45.239                  
  20432731.520 7 107374742.131 7       824.918 7        42.533                  
 02  5 18 00 02  4.0000000  0  5G16G10G21G07G08                                 
  23528175.185 8 123641396.631 8     -3742.125 8        48.467                  
  21326272.943 5 112069343.821 5      -807.853 5        34.998                  
  21756280.634 6 114327046.527 6      1722.725 6        36.643                  
  24991156.607 7 131326990.720 7     -1983.326 7        44.713                  
  20432575.560 6 107373917.538 6       826.215 6        41.938                  
 02  5 18 00 02  5.0000000  0  5G16G10G21G07G08                                 
  23528888.695 8 123645135.817 8     -3737.646 8        48.567                  
  21326426.509 5 112070149.656 5      -791.014 5        34.754                  
  21755955.150 5 114325330.548 5      1722.719 5        35.964                  
  24991533.840 7 131328971.193 7     -1987.918 7        44.686                  
  20432416.507 6 107373094.187 6       821.046 6        40.719                  
 02  5 18 00 02 25.0000000  0  5G32G16G27G10G08                                 
  24810907.323 7 130382215.988 7      2979.132 7        44.149                  
  23543138.777 8 123720037.003 8     -3760.369 8        49.382                  
  20506587.891 7 107762838.167 7     -1423.672 7        44.267                  
  21329576.943 7 112084840.094 7      -832.051 7        45.853                  
  20429277.331 7 107356564.501 7       822.531 7        44.708                  
 02  5 18 00 02 26.0000000  0  5G32G16G27G10G08                                 
  24810339.249 7 130379235.589 7      2980.541 7        42.961                  
  23543855.700 8 123723796.360 8     -3761.801 8        49.004                  
  20506870.794 7 107764267.156 7     -1430.096 7        45.649                  
  21329735.763 7 112085673.870 7      -836.988 7        47.863                  
  20429104.949 7 107355740.581 7       820.424 7        45.877                  
 02  5 18 00 02 27.0000000  0  5G32G16G27G10G08                                 
  24809773.462 7 130376255.758 7      2985.116 7        42.943                  
  23544572.444 7 123727556.012 7     -3758.136 7        47.936                  
  20507134.540 8 107765696.968 8     -1431.769 8        48.253                  
  21329900.372 8 112086508.541 8      -837.064 8        49.679                  
  20428975.023 8 107354916.717 8       823.967 8        49.533                  
 02  5 18 00 02 28.0000000  0  5G32G16G27G10G08                                 
  24809195.614 7 130373275.617 7      2987.271 7        44.528                  
  23545285.222 8 123731315.771 8     -3759.531 8        49.277                  
  20507455.843 8 107767127.164 8     -1431.955 8        52.883                  
  21330058.674 8 112087343.554 8      -836.724 8        50.993                  
  20428769.976 8 107354093.620 8       821.810 8        50.632                  
 02  5 18 00 02 29.0000000  0  5G32G16G27G10G08                                 
  24808644.390 7 130370292.417 7      2987.940 7        44.645                  
  23546000.947 7 123735071.495 7     -3746.980 7        47.617                  
  20507661.194 8 107768556.640 8     -1426.875 8        52.228                  
  21330208.274 8 112088179.498 8      -838.532 8        49.104                  
  20428597.629 8 107353271.762 8       821.530 8        53.312                  
 02  5 18 00 02 30.0000000  0  5G32G16G27G10G08                                 
  24808072.903 7 130367301.240 7      2997.237 7        45.465                  
  23546712.813 7 123738807.073 7     -3724.414 7        47.861                  
  20507982.747 8 107769984.365 8     -1427.432 8        51.458                  
  21330376.099 8 112089022.375 8      -845.992 8        49.031                  
  20428438.881 8 107352451.993 8       818.826 8        52.692                  
 02  5 18 00 02 34.0000000  0  6G32G16G27G10G21G08                              
  24805779.628 7 130355288.439 7      3015.041 7        44.416                  
  23549534.672 8 123753638.427 8     -3703.424 8        48.207                  
  20509045.936 8 107775684.334 8     -1423.148 8        52.431                  
  21331021.243 8 112092431.763 8      -851.338 8        48.095                  
  21746378.801 7 114277974.546 7      1737.634 7        45.687                  
  20427884.834 8 107349187.513 8       812.542 8        53.298                  
 02  5 18 00 02 35.0000000  0  6G32G16G27G10G21G08                              
  24805212.001 7 130352273.695 7      3013.333 7        44.869                  
  23550234.047 8 123757330.659 8     -3682.610 8        48.839                  
  20509285.292 8 107777106.723 8     -1423.753 8        51.496                  
  21331171.325 8 112093287.020 8      -858.219 8        49.908                  
  21746042.274 8 114276232.603 8      1746.002 8        48.537                  
  20427695.779 8 107348375.636 8       810.263 8        50.284                  
 02  5 18 00 02 36.0000000  0  6G32G16G27G10G21G08                              
  24804631.258 7 130349246.420 7      3039.285 7        45.269                  
  23550936.693 8 123761008.376 8     -3672.541 8        48.116                  
  20509579.612 7 107778525.115 7     -1412.286 7        46.111                  
  21331351.891 8 112094143.036 8      -854.493 8        50.029                  
  21745713.448 7 114274492.562 7      1735.206 7        47.367                  
  20427565.353 7 107347567.185 7       806.064 7        47.180                  
 02  5 18 00 02 37.0000000  0  7G32G16G27G10G21G23G08                           
  24804050.622 7 130346194.396 7      3064.550 7        45.884                  
  23551634.318 8 123764664.226 8     -3644.861 8        49.464                  
  20509847.666 8 107779935.431 8     -1407.472 8        52.525                  
  21331508.727 8 112094995.918 8      -851.780 8        53.019                  
  21745382.371 8 114272760.154 8      1730.256 8        53.097                  
  23062184.303 8 121192597.817 8     -2865.227 8        50.646                  
  20427411.519 9 107346765.710 9       799.614 9        55.220                  
 02  5 18 00 02 38.0000000  0  7G32G16G27G10G21G23G08                           
  24803467.591 8 130343119.202 8      3085.943 8        48.881                  
  23552323.651 8 123768299.906 8     -3630.005 8        50.184                  
  20510113.878 9 107781338.096 9     -1399.449 9        55.549                  
  21331671.568 8 112095845.810 8      -848.316 8        53.698                  
  21745058.137 8 114271035.053 8      1720.441 8        52.497                  
  23062730.988 8 121195464.610 8     -2867.693 8        50.989                  
  20427259.829 9 107345970.833 9       792.723 9        55.801                  
 02  5 18 00 02 39.0000000  0  7G32G16G27G10G21G23G08                           
  24802880.772 7 130340031.507 7      3086.703 7        46.284                  
  23553014.450 8 123771926.583 8     -3624.151 8        51.667                  
  20510374.855 9 107782736.783 9     -1399.522 9        57.882                  
  21331831.996 8 112096693.297 8      -847.455 8        53.931                  
  21744733.136 8 114269315.204 8      1719.816 8        52.835                  
  23063277.798 8 121198332.717 8     -2866.480 8        49.343                  
  20427109.586 9 107345179.807 9       791.453 9        55.137                  
 02  5 18 00 02 40.0000000  0  7G32G16G27G10G21G23G08                           
  24802293.436 7 130336944.484 7      3088.123 7        47.401                  
  23553702.979 8 123775551.825 8     -3624.439 8        48.996                  
  20510640.032 9 107784136.181 9     -1400.538 9        56.757                  
  21331995.355 8 112097542.698 8      -850.918 8        52.349                  
  21744404.757 8 114267594.164 8      1723.749 8        52.668                  
  23063820.909 8 121201203.504 8     -2874.381 8        49.769                  
  20426959.075 9 107344388.961 9       790.983 9        54.574                  
 02  5 18 00 02 41.0000000  0  7G32G16G27G10G21G23G08                           
  24801708.457 7 130333859.671 7      3078.871 7        44.595                  
  23554394.206 8 123779173.771 8     -3621.615 8        50.183                  
  20510911.891 9 107785536.902 9     -1401.129 9        55.543                  
  21332156.980 8 112098396.066 8      -853.654 8        51.635                  
  21744074.323 8 114265869.593 8      1724.992 8        52.312                  
  23064370.328 8 121204080.219 8     -2878.995 8        50.053                  
  20426808.600 8 107343597.816 8       790.033 8        53.099                  
 02  5 18 00 02 42.0000000  0  7G32G16G27G10G21G23G08                           
  24801119.995 7 130330774.090 7      3086.093 7        47.322                  
  23555083.629 8 123782797.271 8     -3626.177 8        49.886                  
  20511180.838 9 107786937.705 9     -1400.330 9        56.838                  
  21332317.944 8 112099248.698 8      -850.621 8        52.805                  
  21743743.728 8 114264146.888 8      1719.050 8        53.730                  
  23064917.906 8 121206955.069 8     -2871.393 8        48.889                  
  20426658.304 9 107342807.461 9       789.147 9        54.946                  
 02  5 18 00 02 43.0000000  0  7G32G16G27G10G21G23G08                           
  24800531.264 7 130327686.858 7      3088.168 7        47.072                  
  23555773.194 8 123786424.059 8     -3625.834 8        50.444                  
  20511443.101 9 107788338.225 9     -1401.182 9        57.150                  
  21332478.426 8 112100099.032 8      -849.557 8        53.695                  
  21743417.976 8 114262427.839 8      1719.373 8        50.902                  
  23065462.661 8 121209825.426 8     -2869.127 8        50.770                  
  20426508.026 9 107342018.198 9       789.077 9        55.300                  
 02  5 18 00 02 44.0000000  0  7G32G16G27G10G21G23G08                           
  24799944.213 7 130324599.539 7      3086.122 7        47.382                  
  23556463.725 8 123790051.427 8     -3628.210 8        51.431                  
  20511706.419 9 107789739.124 9     -1401.165 9        56.255                  
  21332639.783 9 112100949.626 9      -850.672 9        54.211                  
  21743094.493 8 114260709.534 8      1717.999 8        51.318                  
  23066008.971 8 121212695.547 8     -2872.157 8        50.925                  
  20426358.212 9 107341229.462 9       789.465 9        56.877                  
 02  5 18 00 02 45.0000000  0  7G32G16G27G10G21G23G08                           
  24799354.893 7 130321512.301 7      3085.410 7        47.764                  
  23557152.647 8 123793679.054 8     -3627.613 8        50.193                  
  20511975.902 9 107791140.477 9     -1401.396 9        56.995                  
  21332801.337 8 112101800.753 8      -850.395 8        53.646                  
  21742768.383 8 114258991.599 8      1715.702 8        51.902                  
  23066556.263 8 121215565.966 8     -2870.206 8        50.116                  
  20426208.165 9 107340441.215 9       787.765 9        58.907                  
 02  5 18 00 02 46.0000000  0  7G32G16G27G10G21G23G08                           
  24798766.841 7 130318424.415 7      3087.928 7        46.819                  
  23557845.626 8 123797308.648 8     -3626.742 8        48.759                  
  20512246.475 9 107792541.935 9     -1400.345 9        55.762                  
  21332962.801 9 112102651.004 9      -849.635 9        54.673                  
  21742439.343 8 114257275.676 8      1714.469 8        50.929                  
  23067102.322 8 121218434.124 8     -2866.512 8        50.124                  
  20426058.316 9 107339653.709 9       786.689 9        55.007                  
 02  5 18 00 02 47.0000000  0  7G32G16G27G10G21G23G08                           
  24798177.932 7 130315336.345 7      3087.374 7        45.635                  
  23558535.853 8 123800939.184 8     -3629.950 8        49.707                  
  20512512.848 9 107793943.731 9     -1403.546 9        54.615                  
  21333124.319 8 112103501.278 8      -852.586 8        53.257                  
  21742110.410 8 114255560.775 8      1715.609 8        52.900                  
  23067648.972 8 121221301.587 8     -2868.497 8        50.173                  
  20425908.448 9 107338866.759 9       786.569 9        54.620                  
 02  5 18 00 02 48.0000000  0  7G32G16G27G10G21G23G08                           
  24797590.684 7 130312248.856 7      3087.129 7        46.559                  
  23559225.507 8 123804568.713 8     -3629.610 8        50.971                  
  20512774.683 8 107795346.194 8     -1402.957 8        52.661                  
  21333287.964 8 112104353.109 8      -850.641 8        51.611                  
  21741783.460 8 114253845.078 8      1715.689 8        51.770                  
  23068192.244 8 121224171.118 8     -2871.722 8        50.138                  
  20425758.742 9 107338080.097 9       785.894 9        55.766                  
 02  5 18 00 02 49.0000000  0  7G32G16G27G10G21G23G08                           
  24797003.097 7 130309161.122 7      3090.598 7        47.108                  
  23559917.503 8 123808199.282 8     -3633.885 8        51.003                  
  20513040.092 9 107796748.928 9     -1402.541 9        54.650                  
  21333451.340 8 112105204.859 8      -852.349 8        53.166                  
  21741459.888 8 114252130.519 8      1712.724 8        53.132                  
  23068737.910 8 121227039.829 8     -2865.294 8        51.088                  
  20425609.035 9 107337294.031 9       784.919 9        55.248                  
 02  5 18 00 02 50.0000000  0  7G32G16G27G10G21G23G08                           
  24796418.137 8 130306077.260 8      3074.870 8        48.327                  
  23560608.159 8 123811835.936 8     -3645.508 8        48.624                  
  20513312.487 9 107798153.374 9     -1408.070 9        55.998                  
  21333613.949 8 112106056.305 8      -852.667 8        53.055                  
  21741136.423 9 114250416.700 9      1716.123 9        54.044                  
  23069284.809 8 121229904.986 8     -2866.457 8        50.413                  
  20425459.400 9 107336507.531 9       789.674 9        55.786                  
 02  5 18 00 02 51.0000000  0  7G32G16G27G10G21G23G08                           
  24795836.786 7 130303015.376 7      3050.928 7        47.597                  
  23561304.104 8 123815491.257 8     -3662.873 8        49.686                  
  20513583.828 9 107799565.944 9     -1416.377 9        56.442                  
  21333775.842 9 112106912.156 9      -858.202 9        54.410                  
  21740808.634 9 114248696.152 9      1724.001 9        54.146                  
  23069827.170 8 121232766.022 8     -2861.538 8        49.572                  
  20425308.371 9 107335715.779 9       795.523 9        56.349                  
 02  5 18 00 02 52.0000000  0  7G32G16G27G10G21G23G08                           
  24795261.028 7 130299979.363 7      3021.391 7        47.263                  
  23562005.248 8 123819167.957 8     -3686.680 8        49.476                  
  20513851.542 9 107800988.027 9     -1426.900 9        56.025                  
  21333941.523 9 112107773.346 9      -865.482 9        55.330                  
  21740476.466 8 114246967.307 8      1732.344 8        52.822                  
  23070372.497 8 121235622.814 8     -2856.551 8        50.092                  
  20425156.681 9 107334917.697 9       801.024 9        57.358                  
 02  5 18 00 02 53.0000000  0  7G32G16G27G10G21G23G08                           
  24794684.127 7 130296958.671 7      3021.770 7        47.238                  
  23562705.839 8 123822858.789 8     -3698.299 8        51.407                  
  20514119.416 9 107802415.886 9     -1427.770 9        58.051                  
  21334105.740 9 112108637.148 9      -858.844 9        55.900                  
  21740144.371 8 114245234.520 8      1726.898 8        52.819                  
  23070915.304 8 121238475.589 8     -2842.929 8        49.875                  
  20425004.901 9 107334116.150 9       800.336 9        57.630                  
 02  5 18 00 02 54.0000000  0  7G32G16G27G10G21G23G08                           
  24794106.904 7 130293935.568 7      3020.884 7        47.571                  
  23563411.523 8 123826567.663 8     -3716.960 8        51.842                  
  20514390.186 9 107803842.859 9     -1427.922 9        56.465                  
  21334266.829 8 112109489.759 8      -845.774 8        52.282                  
  21739819.262 8 114243514.922 8      1712.009 8        53.007                  
  23071452.947 8 121241306.455 8     -2820.107 8        50.715                  
  20424853.676 8 107333316.529 8       797.599 8        53.806                  
 02  5 18 00 02 55.0000000  0  7G32G16G27G10G21G23G08                           
  24793530.628 8 130290910.919 8      3027.402 8        48.008                  
  23564122.245 8 123830296.636 8     -3734.359 8        50.333                  
  20514665.780 9 107805269.197 9     -1425.377 9        57.192                  
  21334425.488 8 112110330.530 8      -833.631 8        52.936                  
  21739498.477 8 114241809.073 8      1698.934 8        52.776                  
  23071988.089 8 121244113.633 8     -2796.143 8        49.818                  
  20424702.093 9 107332518.685 9       795.965 9        54.560                  
 02  5 18 00 02 56.0000000  0  7G32G16G27G10G21G23G08                           
  24792954.548 8 130287883.196 8      3028.743 8        48.727                  
  23564833.968 8 123834036.811 8     -3739.871 8        50.818                  
  20514939.837 9 107806694.584 9     -1426.170 9        57.548                  
  21334583.593 8 112111163.551 8      -834.498 8        51.511                  
  21739176.138 8 114240112.816 8      1696.203 8        53.701                  
  23072518.531 8 121246906.191 8     -2791.203 8        49.068                  
  20424551.207 9 107331722.713 9       796.473 9        56.047                  
 02  5 18 00 02 57.0000000  0  7G32G16G27G10G21G23G08                           
  24792380.327 8 130284854.766 8      3029.422 8        48.147                  
  23565544.923 8 123837777.111 8     -3743.196 8        48.564                  
  20515210.392 9 107808120.172 9     -1425.239 9        54.145                  
  21334741.734 8 112111996.703 8      -832.801 8        52.548                  
  21738852.226 9 114238417.456 9      1694.687 9        54.965                  
  23073052.350 8 121249698.586 8     -2791.988 8        50.144                  
  20424400.124 9 107330927.430 9       795.491 9        56.556                  
 02  5 18 00 02 58.0000000  0  7G32G16G27G10G21G23G08                           
  24791805.213 8 130281825.693 8      3027.435 8        48.993                  
  23566256.754 8 123841517.075 8     -3742.258 8        49.295                  
  20515477.176 8 107809545.964 8     -1427.160 8        53.292                  
  21334900.393 9 112112830.285 9      -833.702 9        54.367                  
  21738526.813 9 114236722.680 9      1695.587 9        54.268                  
  23073581.577 8 121252491.406 8     -2791.828 8        49.281                  
  20424249.220 9 107330132.830 9       794.486 9        56.169                  
 02  5 18 00 02 59.0000000  0  7G32G16G27G10G21G23G08                           
  24791229.222 7 130278796.774 7      3029.886 7        46.756                  
  23566969.442 8 123845257.253 8     -3741.668 8        48.090                  
  20515746.712 8 107810972.243 8     -1427.676 8        51.349                  
  21335058.856 9 112113664.454 9      -834.487 9        54.056                  
  21738202.544 8 114235028.169 8      1694.064 8        51.327                  
  23074114.252 8 121255284.603 8     -2795.447 8        50.046                  
  20424098.334 9 107329338.694 9       794.595 9        57.531                  
 02  5 18 00 03  0.0000000  0  7G32G16G27G10G21G23G08                           
  24790651.338 7 130275768.064 7      3028.466 7        46.732                  
  23567680.986 8 123848997.719 8     -3743.573 8        49.988                  
  20516021.574 8 107812399.046 8     -1427.387 8        52.856                  
  21335217.318 9 112114499.229 9      -835.866 9        54.164                  
  21737880.901 8 114233333.892 8      1694.720 8        51.861                  
  23074645.284 8 121258078.153 8     -2795.680 8        51.409                  
  20423947.466 9 107328544.973 9       792.606 9        55.083                  
 02  5 18 00 03  1.0000000  0  7G32G16G27G10G21G23G08                           
  24790072.507 7 130272739.480 7      3030.781 7        46.572                  
  23568391.798 8 123852738.400 8     -3740.676 8        50.959                  
  20516296.346 9 107813826.351 9     -1427.888 9        55.957                  
  21335376.370 9 112115334.599 9      -835.230 9        54.718                  
  21737561.546 8 114231639.869 8      1694.563 8        53.359                  
  23075177.673 8 121260872.088 8     -2794.179 8        51.537                  
  20423796.920 9 107327751.720 9       792.215 9        56.960                  
 02  5 18 00 03  2.0000000  0  7G32G16G27G10G21G23G08                           
  24789495.909 7 130269711.076 7      3027.480 7        46.351                  
  23569103.968 8 123856479.332 8     -3743.542 8        49.675                  
  20516568.920 9 107815254.133 9     -1428.042 9        57.679                  
  21335536.423 9 112116170.591 9      -836.790 9        54.419                  
  21737241.065 8 114229946.108 8      1693.268 8        53.857                  
  23075709.152 8 121263666.373 8     -2795.216 8        50.314                  
  20423646.159 9 107326958.942 9       792.207 9        57.802                  
 02  5 18 00 03  3.0000000  0  7G32G16G27G10G21G23G08                           
  24788921.134 8 130266683.220 8      3025.615 8        48.708                  
  23569816.906 8 123860220.785 8     -3742.473 8        50.389                  
  20516836.258 9 107816682.582 9     -1429.140 9        57.196                  
  21335696.851 9 112117007.270 9      -835.795 9        56.027                  
  21736918.923 9 114228252.429 9      1694.746 9        54.801                  
  23076239.969 8 121266460.995 8     -2793.364 8        48.558                  
  20423495.398 9 107326166.486 9       792.607 9        58.352                  
 02  5 18 00 03  4.0000000  0  7G32G16G27G10G21G23G08                           
  24788348.128 8 130263659.502 8      3017.592 8        48.891                  
  23570527.807 8 123863960.256 8     -3736.162 8        51.564                  
  20517105.884 9 107818113.060 9     -1433.053 9        57.161                  
  21335857.905 9 112117848.445 9      -848.126 9        56.496                  
  21736593.885 8 114226554.371 8      1703.997 8        53.428                  
  23076774.396 8 121269261.555 8     -2811.264 8        48.251                  
  20423344.655 9 107325373.231 9       794.838 9        57.567                  
 02  5 18 00 03  5.0000000  0  7G32G16G27G10G21G23G08                           
  24787775.712 7 130260648.280 7      3005.746 7        47.128                  
  23571236.332 8 123867689.100 8     -3722.091 8        50.672                  
  20517379.959 9 107819548.877 9     -1438.400 9        58.356                  
  21336021.013 9 112118704.415 9      -863.859 9        55.965                  
  21736264.237 8 114224839.780 8      1724.521 8        51.674                  
  23077309.698 8 121272084.262 8     -2833.099 8        49.290                  
  20423193.518 9 107324576.363 9       798.639 9        56.096                  
 02  5 18 00 03  6.0000000  0  7G32G16G27G10G21G23G08                           
  24787203.171 8 130257649.323 8      2993.839 8        48.748                  
  23571945.053 8 123871405.799 8     -3714.320 8        49.358                  
  20517658.394 9 107820989.997 9     -1443.184 9        56.922                  
  21336187.088 9 112119575.938 9      -876.794 9        54.657                  
  21735934.554 8 114223107.925 8      1739.034 8        53.035                  
  23077854.828 8 121274930.676 8     -2854.209 8        49.172                  
  20423041.417 9 107323775.873 9       802.033 9        58.204                  
 02  5 18 00 03  7.0000000  0  7G32G16G27G10G21G23G08                           
  24786632.631 8 130254663.118 8      2972.023 8        49.450                  
  23572653.560 8 123875127.080 8     -3732.786 8        51.682                  
  20517935.632 9 107822436.211 9     -1450.371 9        57.413                  
  21336354.878 9 112120453.828 9      -878.848 9        54.901                  
  21735607.301 9 114221368.530 9      1742.472 9        54.641                  
  23078395.045 8 121277782.053 8     -2847.473 8        50.170                  
  20422888.673 9 107322972.329 9       806.343 9        57.007                  
 02  5 18 00 03  8.0000000  0  7G32G16G27G10G21G23G08                           
  24786069.899 7 130251700.491 7      2947.426 7        46.846                  
  23573365.033 8 123878870.253 8     -3750.154 8        48.559                  
  20518212.316 9 107823891.172 9     -1459.331 9        55.259                  
  21336519.845 9 112121335.262 9      -883.510 9        56.526                  
  21735278.082 9 114219622.952 9      1749.036 9        54.370                  
  23078937.066 8 121280626.826 8     -2842.566 8        50.209                  
  20422734.588 9 107322163.243 9       812.138 9        56.083                  
 02  5 18 00 03  9.0000000  0  7G32G16G27G10G21G23G08                           
  24785513.565 7 130248759.349 7      2933.433 7        45.963                  
  23574080.723 8 123882632.776 8     -3768.960 8        48.778                  
  20518486.784 9 107825354.141 9     -1465.940 9        56.031                  
  21336687.331 9 112122220.331 9      -886.716 9        55.060                  
  21734940.089 8 114217871.373 8      1754.046 8        53.392                  
  23079477.353 8 121283466.396 8     -2840.653 8        50.653                  
  20422578.788 9 107321349.155 9       815.178 9        55.850                  
 02  5 18 00 03 10.0000000  0  7G32G16G27G10G21G23G08                           
  24784953.336 7 130245823.442 7      2934.203 7        47.438                  
  23574797.342 8 123886399.228 8     -3767.789 8        50.974                  
  20518763.075 9 107826819.461 9     -1466.231 9        57.875                  
  21336855.747 9 112123107.176 9      -887.813 9        55.225                  
  21734604.455 8 114216118.103 8      1752.922 8        52.851                  
  23080015.586 8 121286305.950 8     -2840.482 8        51.991                  
  20422422.756 9 107320534.194 9       814.302 9        55.274                  
 02  5 18 00 03 11.0000000  0  7G32G16G27G10G21G23G08                           
  24784391.766 7 130242887.899 7      2932.650 7        46.465                  
  23575515.087 8 123890165.756 8     -3768.988 8        49.209                  
  20519041.278 9 107828285.389 9     -1466.848 9        56.451                  
  21337024.377 9 112123994.868 9      -888.582 9        56.268                  
  21734273.235 8 114214364.825 8      1753.264 8        51.158                  
  23080557.089 8 121289146.201 8     -2842.044 8        50.000                  
  20422266.527 9 107319719.647 9       813.957 9        55.727                  
 02  5 18 00 03 12.0000000  0  7G32G16G27G10G21G23G08                           
  24783835.414 7 130239952.489 7      2939.218 7        46.943                  
  23576231.564 7 123893932.445 7     -3769.071 7        47.468                  
  20519323.090 9 107829751.807 9     -1466.666 9        55.565                  
  21337195.615 8 112124883.179 8      -886.605 8        53.644                  
  21733942.980 8 114212611.790 8      1752.947 8        52.819                  
  23081097.002 8 121291986.899 8     -2840.390 8        48.975                  
  20422110.656 9 107318905.567 9       813.558 9        57.012                  
 02  5 18 00 03 13.0000000  0  7G32G16G27G10G21G23G08                           
  24783278.990 7 130237017.207 7      2936.445 7        47.197                  
  23576947.415 7 123897699.328 7     -3766.648 7        47.733                  
  20519605.010 9 107831218.737 9     -1467.899 9        55.618                  
  21337366.140 9 112125772.076 9      -890.455 9        55.757                  
  21733607.936 8 114210859.031 8      1752.491 8        52.784                  
  23081638.165 8 121294827.990 8     -2842.065 8        50.438                  
  20421955.213 9 107318091.988 9       812.360 9        56.413                  
 02  5 18 00 03 14.0000000  0  7G32G16G27G10G21G23G08                           
  24782716.849 7 130234082.026 7      2935.101 7        46.644                  
  23577663.820 8 123901466.389 8     -3767.146 8        49.270                  
  20519885.893 9 107832686.167 9     -1467.623 9        57.587                  
  21337535.020 9 112126661.569 9      -890.119 9        54.895                  
  21733271.176 9 114209106.559 9      1752.310 9        54.124                  
  23082182.491 7 121297669.440 7     -2841.605 7        47.652                  
  20421799.163 9 107317278.920 9       812.984 9        55.788                  
 02  5 18 00 03 15.0000000  0  7G32G16G27G10G21G23G08                           
  24782156.566 7 130231146.928 7      2935.100 7        47.873                  
  23578382.101 8 123905233.639 8     -3767.645 8        48.010                  
  20520165.257 9 107834154.110 9     -1468.085 9        56.663                  
  21337704.758 9 112127551.655 9      -889.746 9        56.699                  
  21732937.115 8 114207354.375 8      1751.458 8        52.064                  
  23082718.830 8 121300511.238 8     -2843.044 8        50.953                  
  20421643.756 9 107316466.354 9       812.887 9        57.647                  
 02  5 18 00 03 16.0000000  0  7G32G16G27G10G21G23G08                           
  24781602.000 7 130228211.938 7      2932.229 7        47.761                  
  23579099.792 8 123909001.069 8     -3765.681 8        49.610                  
  20520441.405 9 107835622.542 9     -1467.664 9        56.911                  
  21337872.566 9 112128442.339 9      -890.782 9        55.726                  
  21732607.199 8 114205602.473 8      1752.617 8        53.378                  
  23083260.958 8 121303353.435 8     -2843.391 8        49.011                  
  20421488.492 9 107315654.253 9       811.741 9        58.570                  
 02  5 18 00 03 17.0000000  0  7G32G16G27G10G21G23G08                           
  24781044.219 7 130225277.084 7      2936.334 7        47.262                  
  23579815.858 8 123912768.656 8     -3766.945 8        49.378                  
  20520718.607 9 107837091.499 9     -1469.699 9        55.318                  
  21338040.785 9 112129333.656 9      -891.471 9        55.253                  
  21732275.657 9 114203850.800 9      1751.222 9        54.366                  
  23083801.943 8 121306196.065 8     -2843.876 8        48.777                  
  20421333.460 9 107314842.628 9       810.952 9        57.195                  
 02  5 18 00 03 18.0000000  0  7G32G16G27G10G21G23G08                           
  24780482.345 8 130222342.586 8      2930.488 8        48.393                  
  23580532.441 8 123916536.350 8     -3768.487 8        50.831                  
  20520996.649 9 107838561.039 9     -1470.541 9        55.911                  
  21338210.201 9 112130225.794 9      -892.190 9        55.856                  
  21731939.291 8 114202099.150 8      1752.692 8        53.090                  
  23084342.302 8 121309039.373 8     -2843.104 8        51.150                  
  20421178.143 9 107314031.433 9       811.656 9        56.698                  
 02  5 18 00 03 19.0000000  0  7G32G16G27G10G21G23G08                           
  24779924.314 8 130219406.203 8      2939.680 8        48.082                  
  23581248.256 8 123920299.993 8     -3755.174 8        50.034                  
  20521277.390 9 107840030.435 9     -1467.330 9        54.619                  
  21338380.832 9 112131119.627 9      -894.853 9        54.076                  
  21731603.371 8 114200346.932 8      1752.802 8        53.930                  
  23084886.182 8 121311886.370 8     -2851.562 8        49.299                  
  20421022.468 9 107313221.170 9       808.416 9        58.446                  
 02  5 18 00 03 20.0000000  0  7G32G16G27G10G21G23G08                           
  24779365.085 7 130216455.307 7      2958.889 7        46.477                  
  23581961.731 8 123924042.390 8     -3732.696 8        50.577                  
  20521559.863 9 107841495.314 9     -1463.077 9        55.274                  
  21338553.429 8 112132016.725 8      -897.581 8        53.407                  
  21731271.686 8 114198594.305 8      1753.247 8        53.556                  
  23085428.614 8 121314747.100 8     -2869.595 8        50.144                  
  20420868.187 9 107312414.766 9       804.322 9        56.875                  
 02  5 18 00 03 21.0000000  0  7G32G16G27G10G21G23G08                           
  24778799.870 7 130213487.907 7      2974.110 7        47.134                  
  23582668.593 8 123927761.345 8     -3712.048 8        49.813                  
  20521839.728 9 107842954.998 9     -1458.908 9        57.162                  
  21338726.097 9 112132917.054 9      -901.821 9        54.543                  
  21730941.073 8 114196841.600 8      1754.223 8        52.146                  
  23085976.192 8 121317622.528 8     -2879.935 8        51.005                  
  20420714.602 9 107311612.795 9       799.697 9        55.179                  
 02  5 18 00 03 22.0000000  0  7G32G16G27G10G21G23G08                           
  24778233.672 8 130210525.234 8      2951.072 8        48.653                  
  23583374.080 8 123931473.954 8     -3713.121 8        49.566                  
  20522118.431 9 107844417.034 9     -1466.898 9        58.273                  
  21338898.212 9 112133824.719 9      -913.797 9        55.056                  
  21730605.868 9 114195081.431 9      1769.391 9        54.523                  
  23086526.415 8 121320509.268 8     -2896.201 8        49.472                  
  20420561.554 9 107310809.691 9       804.878 9        56.257                  
 02  5 18 00 03 23.0000000  0  7G32G16G27G10G21G23G08                           
  24777675.569 8 130207586.391 8      2927.002 8        48.839                  
  23584082.265 8 123935188.900 8     -3717.086 8        49.278                  
  20522395.865 9 107845888.385 9     -1475.657 9        58.721                  
  21339071.863 9 112134747.241 9      -929.833 9        55.842                  
  21730262.622 8 114193303.201 8      1787.525 8        53.068                  
  23087077.514 8 121323411.969 8     -2911.736 8        50.629                  
  20420407.184 9 107310000.224 9       811.980 9        58.914                  
 02  5 18 00 03 24.0000000  0  7G32G16G27G10G21G23G08                           
  24777122.880 7 130204666.765 7      2916.481 7        47.598                  
  23584790.057 8 123938905.390 8     -3715.558 8        51.288                  
  20522674.443 9 107847367.340 9     -1480.122 9        57.434                  
  21339249.249 9 112135682.052 9      -936.839 9        55.851                  
  21729923.611 8 114191510.230 8      1794.036 8        53.236                  
  23087632.561 8 121326328.013 8     -2917.600 8        51.136                  
  20420252.492 9 107309185.733 9       814.946 9        56.782                  
 02  5 18 00 03 25.0000000  0  7G32G16G27G10G21G23G08                           
  24776564.580 8 130201749.237 8      2918.125 8        48.332                  
  23585496.277 8 123942621.273 8     -3716.531 8        50.085                  
  20522954.576 9 107848847.598 9     -1480.771 9        56.260                  
  21339426.706 8 112136619.215 8      -937.471 8        53.870                  
  21729586.030 8 114189715.442 8      1794.356 8        52.401                  
  23088190.271 8 121329246.867 8     -2921.241 8        50.928                  
  20420098.800 9 107308371.102 9       814.760 9        55.944                  
 02  5 18 00 03 26.0000000  0  7G32G16G27G10G21G23G08                           
  24776008.460 7 130198831.748 7      2917.093 7        47.563                  
  23586202.979 8 123946337.064 8     -3715.596 8        49.209                  
  20523236.120 9 107850328.318 9     -1480.816 9        57.695                  
  21339608.255 8 112137557.093 8      -938.217 8        53.977                  
  21729241.229 8 114187920.864 8      1793.400 8        53.678                  
  23088743.889 8 121332166.358 8     -2917.505 8        49.803                  
  20419944.680 9 107307556.986 9       813.685 9        56.119                  
 02  5 18 00 03 27.0000000  0  7G32G16G27G10G21G23G08                           
  24775456.593 7 130195914.349 7      2917.216 7        46.783                  
  23586911.396 8 123950052.996 8     -3716.746 8        50.057                  
  20523520.363 9 107851809.507 9     -1480.707 9        58.116                  
  21339787.910 9 112138495.569 9      -939.316 9        57.046                  
  21728896.660 9 114186126.552 9      1794.053 9        54.040                  
  23089298.937 8 121335086.270 8     -2918.999 8        50.633                  
  20419790.738 9 107306743.369 9       813.008 9        56.098                  
 02  5 18 00 03 28.0000000  0  7G32G16G27G10G21G23G08                           
  24774901.135 7 130192997.069 7      2916.528 7        47.916                  
  23587618.223 8 123953769.093 8     -3713.478 8        50.462                  
  20523804.945 9 107853291.184 9     -1482.076 9        57.529                  
  21339964.814 9 112139434.664 9      -939.256 9        55.499                  
  21728559.472 9 114184332.568 9      1794.428 9        54.375                  
  23089856.254 8 121338006.550 8     -2921.464 8        49.907                  
  20419636.475 9 107305930.280 9       812.867 9        56.391                  
 02  5 18 00 03 29.0000000  0  7G32G16G27G10G21G23G08                           
  24774342.710 8 130190079.877 8      2916.211 8        49.640                  
  23588323.925 8 123957485.388 8     -3716.915 8        50.647                  
  20524088.616 9 107854773.384 9     -1481.728 9        55.854                  
  21340142.092 9 112140374.380 9      -940.040 9        56.415                  
  21728219.996 8 114182538.883 8      1793.771 8        53.712                  
  23090411.534 8 121340927.215 8     -2920.796 8        50.099                  
  20419482.265 9 107305117.691 9       811.271 9        57.031                  
 02  5 18 00 03 30.0000000  0  7G32G16G27G10G21G23G08                           
  24773789.431 8 130187162.817 8      2918.409 8        48.372                  
  23589031.913 8 123961201.845 8     -3719.411 8        49.245                  
  20524371.393 9 107856256.049 9     -1482.290 9        56.926                  
  21340320.139 9 112141314.678 9      -941.447 9        57.384                  
  21727873.480 8 114180745.501 8      1794.895 8        53.799                  
  23090966.117 8 121343848.261 8     -2919.073 8        49.528                  
  20419328.806 9 107304305.565 9       811.302 9        57.208                  
 02  5 18 00 03 31.0000000  0  7G32G16G27G10G21G23G08                           
  24773236.349 7 130184245.859 7      2916.869 7        47.703                  
  23589740.349 8 123964918.489 8     -3716.423 8        52.031                  
  20524652.151 9 107857739.214 9     -1481.598 9        55.494                  
  21340501.992 9 112142255.585 9      -941.326 9        57.277                  
  21727532.253 8 114178952.452 8      1791.794 8        53.449                  
  23091523.255 8 121346769.665 8     -2920.653 8        49.900                  
  20419174.972 9 107303493.952 9       810.050 9        56.514                  
 02  5 18 00 03 32.0000000  0  7G32G16G27G10G21G23G08                           
  24772678.389 8 130181329.022 8      2914.904 8        48.090                  
  23590445.996 8 123968635.316 8     -3713.824 8        50.271                  
  20524931.551 9 107859222.870 9     -1483.780 9        54.745                  
  21340682.237 9 112143197.087 9      -941.836 9        55.290                  
  21727195.690 8 114177159.698 8      1793.660 8        52.931                  
  23092079.768 8 121349691.458 8     -2923.192 8        50.613                  
  20419021.745 9 107302682.840 9       809.990 9        57.301                  
 02  5 18 00 03 33.0000000  0  7G32G16G27G10G21G23G08                           
  24772122.877 8 130178412.291 8      2917.207 8        48.769                  
  23591153.360 8 123972352.324 8     -3719.480 8        49.857                  
  20525212.059 9 107860707.038 9     -1484.788 9        56.271                  
  21340860.516 9 112144139.200 9      -943.368 9        54.971                  
  21726853.499 9 114175367.257 9      1791.707 9        54.117                  
  23092634.440 8 121352613.610 8     -2922.164 8        51.287                  
  20418868.071 9 107301872.228 9       811.189 9        56.093                  
 02  5 18 00 03 34.0000000  0  7G32G16G27G10G21G23G08                           
  24771571.475 7 130175495.683 7      2916.557 7        47.136                  
  23591861.723 8 123976069.520 8     -3718.321 8        50.303                  
  20525493.782 9 107862191.695 9     -1484.678 9        56.141                  
  21341037.581 8 112145081.906 8      -943.083 8        53.624                  
  21726508.090 9 114173575.123 9      1790.142 9        54.318                  
  23093191.185 8 121355536.148 8     -2922.881 8        50.842                  
  20418714.255 9 107301062.107 9       809.656 9        58.053                  
 02  5 18 00 03 35.0000000  0  7G32G16G27G10G21G23G08                           
  24771014.962 8 130172579.170 8      2918.216 8        48.102                  
  23592569.140 8 123979786.892 8     -3717.461 8        48.380                  
  20525776.970 9 107863676.852 9     -1485.777 9        55.428                  
  21341216.485 9 112146025.211 9      -943.776 9        54.577                  
  21726170.241 8 114171783.299 8      1791.077 8        53.371                  
  23093747.591 7 121358459.074 7     -2922.788 7        47.454                  
  20418561.046 9 107300252.497 9       809.586 9        56.792                  
 02  5 18 00 03 36.0000000  0  7G32G16G27G10G21G23G08                           
  24770457.216 7 130169662.760 7      2917.401 7        46.223                  
  23593276.021 8 123983504.447 8     -3717.395 8        48.271                  
  20526062.750 9 107865162.509 9     -1485.035 9        54.189                  
  21341398.338 8 112146969.121 8      -944.389 8        53.928                  
  21725832.177 8 114169991.783 8      1791.061 8        53.560                  
  23094304.568 8 121361382.360 8     -2922.086 8        48.971                  
  20418407.676 9 107299443.379 9       807.612 9        54.619                  
 02  5 18 00 03 37.0000000  0  7G32G16G27G10G21G23G08                           
  24769905.331 7 130166746.458 7      2916.527 7        47.091                  
  23593983.295 8 123987222.178 8     -3715.800 8        48.593                  
  20526347.492 9 107866648.645 9     -1486.481 9        55.723                  
  21341579.905 9 112147913.629 9      -945.934 9        55.964                  
  21725487.197 8 114168200.584 8      1791.496 8        53.984                  
  23094859.419 8 121364306.030 8     -2922.566 8        51.849                  
  20418254.503 9 107298634.732 9       808.307 9        57.860                  
 02  5 18 00 03 38.0000000  0  7G32G16G27G10G21G23G08                           
  24769351.105 7 130163830.278 7      2915.731 7        46.276                  
  23594692.355 8 123990940.115 8     -3719.357 8        49.396                  
  20526631.753 9 107868135.278 9     -1486.877 9        55.535                  
  21341758.721 9 112148858.744 9      -945.324 9        57.478                  
  21725144.827 9 114166409.704 9      1790.998 9        54.415                  
  23095417.076 8 121367230.064 8     -2924.353 8        52.177                  
  20418101.990 9 107297826.608 9       807.328 9        56.998                  
 02  5 18 00 03 39.0000000  0  7G32G16G27G10G21G23G08                           
  24768792.824 7 130160914.215 7      2916.874 7        46.938                  
  23595398.896 8 123994658.216 8     -3717.913 8        50.034                  
  20526914.959 9 107869622.391 9     -1487.292 9        57.490                  
  21341937.715 9 112149804.454 9      -947.432 9        55.266                  
  21724807.692 8 114164619.117 8      1791.286 8        53.551                  
  23095971.123 8 121370154.472 8     -2924.498 8        51.219                  
  20417949.389 9 107297018.992 9       807.943 9        57.532                  
 02  5 18 00 03 40.0000000  0  7G32G16G27G10G21G23G08                           
  24768239.080 8 130157998.249 8      2916.598 8        48.825                  
  23596105.723 8 123998376.486 8     -3718.249 8        51.381                  
  20527195.896 9 107871110.004 9     -1488.486 9        56.829                  
  21342115.779 9 112150750.785 9      -945.306 9        55.372                  
  21724468.002 8 114162828.831 8      1790.549 8        53.874                  
  23096528.940 8 121373079.260 8     -2925.337 8        51.540                  
  20417796.037 9 107296211.885 9       808.149 9        55.933                  
 02  5 18 00 03 41.0000000  0  7G32G16G27G10G21G23G08                           
  24767686.981 7 130155082.411 7      2915.140 7        47.882                  
  23596814.248 8 124002094.944 8     -3717.073 8        50.531                  
  20527476.082 9 107872598.152 9     -1488.560 9        56.440                  
  21342298.973 9 112151697.689 9      -947.327 9        54.574                  
  21724123.005 8 114161038.869 8      1789.680 8        52.724                  
  23097085.239 8 121376004.400 8     -2924.241 8        50.931                  
  20417643.185 9 107295405.268 9       805.713 9        55.894                  
 02  5 18 00 03 42.0000000  0  7G32G16G27G10G21G23G08                           
  24767129.754 7 130152166.683 7      2916.618 7        47.522                  
  23597522.576 8 124005813.586 8     -3721.485 8        48.908                  
  20527757.930 9 107874086.791 9     -1489.178 9        54.291                  
  21342480.182 9 112152645.199 9      -946.969 9        55.916                  
  21723784.297 8 114159249.221 8      1789.666 8        52.402                  
  23097642.341 8 121378929.930 8     -2925.507 8        51.083                  
  20417488.654 9 107294599.125 9       805.698 9        56.490                  
 02  5 18 00 03 43.0000000  0  7G32G16G27G10G21G23G08                           
  24766573.973 7 130149251.036 7      2920.350 7        46.787                  
  23598228.849 8 124009532.404 8     -3719.221 8        49.955                  
  20528040.797 9 107875575.895 9     -1490.009 9        56.392                  
  21342659.570 9 112153593.306 9      -948.926 9        56.002                  
  21723447.967 8 114157459.862 8      1790.060 8        53.286                  
  23098200.909 8 121381855.827 8     -2926.756 8        49.687                  
  20417335.141 9 107293793.523 9       804.945 9        58.069                  
 02  5 18 00 03 44.0000000  0  7G32G16G27G10G21G23G08                           
  24766021.767 7 130146335.515 7      2918.250 7        45.459                  
  23598936.427 8 124013251.409 8     -3717.573 8        51.712                  
  20528325.004 9 107877065.486 9     -1489.255 9        57.430                  
  21342838.045 9 112154542.022 9      -949.259 9        54.816                  
  21723105.435 8 114155670.847 8      1788.100 8        53.560                  
  23098755.635 8 121384782.106 8     -2926.514 8        50.558                  
  20417181.879 9 107292988.410 9       805.434 9        56.794                  
 02  5 18 00 03 45.0000000  0  7G32G16G27G10G21G23G08                           
  24765465.987 7 130143420.121 7      2917.226 7        47.748                  
  23599645.684 8 124016970.595 8     -3716.890 8        51.155                  
  20528611.355 9 107878555.578 9     -1490.960 9        57.389                  
  21343017.897 9 112155491.345 9      -950.033 9        55.354                  
  21722760.170 9 114153882.128 9      1789.022 9        55.760                  
  23099313.452 8 121387708.756 8     -2925.468 8        50.794                  
  20417028.294 9 107292183.802 9       804.617 9        54.412                  
 02  5 18 00 03 46.0000000  0  7G32G16G27G10G21G23G08                           
  24764909.117 8 130140504.834 8      2914.622 8        48.263                  
  23600352.583 8 124020689.983 8     -3718.788 8        50.738                  
  20528896.777 9 107880046.161 9     -1490.605 9        57.155                  
  21343201.305 9 112156441.263 9      -950.684 9        55.294                  
  21722423.250 9 114152093.715 9      1789.259 9        55.608                  
  23099872.091 8 121390635.771 8     -2927.257 8        50.721                  
  20416874.674 9 107291379.700 9       804.089 9        55.336                  
 02  5 18 00 03 47.0000000  0  7G32G16G27G10G21G23G08                           
  24764356.821 8 130137589.681 8      2917.079 8        48.211                  
  23601059.463 8 124024409.625 8     -3717.974 8        50.868                  
  20529181.680 9 107881537.253 9     -1490.911 9        56.377                  
  21343383.372 9 112157391.757 9      -951.151 9        57.148                  
  21722086.526 9 114150305.635 9      1788.518 9        55.116                  
  23100427.586 8 121393563.099 8     -2927.904 8        51.770                  
  20416720.715 9 107290576.099 9       803.528 9        56.342                  
 02  5 18 00 03 48.0000000  0  7G32G16G27G10G21G23G08                           
  24763803.739 8 130134674.725 8      2914.395 8        48.330                  
  23601768.846 8 124028129.780 8     -3721.071 8        50.402                  
  20529465.601 9 107883028.893 9     -1491.689 9        57.632                  
  21343562.259 9 112158342.711 9      -950.254 9        56.241                  
  21721743.405 8 114148517.983 8      1787.212 8        53.700                  
  23100983.473 8 121396490.473 8     -2928.983 8        50.355                  
  20416566.881 9 107289772.965 9       803.233 9        56.282                  
 02  5 18 00 03 49.0000000  0  7G32G16G27G10G21G23G08                           
  24763244.563 8 130131756.283 8      2929.132 8        48.478                  
  23602476.799 8 124031850.764 8     -3720.481 8        49.523                  
  20529748.218 9 107884519.625 9     -1487.329 9        57.386                  
  21343741.914 9 112159291.528 9      -943.324 9        54.865                  
  21721400.748 9 114146734.014 9      1777.611 9        54.412                  
  23101540.951 8 121399414.719 8     -2918.875 8        51.072                  
  20416414.118 9 107288971.403 9       798.887 9        56.858                  
 02  5 18 00 03 50.0000000  0  7G32G16G27G10G21G23G08                           
  24762685.817 8 130128817.058 8      2953.423 8        50.173                  
  23603183.769 8 124035570.450 8     -3716.016 8        49.707                  
  20530027.564 9 107886003.018 9     -1479.095 9        55.311                  
  21343919.765 9 112160228.189 9      -929.584 9        54.150                  
  21721067.723 9 114144966.785 9      1756.987 9        54.075                  
  23102094.623 8 121402325.139 8     -2904.311 8        49.089                  
  20416263.572 9 107288176.311 9       791.796 9        55.778                  
 02  5 18 00 03 51.0000000  0  7G32G16G27G10G21G23G08                           
  24762125.516 7 130125853.961 7      2972.734 7        46.602                  
  23603890.971 8 124039287.982 8     -3715.312 8        49.668                  
  20530306.071 9 107887477.927 9     -1472.411 9        56.104                  
  21344097.311 9 112161151.111 9      -917.977 9        55.433                  
  21720736.986 8 114143218.301 8      1739.994 8        51.115                  
  23102645.489 8 121405220.380 8     -2889.870 8        49.487                  
  20416113.454 9 107287388.530 9       785.339 9        55.491                  
 02  5 18 00 03 52.0000000  0  7G32G16G27G10G21G23G08                           
  24761559.675 7 130122886.065 7      2959.245 7        47.010                  
  23604600.639 8 124043012.412 8     -3734.100 8        50.099                  
  20530585.792 9 107888951.334 9     -1475.726 9        56.188                  
  21344272.856 9 112162067.594 9      -914.303 9        56.175                  
  21720404.515 9 114141478.117 9      1737.620 9        54.540                  
  23103194.908 8 121408104.633 8     -2877.557 8        50.389                  
  20415964.391 9 107286602.890 9       786.558 9        57.586                  
 02  5 18 00 03 53.0000000  0  7G32G16G27G10G21G23G08                           
  24760994.282 7 130119932.019 7      2948.952 7        47.349                  
  23605314.113 8 124046761.282 8     -3760.221 8        50.336                  
  20530868.677 9 107890429.970 9     -1481.022 9        59.226                  
  21344447.222 9 112162979.738 9      -908.278 9        56.653                  
  21720070.274 8 114139741.211 8      1736.113 8        52.026                  
  23103740.181 8 121410972.043 8     -2857.818 8        49.812                  
  20415813.451 9 107285814.749 9       790.415 9        56.605                  
 02  5 18 00 03 54.0000000  0  7G32G16G27G10G21G23G08                           
  24760435.946 7 130116990.162 7      2936.693 7        46.644                  
  23606030.715 8 124050532.982 8     -3777.851 8        49.441                  
  20531154.099 9 107891913.242 9     -1484.600 9        55.952                  
  21344617.103 9 112163887.421 9      -906.892 9        55.600                  
  21719740.323 8 114138007.952 8      1732.638 8        53.251                  
  23104282.524 8 121413823.226 8     -2845.497 8        49.182                  
  20415663.173 9 107285024.570 9       790.605 9        55.850                  
 02  5 18 00 03 55.0000000  0  7G32G16G27G10G21G23G08                           
  24759878.218 8 130114050.552 8      2939.861 8        48.315                  
  23606749.514 8 124054310.355 8     -3775.779 8        48.712                  
  20531438.574 9 107893397.707 9     -1484.815 9        57.315                  
  21344788.842 9 112164793.926 9      -907.354 9        58.277                  
  21719415.536 9 114136276.465 9      1730.163 9        54.103                  
  23104825.724 8 121416670.137 8     -2848.642 8        50.014                  
  20415513.180 9 107284234.464 9       790.182 9        58.318                  
 02  5 18 00 03 56.0000000  0  7G32G16G27G10G21G23G08                           
  24759318.882 8 130111110.710 8      2938.191 8        48.317                  
  23607469.028 7 124058088.003 7     -3777.009 7        47.726                  
  20531721.816 9 107894882.530 9     -1484.939 9        57.104                  
  21344960.742 9 112165700.763 9      -906.836 9        55.727                  
  21719087.639 9 114134545.594 9      1729.670 9        54.294                  
  23105365.905 8 121419517.069 8     -2845.147 8        49.866                  
  20415362.526 9 107283444.952 9       788.717 9        58.157                  
 02  5 18 00 03 57.0000000  0  7G32G16G27G10G21G23G08                           
  24758756.151 7 130108170.876 7      2939.418 7        45.435                  
  23608188.685 8 124061865.852 8     -3780.439 8        50.104                  
  20532003.789 9 107896367.831 9     -1485.245 9        57.134                  
  21345134.912 9 112166608.137 9      -907.581 9        55.967                  
  21718755.436 8 114132815.082 8      1730.368 8        53.012                  
  23105908.587 8 121422364.289 8     -2848.298 8        48.393                  
  20415212.158 9 107282655.964 9       788.413 9        56.948                  
 02  5 18 00 03 58.0000000  0  7G32G16G27G10G21G23G08                           
  24758197.744 7 130105231.126 7      2938.497 7        47.269                  
  23608907.395 8 124065643.880 8     -3775.754 8        51.596                  
  20532283.528 9 107897853.619 9     -1485.963 9        56.632                  
  21345309.367 9 112167516.082 9      -906.995 9        56.649                  
  21718423.501 8 114131084.855 8      1730.361 8        51.545                  
  23106450.626 8 121425211.828 8     -2847.573 8        52.388                  
  20415062.130 9 107281867.467 9       787.331 9        55.498                  
 02  5 18 00 03 59.0000000  0  7G32G16G27G10G21G23G08                           
  24757640.588 7 130102291.486 7      2940.919 7        47.824                  
  23609625.337 8 124069422.090 8     -3778.954 8        50.951                  
  20532564.286 8 107899339.897 8     -1486.198 8        52.168                  
  21345483.054 9 112168424.599 9      -908.795 9        54.790                  
  21718094.407 8 114129354.923 8      1729.929 8        51.318                  
  23106991.039 8 121428059.766 8     -2849.129 8        52.200                  
  20414912.138 9 107281079.469 9       787.664 9        54.188                  
 02  5 18 00 04  0.0000000  0  7G32G16G27G10G21G23G08                           
  24757079.804 8 130099351.931 8      2938.328 8        48.431                  
  23610344.422 8 124073200.473 8     -3778.317 8        51.833                  
  20532846.081 9 107900826.651 9     -1487.145 9        54.436                  
  21345655.276 8 112169333.701 8      -909.530 8        53.217                  
  21717768.405 8 114127625.277 8      1730.475 8        51.714                  
  23107534.453 8 121430908.069 8     -2849.240 8        50.656                  
  20414762.413 9 107280291.948 9       786.776 9        55.449                  
 02  5 18 00 04  1.0000000  0  7G32G16G27G10G21G23G08                           
  24756516.966 7 130096412.477 7      2941.205 7        47.771                  
  23611063.775 8 124076979.066 8     -3780.574 8        50.373                  
  20533128.930 9 107902313.918 9     -1487.112 9        55.590                  
  21345826.246 9 112170243.388 9      -910.185 9        54.136                  
  21717441.437 8 114125895.931 8      1729.576 8        52.560                  
  23108075.867 8 121433756.740 8     -2849.948 8        50.525                  
  20414612.492 9 107279504.941 9       787.638 9        55.630                  
 02  5 18 00 04  2.0000000  0  7G32G16G27G10G21G23G08                           
  24755962.347 7 130093473.108 7      2940.992 7        47.235                  
  23611783.897 8 124080757.831 8     -3777.818 8        50.940                  
  20533414.048 9 107903801.674 9     -1487.723 9        55.848                  
  21345998.861 9 112171153.634 9      -910.560 9        54.212                  
  21717110.432 8 114124166.912 8      1728.665 8        53.821                  
  23108617.549 8 121436605.734 8     -2849.334 8        51.997                  
  20414463.000 9 107278718.434 9       785.656 9        56.178                  
 02  5 18 00 04  3.0000000  0  7G32G16G27G10G21G23G08                           
  24755404.315 7 130090533.751 7      2940.337 7        46.407                  
  23612502.178 8 124084536.805 8     -3782.518 8        50.573                  
  20533699.791 9 107905289.906 9     -1488.135 9        56.224                  
  21346171.958 9 112172064.417 9      -912.019 9        54.532                  
  21716777.925 9 114122438.245 9      1728.027 9        55.032                  
  23109160.910 8 121439455.003 8     -2850.310 8        51.453                  
  20414313.507 9 107277932.439 9       786.765 9        54.496                  
 02  5 18 00 04  4.0000000  0  7G32G16G27G10G21G23G08                           
  24754840.994 8 130087594.018 8      2938.570 8        48.031                  
  23613220.531 8 124088316.036 8     -3780.069 8        49.007                  
  20533984.695 9 107906778.437 9     -1487.677 9        57.004                  
  21346347.700 8 112172975.424 8      -909.627 8        50.737                  
  21716449.153 8 114120710.296 8      1726.527 8        53.908                  
  23109701.358 8 121442304.186 8     -2849.372 8        49.801                  
  20414164.069 8 107277147.114 8       783.698 8        52.765                  
 02  5 18 00 04  5.0000000  0  7G32G16G27G10G21G23G08                           
  24754279.764 8 130084645.892 8      2956.708 8        48.218                  
  23613938.043 8 124092086.726 8     -3763.119 8        49.079                  
  20534268.169 9 107908264.401 9     -1483.131 9        58.613                  
  21346521.923 9 112173886.436 9      -911.831 9        54.255                  
  21716123.668 9 114118984.552 9      1724.267 9        54.274                  
  23110245.488 8 121445157.192 8     -2858.873 8        48.457                  
  20414015.184 9 107276364.350 9       780.632 9        55.481                  
 02  5 18 00 04  6.0000000  0  7G32G16G27G10G21G23G08                           
  24753718.891 8 130081678.981 8      2971.455 8        48.182                  
  23614653.358 8 124095837.239 8     -3747.844 8        49.659                  
  20534549.285 9 107909744.077 9     -1476.566 9        56.618                  
  21346695.878 9 112174797.382 9      -909.838 9        55.268                  
  21715799.042 8 114117262.718 8      1719.283 8        53.193                  
  23110790.690 8 121448019.439 8     -2863.056 8        48.208                  
  20413867.497 9 107275586.675 9       775.906 9        56.501                  
 02  5 18 00 04  7.0000000  0  7G32G16G27G10G21G23G08                           
  24753152.908 7 130078706.330 7      2971.659 7        47.676                  
  23615367.923 8 124099592.168 8     -3765.167 8        50.218                  
  20534827.041 9 107911221.964 9     -1478.475 9        54.971                  
  21346866.241 9 112175702.654 9      -899.614 9        55.154                  
  21715471.056 8 114115548.492 8      1710.068 8        53.286                  
  23111331.246 8 121450872.781 8     -2844.387 8        50.501                  
  20413720.345 9 107274811.326 9       774.871 9        58.021                  
 02  5 18 00 04  8.0000000  0  7G32G16G27G10G21G23G08                           
  24752584.333 7 130075736.606 7      2971.220 7        46.141                  
  23616085.185 8 124103366.686 8     -3779.142 8        49.366                  
  20535106.262 9 107912701.052 9     -1478.880 9        55.523                  
  21347035.479 9 112176599.257 9      -894.863 9        54.090                  
  21715144.196 8 114113843.637 8      1701.933 8        53.860                  
  23111873.517 8 121453706.509 8     -2830.380 8        50.547                  
  20413573.426 9 107274036.431 9       774.454 9        56.850                  
 02  5 18 00 04  9.0000000  0  7G32G16G27G10G21G23G08                           
  24752018.528 7 130072766.597 7      2971.152 7        47.012                  
  23616803.520 8 124107145.188 8     -3777.631 8        50.540                  
  20535386.895 9 107914180.441 9     -1479.515 9        56.061                  
  21347204.984 9 112177494.006 9      -895.090 9        54.848                  
  21714817.979 8 114112141.578 8      1702.045 8        52.168                  
  23112410.088 8 121456535.968 8     -2829.371 8        49.667                  
  20413426.400 9 107273262.286 9       773.911 9        57.784                  
 02  5 18 00 04 10.0000000  0  7G32G16G27G10G21G23G08                           
  24751456.905 8 130069796.298 8      2971.727 8        48.159                  
  23617522.730 8 124110923.793 8     -3778.697 8        51.099                  
  20535669.154 9 107915660.173 9     -1479.349 9        55.823                  
  21347376.259 9 112178389.149 9      -895.447 9        54.649                  
  21714495.729 8 114110440.092 8      1701.117 8        53.929                  
  23112948.285 8 121459365.610 8     -2829.471 8        50.205                  
  20413279.695 9 107272488.747 9       774.490 9        58.355                  
 02  5 18 00 04 11.0000000  0  7G32G16G27G10G21G23G08                           
  24750894.156 7 130066826.066 7      2968.147 7        47.499                  
  23618243.245 8 124114702.559 8     -3776.342 8        49.143                  
  20535954.004 9 107917140.383 9     -1480.533 9        57.503                  
  21347548.606 9 112179284.853 9      -895.522 9        54.312                  
  21714174.444 8 114108738.906 8      1700.525 8        52.435                  
  23113488.448 7 121462195.574 7     -2827.923 7        47.574                  
  20413133.473 9 107271715.700 9       772.733 9        57.240                  
 02  5 18 00 04 12.0000000  0  7G32G16G27G10G21G23G08                           
  24750326.779 7 130063855.899 7      2969.941 7        46.077                  
  23618962.777 8 124118481.495 8     -3779.928 8        49.629                  
  20536237.747 9 107918621.046 9     -1480.539 9        57.021                  
  21347720.023 9 112180181.115 9      -898.144 9        54.418                  
  21713852.641 8 114107038.027 8      1699.780 8        53.667                  
  23114024.733 8 121465025.911 8     -2829.570 8        48.626                  
  20412987.126 9 107270943.152 9       772.935 9        57.344                  
 02  5 18 00 04 13.0000000  0  7G32G16G27G10G21G23G08                           
  24749757.990 7 130060885.825 7      2969.904 7        47.064                  
  23619680.272 8 124122260.605 8     -3780.076 8        49.735                  
  20536520.917 9 107920102.222 9     -1481.229 9        55.802                  
  21347891.244 9 112181077.963 9      -897.965 9        54.027                  
  21713528.568 8 114105337.456 8      1700.517 8        52.982                  
  23114566.379 8 121467856.618 8     -2831.159 8        48.057                  
  20412840.850 9 107270171.117 9       770.919 9        55.344                  
 02  5 18 00 04 14.0000000  0  7G32G16G27G10G21G23G08                           
  24749192.936 7 130057915.845 7      2967.939 7        46.003                  
  23620399.232 8 124126039.909 8     -3776.150 8        49.136                  
  20536802.676 9 107921583.850 9     -1481.965 9        54.997                  
  21348060.178 8 112181975.393 8      -897.471 8        53.710                  
  21713203.763 8 114103637.152 8      1699.399 8        53.941                  
  23115102.842 8 121470687.671 8     -2831.088 8        50.236                  
  20412694.252 9 107269399.547 9       770.821 9        57.240                  
 02  5 18 00 04 15.0000000  0  7G32G16G27G10G21G23G08                           
  24748631.527 7 130054945.970 7      2969.892 7        45.694                  
  23621118.710 8 124129819.395 8     -3780.897 8        50.828                  
  20537081.415 9 107923066.002 9     -1482.130 9        54.680                  
  21348229.416 9 112182873.397 9      -897.729 9        54.362                  
  21712876.510 9 114101937.136 9      1699.798 9        54.555                  
  23115642.576 8 121473519.083 8     -2831.872 8        51.282                  
  20412547.137 9 107268628.451 9       770.808 9        58.558                  
 02  5 18 00 04 16.0000000  0  7G32G16G27G10G21G23G08                           
  24748066.151 7 130051976.205 7      2969.170 7        46.197                  
  23621838.600 8 124133599.077 8     -3778.913 8        50.112                  
  20537361.440 9 107924548.620 9     -1481.396 9        54.881                  
  21348399.940 8 112183771.976 8      -899.119 8        52.852                  
  21712552.634 8 114100237.388 8      1699.604 8        52.803                  
  23116181.971 8 121476350.867 8     -2833.911 8        48.996                  
  20412400.557 9 107267857.883 9       771.618 9        55.495                  
 02  5 18 00 04 17.0000000  0  7G32G16G27G10G21G23G08                           
  24747500.346 7 130049006.531 7      2970.608 7        47.377                  
  23622558.239 8 124137378.906 8     -3778.470 8        48.855                  
  20537642.198 9 107926031.740 9     -1483.891 9        55.551                  
  21348571.036 8 112184671.133 8      -900.160 8        53.849                  
  21712231.920 8 114098537.939 8      1698.497 8        53.154                  
  23116719.256 8 121479183.027 8     -2830.028 8        51.133                  
  20412253.334 9 107267087.781 9       770.270 9        56.892                  
 02  5 18 00 04 18.0000000  0  7G32G16G27G10G21G23G08                           
  24746932.093 7 130046036.955 7      2969.055 7        47.445                  
  23623276.859 8 124141158.949 8     -3777.726 8        50.131                  
  20537924.386 9 107927515.336 9     -1484.616 9        56.338                  
  21348744.848 8 112185570.877 8      -899.542 8        52.541                  
  21711911.725 8 114096838.775 8      1699.087 8        52.924                  
  23117259.937 8 121482015.517 8     -2828.675 8        48.959                  
  20412106.111 9 107266318.154 9       770.334 9        57.081                  
 02  5 18 00 04 19.0000000  0  7G32G16G27G10G21G23G08                           
  24746370.095 8 130043067.405 8      2969.516 8        48.165                  
  23623995.998 8 124144939.137 8     -3778.373 8        50.120                  
  20538209.486 9 107928999.419 9     -1484.143 9        57.026                  
  21348916.658 9 112186471.169 9      -899.907 9        54.093                  
  21711588.242 8 114095139.948 8      1697.988 8        52.291                  
  23117797.384 8 121484848.376 8     -2833.679 8        48.845                  
  20411959.264 9 107265549.028 9       767.702 9        57.068                  
 02  5 18 00 04 20.0000000  0  7G32G16G27G10G21G23G08                           
  24745806.238 7 130040097.657 7      2967.278 7        47.413                  
  23624715.244 8 124148719.433 8     -3780.079 8        49.468                  
  20538494.372 9 107930483.874 9     -1485.337 9        55.605                  
  21349088.790 9 112187371.891 9      -900.611 9        56.173                  
  21711263.008 9 114093441.623 9      1698.245 9        54.505                  
  23118338.065 8 121487681.444 8     -2833.119 8        48.829                  
  20411812.094 9 107264780.485 9       767.971 9        56.262                  
 02  5 18 00 04 21.0000000  0  7G32G16G27G10G21G23G08                           
  24745237.538 7 130037126.379 7      2973.085 7        47.094                  
  23625435.169 8 124152499.486 8     -3779.771 8        49.250                  
  20538778.132 9 107931968.181 9     -1483.647 9        55.453                  
  21349258.778 9 112188272.385 9      -899.353 9        54.470                  
  21710937.327 9 114091744.668 9      1696.315 9        54.312                  
  23118877.155 8 121490514.108 8     -2833.269 8        49.081                  
  20411665.390 9 107264012.897 9       766.237 9        56.286                  
 02  5 18 00 04 22.0000000  0  7G32G16G27G10G21G23G08                           
  24744669.410 8 130034148.057 8      2983.131 8        48.599                  
  23626154.433 8 124156277.476 8     -3777.464 8        49.118                  
  20539060.945 9 107933450.312 9     -1480.362 9        56.371                  
  21349427.462 9 112189170.043 9      -896.259 9        54.584                  
  21710614.577 9 114090052.575 9      1689.749 9        55.043                  
  23119414.316 8 121493344.229 8     -2828.408 8        49.860                  
  20411518.703 9 107263247.727 9       763.923 9        56.075                  
 02  5 18 00 04 23.0000000  0  7G32G16G27G10G21G23G08                           
  24744103.230 7 130031163.787 7      2988.086 7        47.547                  
  23626872.160 8 124160053.456 8     -3774.386 8        51.130                  
  20539341.221 9 107934930.664 9     -1479.904 9        57.864                  
  21349597.861 9 112190065.604 9      -896.185 9        54.462                  
  21710294.597 8 114088364.487 8      1687.359 8        53.608                  
  23119955.086 8 121496172.612 8     -2825.078 8        49.607                  
  20411373.338 9 107262484.692 9       763.071 9        57.056                  
 02  5 18 00 04 24.0000000  0  7G32G16G27G10G21G23G08                           
  24743538.605 8 130028178.384 8      2984.122 8        48.273                  
  23627590.120 8 124163829.137 8     -3777.346 8        48.529                  
  20539619.799 9 107936411.054 9     -1479.960 9        56.344                  
  21349767.545 9 112190961.236 9      -896.084 9        55.387                  
  21709975.760 8 114086677.389 8      1686.376 8        53.284                  
  23120490.960 8 121499000.986 8     -2830.008 8        49.208                  
  20411227.402 9 107261722.456 9       762.461 9        55.250                  
 02  5 18 00 04 25.0000000  0  7G32G16G27G10G21G23G08                           
  24742970.441 8 130025192.883 8      2984.965 8        49.516                  
  23628309.473 8 124167604.890 8     -3776.914 8        49.066                  
  20539899.770 9 107937891.825 9     -1480.958 9        54.347                  
  21349940.696 9 112191857.356 9      -896.232 9        54.689                  
  21709656.941 8 114084990.706 8      1686.321 8        51.365                  
  23121030.909 8 121501829.654 8     -2827.620 8        49.242                  
  20411081.359 9 107260960.768 9       761.447 9        54.695                  
 02  5 18 00 04 26.0000000  0  7G32G16G27G10G21G23G08                           
  24742398.615 8 130022207.398 8      2985.528 8        49.740                  
  23629028.773 8 124171380.805 8     -3775.455 8        50.881                  
  20540180.743 9 107939373.083 9     -1482.284 9        55.557                  
  21350112.060 9 112192754.023 9      -896.733 9        56.529                  
  21709336.227 8 114083304.327 8      1685.813 8        52.034                  
  23121568.391 8 121504658.684 8     -2829.883 8        48.192                  
  20410935.672 9 107260199.568 9       761.577 9        55.220                  
 02  5 18 00 04 27.0000000  0  7G32G16G27G10G21G23G08                           
  24741830.380 7 130019222.034 7      2984.967 7        46.468                  
  23629747.125 8 124175156.906 8     -3778.210 8        50.505                  
  20540463.931 9 107940854.807 9     -1481.599 9        55.203                  
  21350283.763 9 112193651.277 9      -898.184 9        55.558                  
  21709013.227 8 114081618.229 8      1686.607 8        53.552                  
  23122106.284 7 121507488.069 7     -2831.380 7        47.977                  
  20410790.040 9 107259438.846 9       760.190 9        55.815                  
 02  5 18 00 04 28.0000000  0  7G32G16G27G10G21G23G08                           
  24741265.772 7 130016236.757 7      2984.883 7        45.639                  
  23630464.227 8 124178933.193 8     -3776.277 8        51.702                  
  20540749.121 9 107942337.031 9     -1482.744 9        55.085                  
  21350453.430 8 112194549.112 8      -897.389 8        51.890                  
  21708689.726 8 114079932.469 8      1685.499 8        53.287                  
  23122645.768 8 121510317.809 8     -2829.699 8        49.709                  
  20410644.818 9 107258678.613 9       759.758 9        56.653                  
 02  5 18 00 04 29.0000000  0  7G32G16G27G10G21G23G08                           
  24740699.342 7 130013251.581 7      2987.836 7        46.285                  
  23631183.920 8 124182709.649 8     -3777.837 8        48.121                  
  20541033.131 9 107943819.733 9     -1482.569 9        55.924                  
  21350622.560 8 112195447.534 8      -899.459 8        51.237                  
  21708367.816 9 114078246.956 9      1685.004 9        54.156                  
  23123182.393 8 121513147.920 8     -2830.472 8        51.020                  
  20410499.490 9 107257918.880 9       760.701 9        58.578                  
 02  5 18 00 04 30.0000000  0  7G32G16G27G10G21G23G08                           
  24740128.570 8 130010266.528 8      2984.838 8        50.288                  
  23631902.344 8 124186486.294 8     -3778.227 8        48.813                  
  20541316.373 9 107945302.911 9     -1483.370 9        56.784                  
  21350792.995 8 112196346.551 8      -899.818 8        53.012                  
  21708048.353 9 114076561.730 9      1685.251 9        55.021                  
  23123723.413 8 121515978.380 8     -2832.047 8        50.156                  
  20410353.928 9 107257159.613 9       758.328 9        59.094                  
 02  5 18 00 04 31.0000000  0  7G32G16G27G10G21G23G08                           
  24739555.332 7 130007281.550 7      2981.932 7        47.414                  
  23632621.894 8 124190263.105 8     -3776.992 8        49.285                  
  20541598.364 9 107946786.590 9     -1483.741 9        58.166                  
  21350963.859 8 112197246.116 8      -899.840 8        53.564                  
  21707730.356 8 114074876.774 8      1685.415 8        53.959                  
  23124260.985 8 121518809.208 8     -2831.777 8        50.819                  
  20410208.421 9 107256400.846 9       758.955 9        58.933                  
 02  5 18 00 04 32.0000000  0  7G32G16G27G10G21G23G08                           
  24738990.474 8 130004296.678 8      2985.743 8        48.699                  
  23633340.336 8 124194040.108 8     -3775.820 8        50.666                  
  20541877.889 9 107948270.733 9     -1484.646 9        56.843                  
  21351136.991 8 112198146.253 8      -900.532 8        51.869                  
  21707411.698 8 114073192.125 8      1684.414 8        52.797                  
  23124799.325 8 121521640.392 8     -2830.686 8        50.565                  
  20410063.325 9 107255642.556 9       758.082 9        58.620                  
 02  5 18 00 04 33.0000000  0  7G32G16G27G10G21G23G08                           
  24738424.759 7 130001311.893 7      2984.009 7        47.838                  
  23634058.099 8 124197817.282 8     -3778.030 8        50.609                  
  20542158.183 9 107949755.378 9     -1484.441 9        58.518                  
  21351309.696 8 112199046.999 8      -902.262 8        49.771                  
  21707091.664 9 114071507.732 9      1684.196 9        55.570                  
  23125339.398 8 121524471.920 8     -2833.286 8        50.490                  
  20409919.390 9 107254884.754 9       758.261 9        59.331                  
 02  5 18 00 04 34.0000000  0  7G32G16G27G10G21G23G08                           
  24737858.418 7 129998327.245 7      2985.322 7        46.153                  
  23634776.970 8 124201594.617 8     -3778.075 8        50.017                  
  20542439.405 9 107951240.522 9     -1484.235 9        58.105                  
  21351481.953 8 112199948.329 8      -901.663 8        50.042                  
  21706769.092 9 114069823.661 9      1683.457 9        54.174                  
  23125876.255 8 121527303.834 8     -2830.668 8        50.687                  
  20409776.545 9 107254127.466 9       756.489 9        57.942                  
 02  5 18 00 04 35.0000000  0  7G32G16G27G10G21G23G08                           
  24737287.681 8 129995342.693 8      2983.071 8        48.088                  
  23635497.038 8 124205372.155 8     -3775.736 8        49.670                  
  20542721.861 9 107952726.110 9     -1487.493 9        55.177                  
  21351652.691 8 112200850.241 8      -901.560 8        51.926                  
  21706445.949 8 114068139.855 8      1684.467 8        53.981                  
  23126417.365 8 121530136.102 8     -2831.793 8        51.378                  
  20409633.753 9 107253370.617 9       758.012 9        55.641                  
 02  5 18 00 04 36.0000000  0  7G32G16G27G10G21G23G08                           
  24736716.587 8 129992358.226 8      2986.651 8        49.730                  
  23636217.213 8 124209149.867 8     -3779.569 8        49.467                  
  20543007.104 9 107954212.196 9     -1485.060 9        55.524                  
  21351822.215 8 112201752.704 8      -902.835 8        52.487                  
  21706124.360 8 114066456.358 8      1683.477 8        53.496                  
  23126954.686 8 121532968.719 8     -2832.195 8        49.457                  
  20409491.909 9 107252614.269 9       756.449 9        55.632                  
 02  5 18 00 04 37.0000000  0  7G32G16G27G10G21G23G08                           
  24736150.568 8 129989373.880 8      2982.049 8        48.505                  
  23636934.189 8 124212927.772 8     -3777.984 8        49.149                  
  20543292.419 9 107955698.783 9     -1486.807 9        57.404                  
  21351993.311 9 112202655.762 9      -903.596 9        54.654                  
  21705804.433 9 114064773.123 9      1683.178 9        54.359                  
  23127494.492 8 121535801.704 8     -2830.825 8        51.475                  
  20409348.617 9 107251858.411 9       755.228 9        57.139                  
 02  5 18 00 04 38.0000000  0  7G32G16G27G10G21G23G08                           
  24735582.369 8 129986389.596 8      2979.669 8        48.360                  
  23637652.238 8 124216705.849 8     -3776.291 8        51.760                  
  20543577.019 9 107957185.872 9     -1487.550 9        56.821                  
  21352165.318 9 112203559.417 9      -904.525 9        55.158                  
  21705486.739 8 114063090.171 8      1684.517 8        53.046                  
  23128033.654 8 121538635.055 8     -2833.349 8        48.559                  
  20409205.951 9 107251103.067 9       755.284 9        57.475                  
 02  5 18 00 04 39.0000000  0  7G32G16G27G10G21G23G08                           
  24735017.869 7 129983405.442 7      2987.576 7        45.423                  
  23638371.538 8 124220484.093 8     -3775.513 8        50.081                  
  20543860.564 9 107958673.426 9     -1488.589 9        56.899                  
  21352339.648 9 112204463.630 9      -905.590 9        54.934                  
  21705169.118 8 114061407.512 8      1681.332 8        52.020                  
  23128572.065 8 121541468.773 8     -2833.937 8        49.305                  
  20409063.392 9 107250348.208 9       755.199 9        56.575                  
 02  5 18 00 04 40.0000000  0  7G32G16G27G10G21G23G08                           
  24734447.775 7 129980421.375 7      2980.919 7        46.203                  
  23639091.928 8 124224262.516 8     -3778.336 8        49.634                  
  20544143.324 9 107960161.444 9     -1488.623 9        57.864                  
  21352512.227 8 112205368.418 8      -904.770 8        53.977                  
  21704849.959 8 114059725.135 8      1682.221 8        53.412                  
  23129113.389 8 121544302.838 8     -2835.522 8        50.469                  
  20408920.869 9 107249593.804 9       754.288 9        57.144                  
 02  5 18 00 04 41.0000000  0  7G32G16G27G10G21G23G08                           
  24733876.163 8 129977437.387 8      2986.930 8        49.376                  
  23639810.798 8 124228041.100 8     -3775.161 8        50.300                  
  20544423.367 9 107961649.962 9     -1488.205 9        57.273                  
  21352685.825 9 112206273.811 9      -905.183 9        54.096                  
  21704528.459 8 114058043.042 8      1682.569 8        52.541                  
  23129651.283 8 121547137.259 8     -2835.464 8        49.688                  
  20408778.560 9 107248839.913 9       753.894 9        57.559                  
 02  5 18 00 04 42.0000000  0  7G32G16G27G10G21G23G08                           
  24733311.788 7 129974453.435 7      2984.962 7        47.038                  
  23640529.330 8 124231819.832 8     -3777.107 8        48.583                  
  20544704.769 9 107963138.933 9     -1489.837 9        56.939                  
  21352856.224 8 112207179.754 8      -904.958 8        53.482                  
  21704206.263 8 114056361.275 8      1681.813 8        53.552                  
  23130191.177 8 121549972.040 8     -2833.578 8        49.137                  
  20408637.162 9 107248086.511 9       752.856 9        58.485                  
 02  5 18 00 04 43.0000000  0  7G32G16G27G10G21G23G08                           
  24732747.859 7 129971469.086 7      2983.115 7        47.559                  
  23641247.879 8 124235598.565 8     -3775.059 8        49.166                  
  20544986.974 9 107964628.191 9     -1489.236 9        56.155                  
  21353026.891 9 112208086.055 9      -906.191 9        55.220                  
  21703884.317 8 114054680.102 8      1680.016 8        52.957                  
  23130731.590 8 121552807.017 8     -2835.667 8        49.305                  
  20408494.728 9 107247333.728 9       752.148 9        57.897                  
 02  5 18 00 04 44.0000000  0  7G32G16G27G10G21G23G08                           
  24732177.873 8 129968482.013 8      2985.918 8        48.856                  
  23641965.124 8 124239370.805 8     -3763.735 8        48.580                  
  20545270.145 9 107966116.960 9     -1488.203 9        54.987                  
  21353199.309 9 112208994.936 9      -913.886 9        55.736                  
  21703563.729 8 114052997.660 8      1684.885 8        53.074                  
  23131270.198 8 121555647.784 8     -2849.239 8        49.428                  
  20408351.722 9 107246581.971 9       751.103 9        55.395                  
 02  5 18 00 04 45.0000000  0  7G32G16G27G10G21G23G08                           
  24731605.100 7 129965488.501 7      2994.958 7        46.657                  
  23642679.688 8 124243121.501 8     -3739.959 8        49.554                  
  20545555.316 9 107967604.001 9     -1486.234 9        56.691                  
  21353374.640 8 112209912.570 8      -920.569 8        52.853                  
  21703243.319 8 114051308.362 8      1692.106 8        52.395                  
  23131816.490 8 121558508.583 8     -2866.408 8        50.942                  
  20408207.823 9 107245831.680 9       749.189 9        54.814                  
 02  5 18 00 04 46.0000000  0  7G32G16G27G10G21G23G08                           
  24731033.630 8 129962486.019 8      3008.728 8        48.169                  
  23643392.233 8 124246863.287 8     -3747.136 8        49.819                  
  20545840.238 9 107969088.165 9     -1481.720 9        56.347                  
  21353551.793 8 112210830.089 8      -912.330 8        52.427                  
  21702925.501 8 114049621.570 8      1680.885 8        52.970                  
  23132361.084 8 121561373.183 8     -2855.334 8        50.685                  
  20408064.496 9 107245084.060 9       745.620 9        55.695                  
 02  5 18 00 04 47.0000000  0  7G32G16G27G10G21G23G08                           
  24730460.803 8 129959470.340 8      3020.868 8        49.046                  
  23644105.261 8 124250614.613 8     -3754.462 8        50.063                  
  20546123.569 9 107970567.590 9     -1477.536 9        55.655                  
  21353724.390 9 112211734.139 9      -897.669 9        54.775                  
  21702608.683 8 114047951.411 8      1662.849 8        51.872                  
  23132901.193 8 121564217.378 8     -2837.160 8        49.879                  
  20407920.561 9 107244341.029 9       740.936 9        56.612                  
 02  5 18 00 04 48.0000000  0  7G32G16G27G10G21G23G08                           
  24729888.190 7 129956447.548 7      3019.349 7        47.751                  
  23644819.789 8 124254370.711 8     -3752.722 8        48.830                  
  20546405.131 9 107972044.666 9     -1477.662 9        57.827                  
  21353894.968 9 112212631.422 9      -898.402 9        54.310                  
  21702292.562 8 114046290.114 8      1660.546 8        53.419                  
  23133442.160 8 121567051.202 8     -2830.875 8        49.578                  
  20407779.217 9 107243600.690 9       739.688 9        57.370                  
 02  5 18 00 04 49.0000000  0  7G32G16G27G10G21G23G08                           
  24729312.397 7 129953424.125 7      3026.090 7        44.935                  
  23645535.587 7 124258126.514 7     -3757.488 7        47.462                  
  20546684.746 9 107973521.979 9     -1477.171 9        56.165                  
  21354063.241 8 112213529.080 8      -896.629 8        52.139                  
  21701974.994 8 114044629.425 8      1659.314 8        51.255                  
  23133979.732 8 121569885.400 8     -2833.709 8        50.304                  
  20407636.497 9 107242861.019 9       740.506 9        55.858                  
 02  5 18 00 04 50.0000000  0  7G32G16G27G10G21G23G08                           
  24728736.961 7 129950400.683 7      3022.958 7        47.522                  
  23646250.473 8 124261882.367 8     -3753.873 8        49.983                  
  20546962.663 9 107974999.698 9     -1477.383 9        55.911                  
  21354233.872 8 112214427.322 8      -898.282 8        52.604                  
  21701656.782 8 114042969.040 8      1660.241 8        53.722                  
  23134520.181 8 121572719.984 8     -2833.150 8        52.149                  
  20407494.474 9 107242121.826 9       738.759 9        58.077                  
 02  5 18 00 04 51.0000000  0  7G32G16G27G10G21G23G08                           
  24728159.344 7 129947377.306 7      3024.679 7        46.999                  
  23646963.840 8 124265638.377 8     -3753.541 8        49.140                  
  20547242.474 9 107976477.881 9     -1478.222 9        54.763                  
  21354404.271 8 112215326.136 8      -899.813 8        53.881                  
  21701338.660 8 114041308.965 8      1659.436 8        51.306                  
  23135058.646 8 121575554.923 8     -2836.494 8        51.309                  
  20407352.915 9 107241383.109 9       738.390 9        56.659                  
 02  5 18 00 04 52.0000000  0  7G32G16G27G10G21G23G08                           
  24727582.479 7 129944354.056 7      3021.213 7        47.967                  
  23647678.654 8 124269394.558 8     -3758.940 8        49.511                  
  20547522.964 9 107977956.541 9     -1478.822 9        55.189                  
  21354576.421 8 112216225.522 8      -899.572 8        53.198                  
  21701023.147 8 114039649.180 8      1660.115 8        52.285                  
  23135598.397 8 121578390.235 8     -2834.227 8        48.564                  
  20407210.106 9 107240644.895 9       737.226 9        57.584                  
 02  5 18 00 04 53.0000000  0  7G32G16G27G10G21G23G08                           
  24727008.150 7 129941330.893 7      3026.254 7        47.488                  
  23648394.112 8 124273150.902 8     -3756.746 8        50.379                  
  20547806.349 9 107979435.679 9     -1479.075 9        56.642                  
  21354749.429 9 112217125.482 9      -900.883 9        55.083                  
  21700708.080 8 114037989.654 8      1658.920 8        52.938                  
  23136139.453 8 121581225.926 8     -2834.354 8        49.802                  
  20407068.869 9 107239907.145 9       736.506 9        56.388                  
 02  5 18 00 04 54.0000000  0  7G32G16G27G10G21G23G08                           
  24726434.859 7 129938307.858 7      3017.173 7        47.355                  
  23649109.570 8 124276907.420 8     -3757.182 8        49.502                  
  20548090.788 9 107980915.269 9     -1479.477 9        56.329                  
  21354921.543 8 112218026.025 8      -901.194 8        53.370                  
  21700393.907 8 114036330.406 8      1658.263 8        51.004                  
  23136677.097 8 121584061.966 8     -2837.010 8        51.046                  
  20406930.313 9 107239169.893 9       737.038 9        55.800                  
 02  5 18 00 04 55.0000000  0  7G32G16G27G10G21G23G08                           
  24725860.691 8 129935284.898 8      3021.473 8        48.856                  
  23649824.527 8 124280664.129 8     -3757.142 8        49.724                  
  20548374.083 9 107982395.335 9     -1480.535 9        56.215                  
  21355093.193 8 112218927.186 8      -901.230 8        53.903                  
  21700080.073 9 114034671.466 9      1658.736 9        54.694                  
  23137218.832 8 121586898.365 8     -2836.315 8        50.815                  
  20406793.007 9 107238433.109 9       737.256 9        59.385                  
 02  5 18 00 04 56.0000000  0  7G32G16G27G10G21G23G08                           
  24725285.291 8 129932262.072 8      3023.096 8        49.323                  
  23650538.395 7 124284420.992 7     -3755.257 7        47.513                  
  20548656.700 9 107983875.867 9     -1480.826 9        55.356                  
  21355262.484 8 112219828.945 8      -900.800 8        53.490                  
  21699765.990 8 114033012.787 8      1660.136 8        52.680                  
  23137757.994 8 121589735.133 8     -2838.154 8        49.641                  
  20406654.201 9 107237696.791 9       735.350 9        58.105                  
 02  5 18 00 04 57.0000000  0  7G32G16G27G10G21G23G08                           
  24724707.692 8 129929239.343 8      3021.078 8        49.858                  
  23651253.388 8 124288178.029 8     -3755.012 8        48.579                  
  20548937.511 9 107985356.864 9     -1481.182 9        58.204                  
  21355433.330 8 112220731.253 8      -902.619 8        53.351                  
  21699450.816 8 114031354.430 8      1658.993 8        52.027                  
  23138297.156 8 121592572.265 8     -2834.838 8        49.585                  
  20406516.574 9 107236960.958 9       735.719 9        56.582                  
 02  5 18 00 04 58.0000000  0  7G32G16G27G10G21G23G08                           
  24724131.256 8 129926216.722 8      3020.740 8        48.077                  
  23651969.203 8 124291935.235 8     -3758.546 8        49.245                  
  20549216.107 9 107986838.361 9     -1481.775 9        56.700                  
  21355604.390 8 112221634.156 8      -903.931 8        53.547                  
  21699134.302 8 114029696.325 8      1658.429 8        53.972                  
  23138838.677 8 121595409.768 8     -2835.464 8        49.232                  
  20406377.856 9 107236225.592 9       735.371 9        57.200                  
 02  5 18 00 04 59.0000000  0  7G32G16G27G10G21G23G08                           
  24723556.230 8 129923194.227 8      3023.502 8        48.508                  
  23652684.071 8 124295692.649 8     -3753.994 8        48.196                  
  20549496.097 9 107988320.346 9     -1482.057 9        56.486                  
  21355777.916 8 112222537.643 8      -903.904 8        53.273                  
  21698817.073 8 114028038.505 8      1656.501 8        52.846                  
  23139376.820 8 121598247.607 8     -2840.268 8        49.601                  
  20406240.533 9 107235490.703 9       735.092 9        56.925                  
