     2.11           OBSERVATION DATA    G                   RINEX VERSION / TYPE
BLANK OR G = GPS,  R = GLONASS,  E = GALILEO,  M = MIXED    COMMENT             
GNSS-SDR            joel                17-APR-25 09:01     PGM / RUN BY / DATE 
GPS OBSERVATION DATA FILE GENERATED BY GNSS-SDR             COMMENT             
GNSS-SDR VERSION 0.0.16                                     COMMENT             
See https://gnss-sdr.org                                    COMMENT             
DEFAULT MARKER NAME                                         MARKER NAME         
joel                CTTC                                    OBSERVER / AGENCY   
GNSS-SDR            Software Receiver   0.0.16              REC # / TYPE / VERS 
Antenna number      Antenna type                            ANT # / TYPE        
        0.0000        0.0000        0.0000                  APPROX POSITION XYZ 
        0.0000        0.0000        0.0000                  ANTENNA: DELTA H/E/N
     1     1                                                WAVELENGTH FACT L1/2
     4    C1    L1    D1    S1                              # / TYPES OF OBSERV 
  2002    05    18    00    00   42.3800000     GPS         TIME OF FIRST OBS   
    18                                                      LEAP SECONDS        
                                                            END OF HEADER       
 02  5 18 00 00 43.0000000  0  7G01G10G16G23G21G07G08                           
  23763590.557 7 124878517.381 7      3399.697 7        46.684                  
  21313658.681 9 112004046.667 9      -798.335 9        54.379                  
  23471245.193 8 123342227.695 8     -3662.975 8        49.407                  
  23001127.174 8 120871747.352 8     -2818.484 8        49.977                  
  21783585.520 8 114473516.344 8      1786.635 8        53.260                  
  24961618.612 7 131174197.514 7     -1906.857 7        45.636                  
  20445704.806 9 107442934.360 9       868.249 9        55.798                  
 02  5 18 00 00 44.0000000  0  7G01G10G16G23G21G07G08                           
  23762945.592 7 124875120.259 7      3394.655 7        46.770                  
  21313811.211 8 112004845.024 8      -799.526 8        53.913                  
  23471943.854 8 123345891.470 8     -3663.427 8        50.485                  
  23001664.817 8 120874566.620 8     -2818.305 8        50.205                  
  21783249.386 9 114471729.133 9      1786.414 9        54.225                  
  24961982.050 7 131176102.041 7     -1909.815 7        46.106                  
  20445541.823 9 107442066.516 9       867.789 9        56.825                  
 02  5 18 00 00 45.0000000  0  7G01G10G16G23G21G07G08                           
  23762299.002 7 124871723.311 7      3394.044 7        47.507                  
  21313963.044 9 112005644.022 9      -798.032 9        54.605                  
  23472640.764 8 123349555.442 8     -3662.071 8        50.281                  
  23002198.993 8 120877386.250 8     -2818.296 8        51.033                  
  21782906.712 8 114469942.232 8      1786.910 8        53.223                  
  24962342.700 7 131178006.923 7     -1904.901 7        46.791                  
  20445380.198 9 107441199.149 9       867.251 9        57.368                  
 02  5 18 00 00 46.0000000  0  7G01G10G16G23G21G07G08                           
  23761651.178 8 124868326.515 8      3395.472 8        48.416                  
  21314115.253 9 112006443.619 9      -799.382 9        54.143                  
  23473337.638 8 123353219.599 8     -3665.615 8        49.298                  
  23002736.529 8 120880206.292 8     -2822.641 8        50.575                  
  21782563.555 8 114468155.641 8      1786.830 8        53.634                  
  24962709.069 7 131179912.164 7     -1905.456 7        45.006                  
  20445215.695 9 107440332.259 9       866.659 9        56.301                  
 02  5 18 00 00 47.0000000  0  7G01G10G16G23G21G07G08                           
  23761005.713 7 124864929.872 7      3392.840 7        47.628                  
  21314268.462 8 112007243.812 8      -801.048 8        53.803                  
  23474035.637 8 123356883.951 8     -3665.559 8        50.483                  
  23003272.582 8 120883026.723 8     -2822.779 8        49.774                  
  21782227.278 8 114466369.352 8      1785.612 8        52.245                  
  24963068.451 7 131181817.745 7     -1907.410 7        45.937                  
  20445048.388 9 107439465.823 9       865.979 9        55.630                  
 02  5 18 00 00 48.0000000  0  7G01G10G16G23G21G07G08                           
  23760360.052 7 124861533.391 7      3396.519 7        47.347                  
  21314420.241 9 112008044.612 9      -801.060 9        56.881                  
  23474732.958 8 123360548.505 8     -3664.552 8        50.440                  
  23003811.941 8 120885847.546 8     -2822.509 8        50.774                  
  21781887.784 8 114464583.358 8      1785.159 8        52.282                  
  24963433.193 7 131183723.683 7     -1905.886 7        46.243                  
  20444880.991 9 107438599.862 9       864.952 9        57.923                  
 02  5 18 00 00 49.0000000  0  7G01G10G16G23G21G07G08                           
  23759712.085 8 124858137.070 8      3396.602 8        49.104                  
  21314573.540 9 112008846.055 9      -802.225 9        57.280                  
  23475429.671 8 123364213.251 8     -3667.136 8        50.711                  
  23004345.849 8 120888668.780 8     -2821.149 8        49.430                  
  21781545.575 8 114462797.662 8      1785.501 8        53.588                  
  24963795.113 7 131185629.983 7     -1907.315 7        46.816                  
  20444713.272 9 107437734.377 9       865.610 9        57.234                  
 02  5 18 00 00 50.0000000  0  7G01G10G16G23G21G07G08                           
  23759066.317 7 124854740.906 7      3396.990 7        47.098                  
  21314726.105 9 112009648.095 9      -801.908 9        56.271                  
  23476128.386 8 123367878.173 8     -3665.728 8        48.834                  
  23004883.850 8 120891490.407 8     -2822.126 8        49.600                  
  21781204.937 8 114461012.265 8      1787.111 8        53.307                  
  24964157.050 7 131187536.626 7     -1905.312 7        47.781                  
  20444545.267 9 107436869.361 9       864.884 9        58.653                  
 02  5 18 00 00 51.0000000  0  7G01G10G16G23G21G07G08                           
  23758421.549 7 124851344.921 7      3393.902 7        47.529                  
  21314878.993 9 112010450.732 9      -802.743 9        54.762                  
  23476824.849 8 123371543.307 8     -3665.765 8        50.493                  
  23005422.261 8 120894312.419 8     -2821.813 8        49.856                  
  21780869.393 8 114459227.167 8      1783.597 8        53.158                  
  24964522.900 7 131189443.629 7     -1906.597 7        47.332                  
  20444381.391 9 107436004.807 9       863.709 9        54.628                  
 02  5 18 00 00 52.0000000  0  7G01G10G16G23G21G07G08                           
  23757774.333 8 124847949.075 8      3397.190 8        48.306                  
  21315031.952 9 112011253.989 9      -804.183 9        54.027                  
  23477522.170 8 123375208.640 8     -3666.344 8        49.674                  
  23005957.188 8 120897134.815 8     -2822.242 8        51.387                  
  21780530.221 8 114457442.364 8      1784.978 8        51.519                  
  24964882.460 7 131191350.991 7     -1911.302 7        46.038                  
  20444219.229 9 107435140.730 9       864.521 9        56.364                  
 02  5 18 00 00 53.0000000  0  7G01G10G16G23G21G07G08                           
  23757127.170 7 124844553.402 7      3393.063 7        47.986                  
  21315184.857 9 112012057.876 9      -805.068 9        55.026                  
  23478220.813 8 123378874.143 8     -3662.367 8        49.495                  
  23006496.976 8 120899957.603 8     -2823.620 8        49.659                  
  21780186.135 8 114455657.858 8      1784.930 8        51.847                  
  24965249.365 7 131193258.699 7     -1908.641 7        46.797                  
  20444056.979 9 107434277.131 9       863.371 9        57.121                  
 02  5 18 00 00 54.0000000  0  7G01G10G16G23G21G07G08                           
  23756482.528 7 124841157.887 7      3394.707 7        46.979                  
  21315338.173 9 112012862.360 9      -805.104 9        54.015                  
  23478916.865 8 123382539.856 8     -3666.087 8        50.114                  
  23007032.225 8 120902780.776 8     -2824.017 8        50.438                  
  21779846.981 8 114453873.667 8      1783.999 8        53.865                  
  24965609.086 7 131195166.759 7     -1906.379 7        46.834                  
  20443895.210 9 107433414.008 9       863.128 9        54.943                  
 02  5 18 00 00 55.0000000  0  7G01G10G16G23G21G07G08                           
  23755836.723 8 124837762.521 8      3394.966 8        48.818                  
  21315491.203 9 112013667.441 9      -805.396 9        54.167                  
  23479614.686 8 123386205.755 8     -3667.157 8        49.607                  
  23007570.725 8 120905604.340 8     -2822.361 8        49.871                  
  21779511.615 8 114452089.796 8      1782.427 8        53.359                  
  24965973.632 7 131197075.174 7     -1908.911 7        47.058                  
  20443734.175 9 107432551.338 9       862.160 9        56.865                  
 02  5 18 00 00 56.0000000  0  7G01G10G16G23G21G07G08                           
  23755189.239 7 124834367.326 7      3392.404 7        46.773                  
  21315644.805 9 112014473.138 9      -806.164 9        54.591                  
  23480314.079 7 123389871.845 7     -3668.048 7        47.430                  
  23008107.922 8 120908428.322 8     -2824.768 8        51.899                  
  21779171.568 9 114450306.209 9      1782.481 9        54.234                  
  24966337.553 7 131198983.942 7     -1904.849 7        46.369                  
  20443571.674 9 107431689.145 9       861.569 9        56.022                  
 02  5 18 00 00 57.0000000  0  7G01G10G16G23G21G07G08                           
  23754544.650 8 124830972.292 8      3395.844 8        48.708                  
  21315798.336 9 112015279.470 9      -806.509 9        55.377                  
  23481009.506 7 123393538.124 7     -3663.732 7        47.422                  
  23008644.403 8 120911252.685 8     -2824.401 8        50.931                  
  21778828.089 8 114448522.933 8      1784.772 8        51.743                  
  24966698.364 7 131200893.067 7     -1912.639 7        45.963                  
  20443405.295 9 107430827.429 9       861.552 9        58.265                  
 02  5 18 00 00 58.0000000  0  7G01G10G16G23G21G07G08                           
  23753898.202 8 124827577.410 8      3397.125 8        48.502                  
  21315952.081 9 112016086.397 9      -806.610 9        55.501                  
  23481707.827 7 123397204.601 7     -3665.607 7        47.740                  
  23009182.940 8 120914077.446 8     -2825.136 8        50.078                  
  21778490.329 8 114446739.946 8      1783.061 8        51.993                  
  24967065.037 7 131202802.535 7     -1911.459 7        45.918                  
  20443239.113 9 107429966.189 9       861.865 9        56.998                  
 02  5 18 00 00 59.0000000  0  7G01G10G16G23G21G07G08                           
  23753251.093 8 124824182.701 8      3395.361 8        49.099                  
  21316105.969 9 112016893.921 9      -807.615 9        56.591                  
  23482406.274 8 123400871.275 8     -3666.557 8        48.523                  
  23009718.796 8 120916902.586 8     -2824.324 8        49.960                  
  21778154.999 8 114444957.266 8      1782.946 8        50.761                  
  24967425.347 7 131204712.368 7     -1910.911 7        44.695                  
  20443072.681 9 107429105.403 9       860.777 9        55.320                  
 02  5 18 00 01  0.0000000  0  7G01G10G16G23G21G07G08                           
  23752605.861 8 124820788.142 8      3397.690 8        49.838                  
  21316259.643 9 112017702.078 9      -807.976 9        57.439                  
  23483102.773 8 123404538.131 8     -3670.426 8        48.698                  
  23010258.709 8 120919728.103 8     -2826.592 8        51.588                  
  21777813.522 8 114443174.873 8      1780.438 8        52.409                  
  24967791.180 7 131206622.536 7     -1908.942 7        46.980                  
  20442905.695 9 107428245.093 9       859.895 9        57.006                  
 02  5 18 00 01  1.0000000  0  7G01G10G16G23G21G07G08                           
  23751959.914 8 124817393.741 8      3396.173 8        50.107                  
  21316414.138 9 112018510.852 9      -808.688 9        55.333                  
  23483801.166 8 123408205.186 8     -3665.099 8        49.379                  
  23010795.155 8 120922554.020 8     -2823.882 8        49.271                  
  21777470.294 8 114441392.790 8      1782.212 8        53.964                  
  24968153.278 7 131208533.075 7     -1912.306 7        47.399                  
  20442740.425 9 107427385.259 9       859.802 9        56.642                  
 02  5 18 00 01  2.0000000  0  7G01G10G16G23G21G07G08                           
  23751313.180 8 124813999.510 8      3395.810 8        49.065                  
  21316567.401 9 112019320.225 9      -810.839 9        54.343                  
  23484499.755 8 123411872.434 8     -3666.529 8        49.124                  
  23011333.263 8 120925380.329 8     -2824.887 8        50.198                  
  21777134.678 8 114439610.991 8      1782.071 8        50.745                  
  24968517.806 7 131210443.945 7     -1912.135 7        45.638                  
  20442578.621 9 107426525.904 9       858.932 9        57.193                  
 02  5 18 00 01  3.0000000  0  7G01G10G16G23G21G07G08                           
  23750667.947 8 124810605.432 8      3396.393 8        48.962                  
  21316721.039 9 112020130.192 9      -810.330 9        55.031                  
  23485196.004 8 123415539.857 8     -3666.904 8        51.016                  
  23011872.067 8 120928207.043 8     -2826.689 8        50.885                  
  21776798.651 8 114437829.515 8      1781.649 8        51.974                  
  24968882.030 7 131212355.184 7     -1910.559 7        44.745                  
  20442416.942 9 107425667.000 9       858.104 9        55.570                  
 02  5 18 00 01  4.0000000  0  7G01G10G16G23G21G07G08                           
  23750023.180 8 124807211.508 8      3390.089 8        49.268                  
  21316875.088 9 112020940.780 9      -810.880 9        54.672                  
  23485895.344 8 123419207.501 8     -3668.043 8        52.161                  
  23012407.602 8 120931034.149 8     -2826.597 8        53.063                  
  21776456.387 9 114436048.350 9      1780.676 9        54.058                  
  24969242.842 7 131214266.774 7     -1910.282 7        45.143                  
  20442255.888 9 107424808.575 9       858.148 9        56.759                  
 02  5 18 00 01  5.0000000  0  7G01G10G16G23G21G07G08                           
  23749375.803 8 124803817.766 8      3389.048 8        48.141                  
  21317028.833 9 112021751.999 9      -812.004 9        56.107                  
  23486593.451 8 123422875.316 8     -3666.010 8        49.209                  
  23012947.782 8 120933861.640 8     -2827.707 8        51.187                  
  21776115.411 8 114434267.482 8      1779.851 8        53.746                  
  24969609.996 7 131216178.713 7     -1912.792 7        45.786                  
  20442094.638 9 107423950.625 9       858.151 9        56.302                  
 02  5 18 00 01  6.0000000  0  7G01G10G16G23G21G07G08                           
  23748729.552 8 124800424.169 8      3392.092 8        48.428                  
  21317182.703 9 112022563.814 9      -812.130 9        56.325                  
  23487290.468 8 123426543.329 8     -3664.423 8        48.789                  
  23013485.032 8 120936689.498 8     -2827.004 8        48.881                  
  21775779.938 8 114432486.913 8      1779.896 8        52.030                  
  24969970.879 7 131218090.992 7     -1910.493 7        46.429                  
  20441934.710 9 107423093.154 9       857.033 9        57.027                  
 02  5 18 00 01  7.0000000  0  7G01G10G16G23G21G07G08                           
  23748085.463 8 124797030.723 8      3392.591 8        49.176                  
  21317336.662 9 112023376.226 9      -813.275 9        54.949                  
  23487989.665 8 123430211.541 8     -3668.267 8        50.152                  
  23014023.247 8 120939517.762 8     -2827.343 8        48.924                  
  21775443.035 8 114430706.640 8      1779.828 8        52.923                  
  24970337.462 7 131220003.640 7     -1914.433 7        46.143                  
  20441772.817 9 107422236.146 9       856.573 9        57.069                  
 02  5 18 00 01  8.0000000  0  7G01G10G16G23G21G07G08                           
  23747438.568 8 124793637.467 8      3393.927 8        48.889                  
  21317491.408 9 112024189.271 9      -813.296 9        57.849                  
  23488687.432 8 123433879.933 8     -3666.718 8        50.796                  
  23014562.427 8 120942346.417 8     -2828.543 8        49.933                  
  21775100.897 8 114428926.669 8      1778.965 8        52.584                  
  24970700.025 8 131221916.639 8     -1914.162 8        48.191                  
  20441607.314 9 107421379.601 9       857.239 9        58.693                  
 02  5 18 00 01  9.0000000  0  7G01G10G16G23G21G07G08                           
  23746792.514 8 124790244.353 8      3391.219 8        48.030                  
  21317645.475 9 112025002.930 9      -813.810 9        55.603                  
  23489384.395 8 123437548.528 8     -3667.209 8        48.441                  
  23015099.338 8 120945175.476 8     -2829.958 8        50.448                  
  21774760.474 8 114427146.990 8      1780.313 8        53.912                  
  24971064.428 8 131223829.982 8     -1912.736 8        48.042                  
  20441442.580 9 107420523.537 9       855.923 9        57.489                  
 02  5 18 00 01 10.0000000  0  7G01G10G16G23G21G07G08                           
  23746148.764 8 124786851.394 8      3397.264 8        49.662                  
  21317800.578 9 112025817.190 9      -814.379 9        54.983                  
  23490083.825 8 123441217.312 8     -3669.607 8        49.563                  
  23015639.429 8 120948004.930 8     -2828.590 8        50.119                  
  21774425.126 8 114425367.613 8      1779.872 8        53.374                  
  24971429.760 8 131225743.682 8     -1914.151 8        48.423                  
  20441277.524 9 107419667.949 9       855.830 9        56.888                  
 02  5 18 00 01 11.0000000  0  7G01G10G16G23G21G07G08                           
  23745502.317 7 124783458.614 7      3393.349 7        47.540                  
  21317955.342 9 112026632.045 9      -815.053 9        56.145                  
  23490781.896 8 123444886.279 8     -3669.682 8        50.921                  
  23016176.500 8 120950834.753 8     -2827.748 8        50.589                  
  21774088.474 8 114423588.533 8      1779.056 8        51.790                  
  24971791.822 8 131227657.729 8     -1913.671 8        48.143                  
  20441111.842 9 107418812.837 9       854.972 9        57.306                  
 02  5 18 00 01 12.0000000  0  7G01G10G16G23G21G07G08                           
  23744855.887 8 124780065.977 8      3389.537 8        49.999                  
  21318109.748 9 112027447.519 9      -816.640 9        57.106                  
  23491479.449 8 123448555.446 8     -3669.313 8        51.404                  
  23016715.734 8 120953664.963 8     -2829.950 8        50.663                  
  21773745.228 8 114421809.764 8      1779.356 8        53.134                  
  24972158.744 7 131229572.130 7     -1918.456 7        47.873                  
  20440946.553 9 107417958.178 9       854.478 9        57.351                  
 02  5 18 00 01 13.0000000  0  7G01G10G16G23G21G07G08                           
  23744211.298 8 124776673.505 8      3391.712 8        48.966                  
  21318266.030 9 112028263.629 9      -816.409 9        56.968                  
  23492178.503 8 123452224.792 8     -3669.396 8        50.376                  
  23017255.253 8 120956495.562 8     -2828.607 8        50.185                  
  21773406.360 8 114420031.306 8      1778.242 8        52.767                  
  24972519.055 7 131231486.871 7     -1913.301 7        46.490                  
  20440784.410 9 107417103.995 9       854.123 9        56.041                  
 02  5 18 00 01 14.0000000  0  7G01G10G16G23G21G07G08                           
  23743565.815 8 124773281.202 8      3392.188 8        48.569                  
  21318421.151 9 112029080.330 9      -816.834 9        54.917                  
  23492876.288 8 123455894.338 8     -3670.833 8        49.974                  
  23017792.396 8 120959326.566 8     -2830.582 8        50.848                  
  21773072.709 8 114418253.155 8      1778.607 8        51.988                  
  24972887.390 7 131233401.973 7     -1915.978 7        46.568                  
  20440624.053 9 107416250.288 9       854.178 9        54.650                  
 02  5 18 00 01 15.0000000  0  7G01G10G16G23G21G07G08                           
  23742918.849 8 124769889.055 8      3390.615 8        48.704                  
  21318576.308 9 112029897.630 9      -817.226 9        55.308                  
  23493573.967 8 123459564.080 8     -3669.917 8        49.045                  
  23018333.863 8 120962157.968 8     -2830.897 8        50.296                  
  21772733.484 8 114416475.292 8      1778.189 8        52.842                  
  24973249.648 7 131235317.428 7     -1916.106 7        46.907                  
  20440463.804 9 107415397.060 9       853.195 9        55.708                  
 02  5 18 00 01 16.0000000  0  7G01G10G16G23G21G07G08                           
  23742273.795 8 124766497.061 8      3395.033 8        48.236                  
  21318731.358 9 112030715.537 9      -818.503 9        55.979                  
  23494273.932 8 123463233.996 8     -3672.086 8        49.589                  
  23018869.988 8 120964989.752 8     -2831.742 8        50.732                  
  21772392.310 8 114414697.739 8      1778.254 8        52.834                  
  24973615.838 7 131237233.229 7     -1915.939 7        46.185                  
  20440303.823 9 107414544.308 9       853.054 9        56.602                  
 02  5 18 00 01 17.0000000  0  7G01G10G16G23G21G07G08                           
  23741629.742 7 124763105.249 7      3388.895 7        46.925                  
  21318887.979 9 112031534.086 9      -819.216 9        56.124                  
  23494971.199 8 123466904.115 8     -3670.897 8        50.234                  
  23019409.257 8 120967821.905 8     -2834.099 8        50.227                  
  21772053.782 9 114412920.472 9      1777.477 9        54.416                  
  24973980.724 8 131239149.390 8     -1916.849 8        48.114                  
  20440143.252 9 107413692.011 9       852.010 9        57.662                  
 02  5 18 00 01 18.0000000  0  7G01G10G16G23G21G07G08                           
  23740983.938 7 124759713.579 7      3392.964 7        47.716                  
  21319043.762 9 112032353.234 9      -820.193 9        55.372                  
  23495669.431 8 123470574.416 8     -3672.516 8        49.395                  
  23019949.169 8 120970654.452 8     -2830.600 8        49.602                  
  21771719.292 8 114411143.520 8      1775.583 8        53.196                  
  24974342.553 7 131241065.889 7     -1914.788 7        47.701                  
  20439983.771 9 107412840.189 9       850.983 9        57.425                  
 02  5 18 00 01 19.0000000  0  7G01G10G16G23G21G07G08                           
  23740337.043 7 124756322.076 7      3392.726 7        47.748                  
  21319200.973 9 112033172.975 9      -819.749 9        54.667                  
  23496368.485 8 123474244.912 8     -3669.740 8        50.748                  
  23020485.776 8 120973487.406 8     -2832.120 8        50.263                  
  21771381.442 8 114409366.842 8      1774.968 8        52.675                  
  24974711.120 8 131242982.739 8     -1916.069 8        48.139                  
  20439822.199 9 107411988.844 9       850.792 9        56.585                  
 02  5 18 00 01 20.0000000  0  7G01G10G16G23G21G07G08                           
  23739693.741 7 124752931.000 7      3389.538 7        47.300                  
  21319357.971 8 112033993.152 8      -819.463 8        53.409                  
  23497066.682 8 123477915.470 8     -3671.960 8        50.064                  
  23021027.333 8 120976320.631 8     -2831.815 8        50.786                  
  21771039.572 8 114407590.704 8      1774.778 8        50.988                  
  24975072.396 7 131244900.297 7     -1918.463 7        47.201                  
  20439658.572 9 107411138.080 9       849.393 9        56.528                  
 02  5 18 00 01 21.0000000  0  7G01G10G16G23G21G07G08                           
  23739049.509 7 124749551.251 7      3371.254 7        46.136                  
  21319513.628 9 112034807.284 9      -808.456 9        55.028                  
  23497763.663 8 123481580.727 8     -3662.705 8        51.027                  
  23021565.083 8 120979149.133 8     -2823.891 8        51.699                  
  21770703.545 8 114405824.035 8      1759.829 8        51.129                  
  24975442.999 7 131246833.009 7     -1945.851 7        43.588                  
  20439496.071 9 107410292.184 9       841.590 9        57.190                  
 02  5 18 00 01 22.0000000  0  7G01G10G16G23G21G07G08                           
  23738409.315 6 124746190.733 6      3349.211 6        39.982                  
  21319666.426 8 112035610.814 8      -796.866 8        51.668                  
  23498461.698 8 123485236.990 8     -3651.692 8        50.790                  
  23022102.262 8 120981969.494 8     -2816.253 8        53.455                  
  21770375.613 7 114404073.298 7      1746.433 7        46.624                  
  24975813.317 7 131248791.028 7     -1970.463 7        44.907                  
  20439334.410 9 107409454.083 9       834.152 9        59.119                  
 02  5 18 00 01 23.0000000  0  7G01G10G16G23G21G07G08                           
  23737774.214 8 124742848.754 8      3334.429 8        49.971                  
  21319817.669 7 112036403.500 7      -787.562 7        47.583                  
  23499150.102 7 123488884.109 7     -3642.065 7        43.840                  
  23022637.510 7 120984781.677 7     -2810.828 7        46.446                  
  21770044.357 8 114402338.024 8      1728.451 8        51.904                  
  24976193.195 8 131250773.733 8     -1995.480 8        50.261                  
  20439175.447 9 107408623.808 9       827.695 9        56.910                  
 02  5 18 00 01 24.0000000  0  7G01G10G16G23G21G07G08                           
  23737141.312 8 124739520.649 8      3328.919 8        52.943                  
  21319966.947 8 112037188.883 8      -785.868 8        53.746                  
  23499847.084 7 123492524.827 7     -3642.275 7        42.637                  
  23023171.365 6 120987587.782 6     -2806.919 6        41.680                  
  21769713.798 9 114400614.233 9      1723.236 9        58.569                  
  24976571.946 7 131252774.965 7     -2006.841 7        45.675                  
  20439019.201 8 107407799.407 8       826.144 8        49.270                  
 02  5 18 00 01 25.0000000  0  7G01G10G16G23G21G07G08                           
  23736507.801 8 124736193.737 8      3326.309 8        49.803                  
  21320116.493 9 112037974.296 9      -786.610 9        57.192                  
  23500542.135 8 123496165.370 8     -3639.926 8        48.879                  
  23023704.613 8 120990393.950 8     -2805.575 8        48.109                  
  21769383.185 9 114398891.540 9      1722.572 9        59.177                  
  24976965.172 6 131254778.020 6     -2003.995 6        39.118                  
  20438859.362 7 107406975.810 7       821.080 7        47.507                  
 02  5 18 00 01 26.0000000  0  7G01G10G16G23G21G07G08                           
  23735874.612 7 124732867.680 7      3328.168 7        47.083                  
  21320265.913 9 112038759.996 9      -786.601 9        55.423                  
  23501230.968 8 123499807.077 8     -3642.280 8        48.056                  
  23024237.717 8 120993199.699 8     -2806.463 8        48.897                  
  21769056.128 8 114397169.436 8      1723.420 8        53.073                  
  24977333.435 7 131256781.117 7     -2001.779 7        46.204                  
  20438700.239 8 107406152.529 8       824.636 8        48.689                  
 02  5 18 00 01 27.0000000  0  7G01G10G16G23G21G07G08                           
  23735240.816 7 124729533.119 7      3345.564 7        44.376                  
  21320416.263 8 112039551.667 8      -797.872 8        51.393                  
  23501927.109 7 123503456.754 7     -3652.436 7        44.481                  
  23024776.968 7 120996007.928 7     -2807.304 7        43.957                  
  21768730.930 8 114395440.344 8      1738.289 8        48.532                  
  24977714.670 7 131258771.662 7     -1976.456 7        47.557                  
  20438542.848 7 107405325.658 7       826.677 7        45.707                  
 02  5 18 00 01 28.0000000  0  7G01G10G16G23G21G07G08                           
  23734600.569 6 124726183.116 6      3361.740 6        39.226                  
  21320569.383 7 112040353.190 7      -809.344 7        45.332                  
  23502623.840 6 123507121.189 6     -3662.504 6        38.927                  
  23025305.463 6 120998820.610 6     -2820.779 6        38.927                  
  21768400.764 7 114393697.652 7      1747.782 7        44.606                  
  24978084.934 7 131260738.740 7     -1953.867 7        44.866                  
  20438385.708 7 107404491.302 7       837.726 7        45.832                  
 02  5 18 00 01 29.0000000  0  7G01G10G16G23G21G07G08                           
  23733962.359 6 124722818.152 6      3367.000 6        36.667                  
  21320723.825 6 112041163.101 6      -804.741 6        41.792                  
  23503322.448 6 123510797.265 6     -3688.743 6        36.515                  
  23025843.249 6 121001637.185 6     -2822.881 6        36.416                  
  21768063.593 6 114391944.133 6      1756.516 6        41.031                  
  24978459.952 6 131262686.142 6     -1952.584 6        41.681                  
  20438226.638 7 107403651.480 7       841.288 7        46.452                  
 02  5 18 00 01 30.0000000  0  7G01G10G16G23G21G07G08                           
  23733326.418 5 124719469.907 5      3333.940 5        34.813                  
  21320875.462 6 112041965.425 6      -789.899 6        36.647                  
  23504025.040 5 123514487.924 5     -3693.001 5        34.814                  
  23026377.890 5 121004437.271 5     -2787.390 5        35.049                  
  21767729.264 6 114390200.162 6      1743.561 6        36.129                  
  24978828.018 6 131264641.791 6     -1960.564 6        36.472                  
  20438068.211 9 107402812.504 9       838.021 9        57.358                  
 02  5 18 00 01 31.0000000  0  7G01G10G16G23G21G07G08                           
  23732690.084 5 124716144.417 5      3316.346 5        34.801                  
  21321026.258 5 112042755.130 5      -792.176 5        34.982                  
  23504733.565 5 123518195.519 5     -3716.893 5        35.027                  
  23026906.188 5 121007214.276 5     -2763.273 5        34.871                  
  21767402.761 5 114388471.738 5      1704.146 5        34.799                  
  24979201.999 5 131266614.507 5     -1978.200 5        34.496                  
  20437910.732 9 107401976.404 9       834.941 9        54.057                  
 02  5 18 00 01 32.0000000  0  7G01G10G16G23G21G07G08                           
  23732062.185 5 124712830.569 5      3315.811 5        34.904                  
  21321175.643 5 112043538.676 5      -775.280 5        34.928                  
  23505435.513 5 123521905.231 5     -3704.739 5        35.166                  
  23027438.488 5 121009982.853 5     -2784.253 5        35.393                  
  21767081.798 5 114386752.133 5      1724.321 5        34.898                  
  24979580.679 5 131268598.843 5     -1977.085 5        34.339                  
  20437753.967 8 107401143.891 8       832.837 8        50.141                  
 02  5 18 00 01 33.0000000  0  7G01G10G16G23G21G07G08                           
  23731425.494 5 124709501.886 5      3329.299 5        35.332                  
  21321326.386 5 112044331.511 5      -796.998 5        35.580                  
  23506135.908 5 123525600.256 5     -3684.342 5        35.458                  
  23027967.250 5 121012769.132 5     -2793.498 5        35.497                  
  21766747.093 5 114385023.117 5      1741.020 5        35.428                  
  24979959.127 5 131270574.906 5     -1964.814 5        35.405                  
  20437596.094 8 107400310.886 8       833.036 8        53.563                  
 02  5 18 00 01 34.0000000  0  6G10G16G23G21G07G08                              
  21321482.204 6 112045134.279 6      -803.495 6        37.615                  
  23506837.499 5 123529282.382 5     -3674.751 5        35.471                  
  23028506.752 5 121015573.065 5     -2792.633 5        35.971                  
  21766414.747 6 114383283.781 6      1735.204 6        37.356                  
  24980330.463 6 131272540.380 6     -1966.384 6        38.954                  
  20437439.633 9 107399476.784 9       831.686 9        54.389                  
 02  5 18 00 01 35.0000000  0  6G10G16G23G21G07G08                              
  21321631.464 6 112045934.820 6      -802.646 6        38.380                  
  23507535.284 6 123532956.660 6     -3671.380 6        36.174                  
  23029033.102 6 121018378.189 6     -2803.579 6        36.432                  
  21766080.453 6 114381549.114 6      1739.474 6        37.866                  
  24980709.447 6 131274515.246 6     -1971.261 6        37.609                  
  20437283.815 8 107398646.448 8       830.863 8        52.286                  
 02  5 18 00 01 36.0000000  0  6G10G16G23G21G07G08                              
  21321785.495 7 112046737.860 7      -801.543 7        42.126                  
  23508231.479 6 123536622.833 6     -3656.791 6        38.396                  
  23029569.619 6 121021189.659 6     -2817.621 6        38.570                  
  21765752.718 6 114379813.390 6      1740.489 6        40.425                  
  24981079.479 6 131276491.048 6     -1971.574 6        40.431                  
  20437128.944 8 107397817.278 8       827.308 8        50.966                  
 02  5 18 00 01 37.0000000  0  6G10G16G23G21G07G08                              
  21321950.480 8 112047544.708 8      -806.901 8        48.408                  
  23508910.556 7 123540281.277 7     -3655.750 7        44.312                  
  23030099.632 7 121024009.171 7     -2816.804 7        43.863                  
  21765414.654 7 114378074.415 7      1738.491 7        46.500                  
  24981465.914 7 131278465.230 7     -1975.806 7        42.689                  
  20436965.907 7 107396989.121 7       828.162 7        47.474                  
 02  5 18 00 01 38.0000000  0  6G10G16G23G21G07G08                              
  21322098.096 8 112048353.565 8      -810.254 8        48.816                  
  23509611.379 7 123543931.690 7     -3649.212 7        45.179                  
  23030646.567 7 121026834.947 7     -2830.908 7        47.032                  
  21765094.977 8 114376334.955 8      1745.627 8        52.261                  
  24981830.871 7 131280440.756 7     -1972.022 7        44.089                  
  20436807.427 8 107396162.426 8       827.026 8        52.682                  
 02  5 18 00 01 39.0000000  0  6G10G16G23G21G07G08                              
  21322248.589 7 112049168.504 7      -823.654 7        45.834                  
  23510313.149 6 123547576.817 6     -3651.190 6        41.464                  
  23031181.548 6 121029670.168 6     -2836.633 6        41.467                  
  21764761.862 7 114374589.028 7      1757.181 7        44.977                  
  24982214.269 7 131282409.135 7     -1952.358 7        42.447                  
  20436648.911 8 107395334.889 8       828.520 8        52.484                  
 02  5 18 00 01 40.0000000  0  6G10G16G23G21G07G08                              
  21322405.961 6 112049992.404 6      -821.654 6        40.175                  
  23511009.809 6 123551222.354 6     -3641.808 6        39.178                  
  23031726.071 6 121032515.223 6     -2843.394 6        37.714                  
  21764423.709 6 114372832.848 6      1754.086 6        39.303                  
  24982582.389 6 131284362.782 6     -1947.428 6        38.059                  
  20436491.073 8 107394503.697 8       833.670 8        50.010                  
 02  5 18 00 01 41.0000000  0  6G10G16G23G21G07G08                              
  21322563.530 6 112050819.851 6      -827.002 6        38.514                  
  23511699.356 6 123554850.601 6     -3630.029 6        36.286                  
  23032273.238 6 121035372.769 6     -2862.583 6        36.081                  
  21764093.078 6 114371074.919 6      1758.060 6        37.788                  
  24982957.067 6 131286319.752 6     -1944.550 6        39.126                  
  20436330.770 8 107393675.637 8       826.961 8        51.651                  
 02  5 18 00 01 42.0000000  0  6G10G16G23G21G07G08                              
  21322718.741 6 112051652.781 6      -840.740 6        36.413                  
  23512396.570 5 123558472.073 5     -3612.514 5        35.714                  
  23032814.187 6 121038239.700 6     -2862.538 6        36.043                  
  21763758.213 6 114369311.878 6      1759.633 6        36.069                  
  24983326.509 6 131288271.387 6     -1948.642 6        36.689                  
  20436174.542 7 107392847.524 7       829.317 7        46.063                  
 02  5 18 00 01 43.0000000  0  6G10G16G23G21G07G08                              
  21322877.203 5 112052490.221 5      -833.781 5        35.359                  
  23513082.133 5 123562092.186 5     -3630.637 5        35.549                  
  23033360.622 5 121041112.306 5     -2863.708 5        35.673                  
  21763420.792 5 114367544.221 5      1759.579 5        35.291                  
  24983701.812 5 131290217.704 5     -1942.324 5        35.596                  
  20436013.953 7 107392018.024 7       827.907 7        43.760                  
 02  5 18 00 01 44.0000000  0  6G10G16G23G21G07G08                              
  21323035.308 5 112053327.870 5      -839.851 5        35.075                  
  23513773.485 5 123565718.619 5     -3623.189 5        35.194                  
  23033902.821 5 121043981.852 5     -2870.952 5        35.153                  
  21763080.673 5 114365776.747 5      1770.237 5        34.955                  
  24984064.606 5 131292162.059 5     -1949.451 5        35.387                  
  20435851.952 9 107391188.205 9       830.887 9        56.717                  
 02  5 18 00 01 45.0000000  0  6G10G16G23G21G07G08                              
  21323193.681 5 112054160.860 5      -829.148 5        35.480                  
  23514469.359 5 123569367.148 5     -3657.425 5        34.856                  
  23034442.555 5 121046834.899 5     -2852.018 5        35.008                  
  21762747.505 5 114364014.134 5      1768.565 5        35.231                  
  24984435.746 5 131294105.455 5     -1948.210 5        35.143                  
  20435693.847 8 107390356.067 8       832.122 8        52.482                  
 02  5 18 00 01 46.0000000  0  6G10G16G23G21G07G08                              
  21323349.249 6 112054987.052 6      -827.577 6        39.320                  
  23515162.462 5 123573019.154 5     -3658.921 5        34.567                  
  23034990.419 5 121049678.146 5     -2834.071 5        34.837                  
  21762420.055 6 114362261.025 6      1749.739 6        39.308                  
  24984810.120 6 131296061.352 6     -1967.099 6        41.686                  
  20435538.351 8 107389527.401 8       817.759 8        49.677                  
 02  5 18 00 02 19.0000000  0  6G10G27G23G21G07G08                              
  21328794.226 7 112083587.803 7      -857.523 7        46.191                  
  20504871.786 8 107753841.708 8     -1443.507 8        52.936                  
  23053050.891 6 121144621.735 6     -2833.561 6        40.544                  
  21751186.676 7 114303245.560 7      1776.539 7        43.757                  
  24996738.711 7 131358781.013 7     -1883.647 7        42.509                  
  20430269.312 8 107361863.894 8       840.518 8        52.944                  
 02  5 18 00 02 20.0000000  0  6G10G27G23G21G07G08                              
  21328959.622 7 112084450.093 7      -863.698 7        46.388                  
  20505142.269 8 107755284.234 8     -1442.703 8        52.677                  
  23053591.983 7 121147449.597 7     -2822.978 7        42.108                  
  21750849.970 7 114301472.178 7      1761.754 7        45.348                  
  24997095.985 7 131360674.735 7     -1909.522 7        42.690                  
  20430120.052 8 107361022.710 8       840.456 8        53.966                  
 02  5 18 00 02 21.0000000  0  6G10G27G23G21G07G08                              
  21329123.731 7 112085307.822 7      -851.542 7        44.893                  
  20505415.790 8 107756725.191 8     -1442.312 8        51.262                  
  23054128.840 7 121150270.488 7     -2815.992 7        42.049                  
  21750509.655 7 114299705.522 7      1758.032 7        43.475                  
  24997459.977 6 131362575.346 6     -1901.703 6        40.305                  
  20429959.427 8 107360184.202 8       839.180 8        50.291                  
 02  5 18 00 02 22.0000000  0  6G10G27G23G21G07G08                              
  21329285.642 7 112086163.343 7      -852.566 7        45.384                  
  20505690.098 8 107758165.373 8     -1441.298 8        51.397                  
  23054664.035 7 121153087.736 7     -2819.312 7        43.127                  
  21750173.949 7 114297942.460 7      1763.848 7        44.091                  
  24997823.736 6 131364481.800 6     -1904.496 6        40.584                  
  20429803.431 8 107359346.861 8       836.596 8        53.143                  
 02  5 18 00 02 23.0000000  0  6G10G27G23G21G07G08                              
  21329449.644 7 112087016.351 7      -853.677 7        45.784                  
  20505968.444 8 107759604.712 8     -1437.442 8        51.193                  
  23055203.590 7 121155901.263 7     -2813.016 7        44.589                  
  21749842.372 7 114296183.903 7      1751.374 7        45.107                  
  24998183.404 6 131366394.490 6     -1920.115 6        41.216                  
  20429646.451 8 107358511.406 8       833.339 8        52.725                  
 02  5 18 00 02 24.0000000  0  6G10G27G23G21G07G08                              
  21329609.661 7 112087864.514 7      -848.502 7        43.766                  
  20506244.842 8 107761041.707 8     -1436.336 8        49.699                  
  23055734.282 7 121158708.312 7     -2798.417 7        42.297                  
  21749511.152 7 114294432.258 7      1746.597 7        42.629                  
  24998552.149 6 131368316.110 6     -1929.353 6        39.499                  
  20429485.594 8 107357678.945 8       827.131 8        49.260                  
 02  5 18 00 02 25.0000000  0  6G10G27G23G21G07G08                              
  21329769.678 7 112088708.206 7      -837.351 7        43.847                  
  20506518.095 8 107762476.274 8     -1429.133 8        48.091                  
  23056269.352 6 121161509.583 6     -2801.927 6        40.914                  
  21749175.232 6 114292687.527 6      1745.006 6        41.423                  
  24998919.911 6 131370248.097 6     -1924.868 6        37.712                  
  20429329.348 8 107356849.090 8       829.536 8        48.729                  
 02  5 18 00 02 26.0000000  0  6G10G27G23G21G07G08                              
  21329929.553 7 112089548.812 7      -843.892 7        45.107                  
  20506786.094 7 107763906.972 7     -1431.213 7        45.692                  
  23056792.665 7 121164311.043 7     -2806.080 7        43.421                  
  21748842.922 7 114290948.337 7      1733.974 7        43.053                  
  24999288.138 6 131372186.731 6     -1933.275 6        37.296                  
  20429171.546 7 107356022.965 7       825.783 7        46.945                  
 02  5 18 00 02 27.0000000  0  6G10G27G23G21G07G08                              
  21330090.267 8 112090393.774 8      -845.024 8        48.501                  
  20507055.184 7 107765333.808 7     -1428.742 7        44.499                  
  23057338.313 6 121167128.147 6     -2827.049 6        39.319                  
  21748515.114 8 114289207.293 8      1743.115 8        48.481                  
  24999655.954 6 131374132.527 6     -1942.471 6        39.363                  
  20429013.584 7 107355200.627 7       823.234 7        46.995                  
 02  5 18 00 02 28.0000000  0  6G10G27G23G21G07G08                              
  21330250.945 7 112091246.555 7      -855.831 7        42.683                  
  20507329.313 7 107766758.381 7     -1425.896 7        47.251                  
  23057876.117 5 121169964.876 5     -2838.947 5        35.564                  
  21748186.038 7 114287460.294 7      1757.328 7        43.949                  
  25000029.185 7 131376077.743 7     -1938.490 7        43.722                  
  20428856.909 8 107354380.451 8       821.093 8        50.333                  
 02  5 18 00 02 29.0000000  0  6G10G27G23G21G07G08                              
  21330414.697 6 112092107.160 6      -859.767 6        40.832                  
  20507603.888 8 107768181.478 8     -1423.707 8        49.839                  
  23058418.138 5 121172820.572 5     -2854.812 5        35.006                  
  21747849.011 6 114285706.404 6      1751.095 6        41.019                  
  25000398.305 7 131378019.797 7     -1941.665 7        43.279                  
  20428697.428 8 107353562.267 8       819.103 8        49.948                  
 02  5 18 00 02 30.0000000  0  6G10G27G23G21G07G08                              
  21330578.037 7 112092969.927 7      -863.613 7        46.049                  
  20507875.640 8 107769604.568 8     -1423.491 8        53.669                  
  23058970.362 6 121175678.490 6     -2858.113 6        38.141                  
  21747511.733 7 114283951.271 7      1753.785 7        45.494                  
  25000772.733 7 131379961.180 7     -1944.768 7        45.016                  
  20428541.556 8 107352744.485 8       817.926 8        53.439                  
 02  5 18 00 02 31.0000000  0  5G10G27G23G21G08                                 
  21330744.219 9 112093833.551 9      -863.479 9        54.336                  
  20508142.389 8 107771028.291 8     -1424.043 8        53.651                  
  23059506.987 8 121178539.157 8     -2862.844 8        48.439                  
  21747177.171 8 114282196.250 8      1754.820 8        50.755                  
  20428386.524 9 107351927.185 9       817.132 9        56.223                  
 02  5 18 00 02 32.0000000  0  5G10G27G23G21G08                                 
  21330909.115 8 112094697.758 8      -864.734 8        52.913                  
  20508410.389 8 107772452.414 8     -1425.562 8        52.450                  
  23060053.940 8 121181400.269 8     -2860.194 8        50.926                  
  21746847.273 8 114280441.608 8      1754.136 8        51.720                  
  20428231.046 9 107351110.410 9       816.699 9        56.205                  
 02  5 18 00 02 33.0000000  0  5G10G27G23G21G08                                 
  21331074.546 8 112095562.561 8      -866.002 8        52.637                  
  20508683.052 8 107773877.012 8     -1425.149 8        50.344                  
  23060599.678 8 121184261.783 8     -2860.210 8        50.572                  
  21746514.927 8 114278687.266 8      1753.744 8        53.678                  
  20428073.727 9 107350294.116 9       815.894 9        55.939                  
 02  5 18 00 02 34.0000000  0  5G10G27G23G21G08                                 
  21331240.085 8 112096427.912 8      -864.004 8        53.779                  
  20508958.431 8 107775302.155 8     -1430.725 8        51.751                  
  23061139.233 8 121187123.670 8     -2862.287 8        50.864                  
  21746178.061 9 114276933.212 9      1753.975 9        54.827                  
  20427916.694 9 107349478.308 9       814.899 9        56.912                  
 02  5 18 00 02 35.0000000  0  5G10G27G23G21G08                                 
  21331405.284 8 112097293.818 8      -865.101 8        53.866                  
  20509231.238 8 107776727.812 8     -1424.824 8        53.181                  
  23061687.544 8 121189985.970 8     -2862.472 8        50.601                  
  21745841.355 8 114275179.439 8      1753.630 8        53.378                  
  20427761.037 9 107348662.986 9       814.552 9        55.034                  
