     2.11           OBSERVATION DATA    G                   RINEX VERSION / TYPE
BLANK OR G = GPS,  R = GLONASS,  E = GALILEO,  M = MIXED    COMMENT             
GNSS-SDR            joel                19-APR-25 15:35     PGM / RUN BY / DATE 
GPS OBSERVATION DATA FILE GENERATED BY GNSS-SDR             COMMENT             
GNSS-SDR VERSION 0.0.16                                     COMMENT             
See https://gnss-sdr.org                                    COMMENT             
DEFAULT MARKER NAME                                         MARKER NAME         
joel                CTTC                                    OBSERVER / AGENCY   
GNSS-SDR            Software Receiver   0.0.16              REC # / TYPE / VERS 
Antenna number      Antenna type                            ANT # / TYPE        
        0.0000        0.0000        0.0000                  APPROX POSITION XYZ 
        0.0000        0.0000        0.0000                  ANTENNA: DELTA H/E/N
     1     1                                                WAVELENGTH FACT L1/2
     4    C1    L1    D1    S1                              # / TYPES OF OBSERV 
  2002    05    18    00    00   42.3800000     GPS         TIME OF FIRST OBS   
    18                                                      LEAP SECONDS        
                                                            END OF HEADER       
 02  5 18 00 00 43.0000000  0  7G01G10G21G23G16G07G08                           
  23763590.557 7 124878517.381 7      3399.696 7        46.684                  
  21313658.681 9 112004046.667 9      -798.336 9        54.378                  
  21783585.538 8 114473516.344 8      1786.635 8        53.261                  
  23001127.174 8 120871747.352 8     -2818.484 8        49.978                  
  23471245.193 8 123342227.695 8     -3662.994 8        49.407                  
  24961618.630 7 131174198.514 7     -1906.859 7        45.636                  
  20445704.806 9 107442934.360 9       868.248 9        55.798                  
 02  5 18 00 00 44.0000000  0  7G01G10G21G23G16G07G08                           
  23762945.592 7 124875120.259 7      3394.654 7        46.770                  
  21313811.211 8 112004845.024 8      -799.526 8        53.913                  
  21783249.386 9 114471729.133 9      1786.415 9        54.226                  
  23001664.817 8 120874566.620 8     -2818.305 8        50.206                  
  23471943.872 8 123345891.470 8     -3663.426 8        50.487                  
  24961982.014 7 131176103.041 7     -1909.812 7        46.109                  
  20445541.823 9 107442066.516 9       867.788 9        56.826                  
 02  5 18 00 00 45.0000000  0  7G01G10G21G23G16G07G08                           
  23762299.002 7 124871723.311 7      3394.042 7        47.504                  
  21313963.044 9 112005644.022 9      -798.033 9        54.604                  
  21782906.712 8 114469942.232 8      1786.910 8        53.224                  
  23002198.993 8 120877386.250 8     -2818.296 8        51.034                  
  23472640.764 8 123349555.442 8     -3662.072 8        50.281                  
  24962342.700 7 131178007.923 7     -1904.901 7        46.790                  
  20445380.198 9 107441199.149 9       867.251 9        57.368                  
 02  5 18 00 00 46.0000000  0  7G01G10G21G23G16G07G08                           
  23761651.178 8 124868326.515 8      3395.471 8        48.417                  
  21314115.253 9 112006443.619 9      -799.382 9        54.144                  
  21782563.555 8 114468155.641 8      1786.829 8        53.634                  
  23002736.529 8 120880206.292 8     -2822.643 8        50.578                  
  23473337.673 8 123353219.599 8     -3665.613 8        49.297                  
  24962709.087 7 131179913.164 7     -1905.451 7        45.005                  
  20445215.695 9 107440332.259 9       866.659 9        56.301                  
 02  5 18 00 00 47.0000000  0  7G01G10G21G23G16G07G08                           
  23761005.713 7 124864929.872 7      3392.839 7        47.627                  
  21314268.462 8 112007243.812 8      -801.047 8        53.803                  
  21782227.296 8 114466369.352 8      1785.611 8        52.245                  
  23003272.582 8 120883026.723 8     -2822.780 8        49.775                  
  23474035.637 8 123356883.951 8     -3665.560 8        50.483                  
  24963068.469 7 131181818.745 7     -1907.411 7        45.937                  
  20445048.388 9 107439465.823 9       865.980 9        55.629                  
 02  5 18 00 00 48.0000000  0  7G01G10G21G23G16G07G08                           
  23760360.070 7 124861533.391 7      3396.518 7        47.346                  
  21314420.241 9 112008044.612 9      -801.059 9        56.882                  
  21781887.784 8 114464583.358 8      1785.159 8        52.284                  
  23003811.941 8 120885847.546 8     -2822.509 8        50.777                  
  23474732.958 8 123360548.505 8     -3664.552 8        50.438                  
  24963433.193 7 131183724.683 7     -1905.883 7        46.244                  
  20444880.991 9 107438599.862 9       864.953 9        57.922                  
 02  5 18 00 00 49.0000000  0  7G01G10G21G23G16G07G08                           
  23759712.085 8 124858137.070 8      3396.603 8        49.106                  
  21314573.540 9 112008846.055 9      -802.225 9        57.278                  
  21781545.575 8 114462797.662 8      1785.502 8        53.589                  
  23004345.867 8 120888668.780 8     -2821.148 8        49.430                  
  23475429.671 8 123364213.251 8     -3667.135 8        50.711                  
  24963795.113 7 131185630.983 7     -1907.314 7        46.816                  
  20444713.254 9 107437734.377 9       865.609 9        57.234                  
 02  5 18 00 00 50.0000000  0  7G01G10G21G23G16G07G08                           
  23759066.299 7 124854740.906 7      3396.990 7        47.098                  
  21314726.105 9 112009648.095 9      -801.909 9        56.270                  
  21781204.937 8 114461012.265 8      1787.111 8        53.307                  
  23004883.832 8 120891490.407 8     -2822.127 8        49.601                  
  23476128.386 8 123367878.173 8     -3665.728 8        48.834                  
  24964157.050 7 131187537.626 7     -1905.314 7        47.782                  
  20444545.267 9 107436869.361 9       864.884 9        58.653                  
 02  5 18 00 00 51.0000000  0  7G01G10G21G23G16G07G08                           
  23758421.567 7 124851344.921 7      3393.904 7        47.526                  
  21314878.993 9 112010450.732 9      -802.743 9        54.762                  
  21780869.393 8 114459227.167 8      1783.596 8        53.160                  
  23005422.261 8 120894312.419 8     -2821.813 8        49.856                  
  23476824.849 8 123371543.307 8     -3665.764 8        50.493                  
  24964522.918 7 131189444.629 7     -1906.599 7        47.333                  
  20444381.391 9 107436004.807 9       863.709 9        54.627                  
 02  5 18 00 00 52.0000000  0  7G01G10G21G23G16G07G08                           
  23757774.333 8 124847949.075 8      3397.189 8        48.305                  
  21315031.952 9 112011253.989 9      -804.184 9        54.026                  
  21780530.221 8 114457442.364 8      1784.978 8        51.520                  
  23005957.206 8 120897134.815 8     -2822.247 8        51.387                  
  23477522.170 8 123375208.640 8     -3666.343 8        49.675                  
  24964882.460 7 131191351.991 7     -1911.302 7        46.037                  
  20444219.229 9 107435140.730 9       864.520 9        56.363                  
 02  5 18 00 00 53.0000000  0  7G01G10G21G23G16G07G08                           
  23757127.170 7 124844553.402 7      3393.063 7        47.986                  
  21315184.857 9 112012057.876 9      -805.068 9        55.023                  
  21780186.135 8 114455657.858 8      1784.929 8        51.847                  
  23006496.958 8 120899957.603 8     -2823.607 8        49.659                  
  23478220.813 8 123378874.143 8     -3662.367 8        49.493                  
  24965249.383 7 131193259.699 7     -1908.637 7        46.797                  
  20444056.979 9 107434277.131 9       863.371 9        57.121                  
 02  5 18 00 00 54.0000000  0  7G01G10G21G23G16G07G08                           
  23756482.528 7 124841157.887 7      3394.707 7        46.979                  
  21315338.173 9 112012862.360 9      -805.104 9        54.014                  
  21779846.981 8 114453873.667 8      1783.999 8        53.866                  
  23007032.225 8 120902780.776 8     -2824.017 8        50.436                  
  23478916.865 8 123382539.856 8     -3666.087 8        50.114                  
  24965609.086 7 131195167.759 7     -1906.378 7        46.833                  
  20443895.210 9 107433414.008 9       863.128 9        54.943                  
 02  5 18 00 00 55.0000000  0  7G01G10G21G23G16G07G08                           
  23755836.723 8 124837762.521 8      3394.964 8        48.816                  
  21315491.221 9 112013667.441 9      -805.396 9        54.167                  
  21779511.615 8 114452089.796 8      1782.432 8        53.358                  
  23007570.725 8 120905604.340 8     -2822.359 8        49.873                  
  23479614.704 8 123386205.755 8     -3667.159 8        49.606                  
  24965973.632 7 131197076.174 7     -1908.913 7        47.057                  
  20443734.175 9 107432551.338 9       862.160 9        56.865                  
 02  5 18 00 00 56.0000000  0  7G01G10G21G23G16G07G08                           
  23755189.239 7 124834367.326 7      3392.405 7        46.774                  
  21315644.805 9 112014473.138 9      -806.164 9        54.590                  
  21779171.568 9 114450306.209 9      1782.481 9        54.233                  
  23008107.922 8 120908428.322 8     -2824.773 8        51.900                  
  23480314.079 7 123389871.845 7     -3668.049 7        47.429                  
  24966337.589 7 131198984.942 7     -1904.841 7        46.366                  
  20443571.674 9 107431689.145 9       861.569 9        56.021                  
 02  5 18 00 00 57.0000000  0  7G01G10G21G23G16G07G08                           
  23754544.650 8 124830972.292 8      3395.846 8        48.709                  
  21315798.336 9 112015279.470 9      -806.509 9        55.377                  
  21778828.089 8 114448522.933 8      1784.773 8        51.743                  
  23008644.386 8 120911252.685 8     -2824.402 8        50.930                  
  23481009.506 7 123393538.124 7     -3663.731 7        47.420                  
  24966698.346 7 131200894.067 7     -1912.636 7        45.963                  
  20443405.277 9 107430827.429 9       861.552 9        58.264                  
 02  5 18 00 00 58.0000000  0  7G01G10G21G23G16G07G08                           
  23753898.202 8 124827577.410 8      3397.144 8        48.503                  
  21315952.081 9 112016086.397 9      -806.606 9        55.502                  
  21778490.329 8 114446739.946 8      1783.061 8        51.992                  
  23009182.904 8 120914077.446 8     -2825.131 8        50.078                  
  23481707.827 7 123397204.601 7     -3665.608 7        47.738                  
  24967065.037 7 131202803.535 7     -1911.460 7        45.920                  
  20443239.113 9 107429966.189 9       861.865 9        56.998                  
 02  5 18 00 00 59.0000000  0  7G01G10G21G23G16G07G08                           
  23753251.093 8 124824182.701 8      3395.361 8        49.098                  
  21316105.969 9 112016893.921 9      -807.637 9        56.594                  
  21778154.999 8 114444957.266 8      1782.947 8        50.759                  
  23009718.796 8 120916902.586 8     -2824.324 8        49.960                  
  23482406.274 8 123400871.275 8     -3666.559 8        48.523                  
  24967425.347 7 131204713.368 7     -1910.910 7        44.696                  
  20443072.681 9 107429105.403 9       860.777 9        55.321                  
 02  5 18 00 01  0.0000000  0  7G01G10G21G23G16G07G08                           
  23752605.843 8 124820788.142 8      3397.672 8        49.838                  
  21316259.643 9 112017702.078 9      -807.976 9        57.439                  
  21777813.522 8 114443174.873 8      1780.439 8        52.409                  
  23010258.709 8 120919728.103 8     -2826.592 8        51.591                  
  23483102.773 8 123404538.131 8     -3670.428 8        48.698                  
  24967791.144 7 131206623.536 7     -1908.935 7        46.978                  
  20442905.695 9 107428245.093 9       859.875 9        57.002                  
 02  5 18 00 01  1.0000000  0  7G01G10G21G23G16G07G08                           
  23751959.914 8 124817393.741 8      3396.173 8        50.104                  
  21316414.138 9 112018510.852 9      -808.687 9        55.335                  
  21777470.294 8 114441392.790 8      1782.212 8        53.965                  
  23010795.155 8 120922554.020 8     -2823.883 8        49.271                  
  23483801.166 8 123408205.186 8     -3665.098 8        49.379                  
  24968153.278 7 131208534.075 7     -1912.297 7        47.399                  
  20442740.425 9 107427385.259 9       859.801 9        56.641                  
 02  5 18 00 01  2.0000000  0  7G01G10G21G23G16G07G08                           
  23751313.180 8 124813999.510 8      3395.811 8        49.066                  
  21316567.401 9 112019320.225 9      -810.838 9        54.344                  
  21777134.696 8 114439610.991 8      1782.070 8        50.745                  
  23011333.263 8 120925380.329 8     -2824.886 8        50.197                  
  23484499.755 8 123411872.434 8     -3666.528 8        49.124                  
  24968517.806 7 131210444.945 7     -1912.135 7        45.642                  
  20442578.621 9 107426525.904 9       858.932 9        57.192                  
 02  5 18 00 01  3.0000000  0  7G01G10G21G23G16G07G08                           
  23750667.930 8 124810605.432 8      3396.393 8        48.961                  
  21316721.039 9 112020130.192 9      -810.329 9        55.032                  
  21776798.651 8 114437829.515 8      1781.650 8        51.973                  
  23011872.085 8 120928207.043 8     -2826.685 8        50.887                  
  23485196.004 8 123415539.857 8     -3666.904 8        51.022                  
  24968882.030 7 131212356.184 7     -1910.558 7        44.745                  
  20442416.942 9 107425667.000 9       858.104 9        55.569                  
 02  5 18 00 01  4.0000000  0  7G01G10G21G23G16G07G08                           
  23750023.180 8 124807211.508 8      3390.089 8        49.269                  
  21316875.088 9 112020940.780 9      -810.881 9        54.673                  
  21776456.387 9 114436048.350 9      1780.677 9        54.057                  
  23012407.602 8 120931034.149 8     -2826.600 8        53.064                  
  23485895.344 8 123419207.501 8     -3668.042 8        52.165                  
  24969242.842 7 131214267.774 7     -1910.282 7        45.142                  
  20442255.888 9 107424808.575 9       858.148 9        56.759                  
 02  5 18 00 01  5.0000000  0  7G01G10G21G23G16G07G08                           
  23749375.803 8 124803817.766 8      3389.048 8        48.140                  
  21317028.833 9 112021751.999 9      -812.003 9        56.108                  
  21776115.429 8 114434267.482 8      1779.828 8        53.745                  
  23012947.782 8 120933861.640 8     -2827.708 8        51.189                  
  23486593.469 8 123422875.316 8     -3666.010 8        49.209                  
  24969609.996 7 131216179.713 7     -1912.785 7        45.786                  
  20442094.638 9 107423950.625 9       858.151 9        56.298                  
 02  5 18 00 01  6.0000000  0  7G01G10G21G23G16G07G08                           
  23748729.552 8 124800424.169 8      3392.091 8        48.428                  
  21317182.703 9 112022563.814 9      -812.130 9        56.325                  
  21775779.938 8 114432486.913 8      1779.895 8        52.030                  
  23013485.015 8 120936689.498 8     -2827.003 8        48.881                  
  23487290.468 8 123426543.329 8     -3664.422 8        48.789                  
  24969970.879 7 131218091.992 7     -1910.493 7        46.429                  
  20441934.710 9 107423093.154 9       857.032 9        57.027                  
 02  5 18 00 01  7.0000000  0  7G01G10G21G23G16G07G08                           
  23748085.463 8 124797030.723 8      3392.591 8        49.178                  
  21317336.662 9 112023376.226 9      -813.274 9        54.950                  
  21775443.053 8 114430706.640 8      1779.830 8        52.924                  
  23014023.247 8 120939517.762 8     -2827.344 8        48.924                  
  23487989.665 8 123430211.541 8     -3668.269 8        50.152                  
  24970337.480 7 131220004.640 7     -1914.431 7        46.144                  
  20441772.817 9 107422236.146 9       856.574 9        57.069                  
 02  5 18 00 01  8.0000000  0  7G01G10G21G23G16G07G08                           
  23747438.568 8 124793637.467 8      3393.927 8        48.889                  
  21317491.408 9 112024189.271 9      -813.296 9        57.849                  
  21775100.897 8 114428926.669 8      1778.966 8        52.584                  
  23014562.427 8 120942346.417 8     -2828.543 8        49.932                  
  23488687.414 8 123433879.933 8     -3666.720 8        50.799                  
  24970700.025 8 131221917.639 8     -1914.162 8        48.191                  
  20441607.314 9 107421379.601 9       857.239 9        58.693                  
 02  5 18 00 01  9.0000000  0  7G01G10G21G23G16G07G08                           
  23746792.514 8 124790244.353 8      3391.217 8        48.028                  
  21317645.475 9 112025002.930 9      -813.810 9        55.603                  
  21774760.474 8 114427146.990 8      1780.312 8        53.914                  
  23015099.356 8 120945175.476 8     -2829.960 8        50.448                  
  23489384.413 8 123437548.528 8     -3667.220 8        48.443                  
  24971064.499 8 131223830.982 8     -1912.738 8        48.041                  
  20441442.580 9 107420523.537 9       855.923 9        57.487                  
 02  5 18 00 01 10.0000000  0  7G01G10G21G23G16G07G08                           
  23746148.764 8 124786851.394 8      3397.265 8        49.663                  
  21317800.560 9 112025817.190 9      -814.381 9        54.984                  
  21774425.144 8 114425367.613 8      1779.871 8        53.374                  
  23015639.429 8 120948004.930 8     -2828.591 8        50.120                  
  23490083.825 8 123441217.312 8     -3669.609 8        49.563                  
  24971429.760 8 131225744.682 8     -1914.154 8        48.426                  
  20441277.524 9 107419667.949 9       855.830 9        56.887                  
 02  5 18 00 01 11.0000000  0  7G01G10G21G23G16G07G08                           
  23745502.281 7 124783458.614 7      3393.349 7        47.541                  
  21317955.324 9 112026632.045 9      -815.053 9        56.144                  
  21774088.474 8 114423588.533 8      1779.056 8        51.792                  
  23016176.500 8 120950834.753 8     -2827.749 8        50.590                  
  23490781.896 8 123444886.278 8     -3669.680 8        50.921                  
  24971791.822 8 131227658.729 8     -1913.670 8        48.145                  
  20441111.842 9 107418812.837 9       854.972 9        57.306                  
 02  5 18 00 01 12.0000000  0  7G01G10G21G23G16G07G08                           
  23744855.887 8 124780065.977 8      3389.540 8        50.000                  
  21318109.748 9 112027447.519 9      -816.640 9        57.108                  
  21773745.228 8 114421809.764 8      1779.355 8        53.135                  
  23016715.734 8 120953664.963 8     -2829.950 8        50.662                  
  23491479.449 8 123448555.446 8     -3669.312 8        51.404                  
  24972158.744 7 131229573.130 7     -1918.454 7        47.876                  
  20440946.553 9 107417958.178 9       854.478 9        57.349                  
 02  5 18 00 01 13.0000000  0  7G01G10G21G23G16G07G08                           
  23744211.298 8 124776673.505 8      3391.713 8        48.964                  
  21318266.030 9 112028263.629 9      -816.409 9        56.970                  
  21773406.360 8 114420031.306 8      1778.243 8        52.769                  
  23017255.253 8 120956495.562 8     -2828.608 8        50.185                  
  23492178.503 8 123452224.792 8     -3669.395 8        50.377                  
  24972519.055 7 131231487.871 7     -1913.301 7        46.492                  
  20440784.410 9 107417103.995 9       854.123 9        56.040                  
 02  5 18 00 01 14.0000000  0  7G01G10G21G23G16G07G08                           
  23743565.815 8 124773281.202 8      3392.187 8        48.569                  
  21318421.151 9 112029080.330 9      -816.833 9        54.917                  
  21773072.709 8 114418253.155 8      1778.606 8        51.987                  
  23017792.396 8 120959326.566 8     -2830.582 8        50.849                  
  23492876.306 8 123455894.338 8     -3670.834 8        49.975                  
  24972887.407 7 131233402.973 7     -1915.970 7        46.566                  
  20440624.053 9 107416250.288 9       854.177 9        54.650                  
 02  5 18 00 01 15.0000000  0  7G01G10G21G23G16G07G08                           
  23742918.849 8 124769889.055 8      3390.615 8        48.705                  
  21318576.290 9 112029897.630 9      -817.225 9        55.309                  
  21772733.484 8 114416475.292 8      1778.187 8        52.841                  
  23018333.863 8 120962157.968 8     -2830.897 8        50.295                  
  23493573.967 8 123459564.079 8     -3669.922 8        49.046                  
  24973249.648 7 131235318.428 7     -1916.104 7        46.904                  
  20440463.822 9 107415397.060 9       853.194 9        55.707                  
 02  5 18 00 01 16.0000000  0  7G01G10G21G23G16G07G08                           
  23742273.795 8 124766497.061 8      3395.032 8        48.234                  
  21318731.358 9 112030715.537 9      -818.504 9        55.979                  
  21772392.310 8 114414697.739 8      1778.254 8        52.834                  
  23018869.988 8 120964989.752 8     -2831.743 8        50.732                  
  23494273.932 8 123463233.995 8     -3672.087 8        49.590                  
  24973615.838 7 131237234.229 7     -1915.939 7        46.184                  
  20440303.823 9 107414544.308 9       853.054 9        56.604                  
 02  5 18 00 01 17.0000000  0  7G01G10G21G23G16G07G08                           
  23741629.724 7 124763105.249 7      3388.894 7        46.925                  
  21318887.979 9 112031534.086 9      -819.215 9        56.122                  
  21772053.782 9 114412920.472 9      1777.477 9        54.417                  
  23019409.275 8 120967821.905 8     -2834.098 8        50.225                  
  23494971.199 8 123466904.115 8     -3670.899 8        50.235                  
  24973980.742 8 131239150.390 8     -1916.849 8        48.112                  
  20440143.252 9 107413692.011 9       852.010 9        57.662                  
 02  5 18 00 01 18.0000000  0  7G01G10G21G23G16G07G08                           
  23740983.956 7 124759713.579 7      3392.965 7        47.716                  
  21319043.780 9 112032353.234 9      -820.192 9        55.372                  
  21771719.292 8 114411143.520 8      1775.584 8        53.196                  
  23019949.169 8 120970654.452 8     -2830.600 8        49.602                  
  23495669.431 8 123470574.416 8     -3672.517 8        49.396                  
  24974342.553 7 131241066.889 7     -1914.787 7        47.701                  
  20439983.771 9 107412840.189 9       850.983 9        57.426                  
 02  5 18 00 01 19.0000000  0  7G01G10G21G23G16G07G08                           
  23740337.043 7 124756322.076 7      3392.727 7        47.748                  
  21319200.973 9 112033172.976 9      -819.745 9        54.667                  
  21771381.442 8 114409366.842 8      1774.968 8        52.675                  
  23020485.776 8 120973487.406 8     -2832.119 8        50.264                  
  23496368.503 8 123474244.912 8     -3669.740 8        50.748                  
  24974711.120 8 131242983.739 8     -1916.068 8        48.141                  
  20439822.217 9 107411988.844 9       850.792 9        56.585                  
 02  5 18 00 01 20.0000000  0  7G01G10G21G23G16G07G08                           
  23739693.741 7 124752931.000 7      3389.555 7        47.298                  
  21319357.971 8 112033993.152 8      -819.463 8        53.409                  
  21771039.572 8 114407590.704 8      1774.775 8        50.987                  
  23021027.333 8 120976320.631 8     -2831.811 8        50.789                  
  23497066.682 8 123477915.470 8     -3671.961 8        50.065                  
  24975072.396 7 131244901.296 7     -1918.455 7        47.202                  
  20439658.590 9 107411138.080 9       849.397 9        56.527                  
 02  5 18 00 01 21.0000000  0  7G01G10G21G23G16G07G08                           
  23739049.527 7 124749551.244 7      3371.341 7        46.120                  
  21319513.610 9 112034807.287 9      -808.434 9        55.030                  
  21770703.563 8 114405824.030 8      1759.770 8        51.118                  
  23021565.083 8 120979149.135 8     -2823.922 8        51.706                  
  23497763.645 8 123481580.731 8     -3662.656 8        51.041                  
  24975442.392 7 131246833.992 7     -1946.686 7        43.476                  
  20439496.053 9 107410292.182 9       841.576 9        57.207                  
 02  5 18 00 01 22.0000000  0  7G01G10G21G23G16G07G08                           
  23738409.798 6 124746190.744 6      3349.390 6        39.292                  
  21319666.443 8 112035610.828 8      -796.709 8        51.601                  
  21770375.559 7 114404073.314 7      1746.777 7        45.878                  
  23022102.244 8 120981969.500 8     -2816.210 8        53.491                  
  23498461.680 8 123485236.998 8     -3651.692 8        50.808                  
  24975813.317 7 131248792.031 7     -1970.429 7        44.735                  
  20439334.410 9 107409454.079 9       834.164 9        59.176                  
 02  5 18 00 01 23.0000000  0  7G01G10G21G23G16G07G08                           
  23737774.232 8 124742848.755 8      3334.417 8        49.934                  
  21319817.705 7 112036403.487 7      -787.483 7        46.893                  
  21770044.392 8 114402338.028 8      1728.460 8        51.789                  
  23022637.546 7 120984781.692 7     -2811.341 7        46.242                  
  23499150.174 7 123488884.117 7     -3643.086 7        43.321                  
  24976193.195 8 131250774.728 8     -1995.454 8        50.280                  
  20439175.304 9 107408623.797 9       827.666 9        56.896                  
 02  5 18 00 01 24.0000000  0  7G01G10G21G23G16G07G08                           
  23737141.312 8 124739520.648 8      3328.857 8        52.994                  
  21319966.947 8 112037188.876 8      -785.876 8        53.566                  
  21769713.798 9 114400614.234 9      1723.202 9        58.676                  
  23023170.543 6 120987587.766 6     -2807.005 6        40.467                  
  23499847.173 6 123492524.843 6     -3642.357 6        41.419                  
  24976572.000 7 131252775.954 7     -2007.122 7        45.623                  
  20439019.272 8 107407799.391 8       826.151 8        48.818                  
 02  5 18 00 01 25.0000000  0  7G01G10G21G23G16G07G08                           
  23736507.855 8 124736193.729 8      3326.259 8        49.814                  
  21320116.511 9 112037974.293 9      -786.580 9        57.204                  
  21769383.185 9 114398891.539 9      1722.589 9        59.319                  
  23023704.613 7 120990393.948 7     -2805.576 7        47.878                  
  23500542.117 8 123496165.372 8     -3639.932 8        48.652                  
  24976965.547 6 131254779.030 6     -2003.707 6        38.285                  
  20438859.541 7 107406975.794 7       820.970 7        46.685                  
 02  5 18 00 01 26.0000000  0  7G01G10G21G23G16G07G08                           
  23735874.469 7 124732867.683 7      3328.314 7        46.807                  
  21320265.949 9 112038759.986 9      -786.738 9        55.138                  
  21769056.110 8 114397169.435 8      1723.440 8        52.882                  
  23024237.378 8 120993199.694 8     -2806.615 8        48.577                  
  23501231.004 7 123499807.085 7     -3642.168 7        47.787                  
  24977333.417 7 131256782.113 7     -2001.775 7        46.011                  
  20438700.060 7 107406152.514 7       824.788 7        47.975                  
 02  5 18 00 01 27.0000000  0  7G01G10G21G23G16G07G08                           
  23735241.030 7 124729533.117 7      3345.838 7        44.029                  
  21320416.281 8 112039551.673 8      -798.051 8        51.056                  
  21768731.073 8 114395440.346 8      1738.438 8        48.178                  
  23024777.504 7 120996007.922 7     -2806.960 7        43.505                  
  23501926.841 7 123503456.753 7     -3652.202 7        44.079                  
  24977714.653 7 131258772.654 7     -1976.326 7        47.298                  
  20438543.116 7 107405325.660 7       825.842 7        44.298                  
 02  5 18 00 01 28.0000000  0  7G01G10G21G23G16G07G08                           
  23734599.497 6 124726180.054 6      3364.794 6        38.829                  
  21320569.365 7 112040353.195 7      -809.679 7        44.875                  
  21768400.728 7 114393697.648 7      1748.177 7        44.160                  
  23025305.463 6 120998820.612 6     -2821.353 6        38.419                  
  23502623.858 6 123507121.188 6     -3662.274 6        38.442                  
  24978085.756 7 131260739.746 7     -1953.658 7        44.455                  
  20438385.976 7 107404491.286 7       837.715 7        44.626                  
 02  5 18 00 01 29.0000000  0  7G01G10G21G23G16G07G08                           
  23733961.322 6 124722807.056 6      3371.930 6        36.203                  
  21320723.771 6 112041163.097 6      -804.591 6        41.278                  
  21768063.236 6 114391944.136 6      1756.713 6        40.496                  
  23025842.981 5 121001641.658 5     -2823.252 5        35.961                  
  23503321.340 6 123510796.369 6     -3664.484 6        36.056                  
  24978459.666 6 131262687.146 6     -1952.489 6        41.266                  
  20438226.709 7 107403651.495 7       841.296 7        45.448                  
 02  5 18 00 01 30.0000000  0  7G01G10G21G23G16G07G08                           
  23733326.436 5 124719435.903 5      3369.974 5        34.508                  
  21320875.301 6 112041965.427 6      -790.078 6        36.221                  
  21767729.282 5 114390200.163 5      1743.850 5        35.742                  
  23026378.229 5 121004441.770 5     -2787.289 5        34.729                  
  23504023.950 5 123514460.212 5     -3670.136 5        34.498                  
  24978828.053 6 131264640.789 6     -1960.188 6        36.043                  
  20438068.211 9 107402812.506 9       838.028 9        57.225                  
 02  5 18 00 01 31.0000000  0  7G01G10G21G23G16G07G08                           
  23732689.084 5 124716070.873 5      3362.984 5        34.413                  
  21321026.634 5 112042755.129 5      -792.563 5        34.685                  
  21767402.672 5 114388471.738 5      1702.995 5        34.506                  
  23026906.849 5 121007218.774 5     -2763.244 5        34.538                  
  23504732.367 5 123518122.966 5     -3662.507 5        34.651                  
  24979201.141 5 131266593.066 5     -1955.546 5        34.187                  
  20437910.732 8 107401976.399 8       834.961 8        53.870                  
 02  5 18 00 01 32.0000000  0  7G01G10G21G23G16G07G08                           
  23732060.791 5 124712714.019 5      3354.349 5        34.464                  
  21321176.019 5 112043538.674 5      -774.712 5        34.636                  
  21767081.816 5 114386752.135 5      1724.580 5        34.598                  
  23027440.918 5 121009987.353 5     -2785.049 5        34.984                  
  23505434.155 5 123521786.131 5     -3661.405 5        34.719                  
  24979580.625 5 131268554.313 5     -1968.716 5        34.038                  
  20437754.020 8 107401143.896 8       832.969 8        49.780                  
 02  5 18 00 01 33.0000000  0  7G01G10G21G23G16G07G08                           
  23731422.188 5 124709354.013 5      3372.261 5        34.879                  
  21321326.351 5 112044331.511 5      -796.603 5        35.199                  
  21766746.182 5 114385023.115 5      1741.812 5        35.038                  
  23027971.217 5 121012773.630 5     -2793.331 5        34.979                  
  23506131.726 5 123525445.176 5     -3656.832 5        34.936                  
  24979958.144 5 131270514.400 5     -1955.398 5        34.983                  
  20437596.076 8 107400310.893 8       832.985 8        53.389                  
 02  5 18 00 01 34.0000000  0  6G01G10G21G16G07G08                              
  23730781.816 5 124705998.335 5      3340.436 5        35.077                  
  21321483.008 6 112045134.280 6      -803.822 6        37.116                  
  21766413.836 6 114383283.780 6      1734.617 6        36.844                  
  23506832.138 5 123529100.344 5     -3649.276 5        34.921                  
  24980329.927 6 131272477.369 6     -1965.153 6        38.478                  
  20437439.633 9 107399476.785 9       831.692 9        54.192                  
 02  5 18 00 01 35.0000000  0  6G01G10G21G16G07G08                              
  23730149.359 5 124702658.432 5      3333.306 5        35.408                  
  21321631.750 6 112045934.818 6      -802.807 6        37.847                  
  21766079.274 6 114381549.113 6      1739.889 6        37.333                  
  23507529.584 5 123532767.664 5     -3671.715 5        35.518                  
  24980707.946 6 131274451.747 6     -1971.034 6        37.079                  
  20437283.708 8 107398646.462 8       830.988 8        51.844                  
 02  5 18 00 01 36.0000000  0  6G01G10G21G16G07G08                              
  23729509.720 6 124699315.541 6      3350.364 6        37.186                  
  21321786.192 6 112046737.864 6      -801.320 6        41.631                  
  21765751.753 6 114379813.392 6      1740.675 6        39.883                  
  23508226.601 6 123536433.823 6     -3655.685 6        37.563                  
  24981078.371 6 131276427.548 6     -1971.430 6        39.912                  
  20437129.212 8 107397817.267 8       828.084 8        50.662                  
 02  5 18 00 01 37.0000000  0  6G01G10G21G16G07G08                              
  23728868.508 6 124695967.132 6      3351.968 6        41.914                  
  21321951.874 8 112047544.720 8      -806.940 8        48.009                  
  21765413.224 7 114378074.406 7      1738.857 7        46.127                  
  23508906.196 7 123540092.263 7     -3655.106 7        43.767                  
  24981459.231 7 131278401.738 7     -1975.544 7        42.223                  
  20436965.800 7 107396989.124 7       828.164 7        46.808                  
 02  5 18 00 01 38.0000000  0  6G01G10G21G16G07G08                              
  23728246.273 7 124692616.089 7      3350.718 7        46.014                  
  21322098.614 8 112048353.566 8      -810.187 8        48.371                  
  21765092.975 8 114376334.968 8      1745.793 8        52.187                  
  23509604.428 7 123543742.697 7     -3650.430 7        44.687                  
  24981829.352 7 131280377.262 7     -1972.283 7        43.786                  
  20436807.337 8 107396162.427 8       827.030 8        52.392                  
 02  5 18 00 01 39.0000000  0  6G01G10G21G16G07G08                              
  23727592.034 6 124689256.054 6      3360.084 6        40.764                  
  21322249.339 7 112049168.502 7      -823.303 7        45.366                  
  21764760.183 7 114374589.025 7      1757.354 7        44.521                  
  23510305.859 6 123547387.819 6     -3650.990 6        40.652                  
  24982211.482 7 131282345.633 7     -1951.603 7        42.009                  
  20436648.875 8 107395334.890 8       828.500 8        52.182                  
 02  5 18 00 01 40.0000000  0  6G01G10G21G16G07G08                              
  23726954.003 6 124685891.476 6      3379.439 6        36.224                  
  21322406.533 6 112049992.401 6      -820.944 6        39.647                  
  21764422.673 6 114372832.848 6      1753.862 6        38.779                  
  23511003.358 6 123551033.350 6     -3642.322 6        38.395                  
  24982581.174 6 131284299.278 6     -1946.996 6        37.534                  
  20436491.091 8 107394503.683 8       833.828 8        49.531                  
 02  5 18 00 01 41.0000000  0  6G01G10G21G16G07G08                              
  23726313.255 5 124682512.360 5      3394.465 5        35.286                  
  21322564.013 6 112050819.848 6      -826.108 6        38.005                  
  21764092.757 6 114371074.919 6      1757.760 6        37.281                  
  23511696.462 5 123554661.602 5     -3630.687 5        35.663                  
  24982956.495 6 131286256.256 6     -1943.730 6        38.635                  
  20436330.663 8 107393675.622 8       826.956 8        51.388                  
 02  5 18 00 01 42.0000000  0  6G01G10G21G16G07G08                              
  23725673.044 5 124679124.976 5      3393.625 5        34.891                  
  21322718.741 5 112051652.780 5      -841.259 5        35.976                  
  21763757.909 5 114369311.880 5      1758.871 5        35.643                  
  23512393.925 5 123558283.072 5     -3611.874 5        35.191                  
  24983325.794 6 131288207.885 6     -1948.549 6        36.212                  
  20436174.720 7 107392847.539 7       829.110 7        45.158                  
 02  5 18 00 01 43.0000000  0  5G10G21G16G07G08                                 
  21322877.239 5 112052490.223 5      -833.536 5        34.990                  
  21763420.739 5 114367544.221 5      1759.219 5        34.935                  
  23513080.543 5 123561903.188 5     -3631.922 5        35.090                  
  24983700.060 5 131290154.198 5     -1943.361 5        35.188                  
  20436014.292 7 107392018.011 7       827.722 7        42.639                  
 02  5 18 00 01 44.0000000  0  5G10G21G16G07G08                                 
  21323035.255 5 112053327.872 5      -840.083 5        34.729                  
  21763080.459 5 114365776.744 5      1770.485 5        34.628                  
  23513771.520 5 123565529.617 5     -3622.016 5        34.778                  
  24984064.338 5 131292099.069 5     -1949.849 5        34.988                  
  20435851.916 9 107391188.210 9       830.845 9        56.569                  
 02  5 18 00 01 45.0000000  0  5G10G21G16G07G08                                 
  21323193.628 5 112054160.860 5      -828.851 5        35.093                  
  21762747.452 5 114364014.134 5      1769.244 5        34.876                  
  23514469.484 5 123569178.147 5     -3657.598 5        34.529                  
  24984434.906 5 131294047.494 5     -1955.697 5        34.727                  
  20435693.883 8 107390356.066 8       832.056 8        52.158                  
 02  5 18 00 02  7.0000000  0  4G01G10G23G08                                    
  23709453.207 7 124594320.623 7      3460.563 7        45.563                  
  21326781.281 8 112073029.577 8      -897.255 8        52.986                  
  23046500.679 7 121101271.264 7     -2909.413 7        42.809                  
  20432205.421 8 107372016.504 8       851.259 8        51.863                  
 02  5 18 00 02  8.0000000  0  4G01G10G23G08                                    
  23708812.906 7 124590859.525 7      3462.622 7        45.101                  
  21326964.617 8 112073924.906 8      -894.947 8        49.816                  
  23047054.279 7 121104173.712 7     -2903.282 7        42.424                  
  20432048.245 8 107371165.422 8       856.369 8        51.212                  
 02  5 18 00 02  9.0000000  0  4G01G10G23G08                                    
  23708151.055 7 124587401.382 7      3455.624 7        45.064                  
  21327126.510 8 112074819.825 8      -893.608 8        50.634                  
  23047602.215 7 121107071.278 7     -2899.060 7        42.651                  
  20431891.498 8 107370313.916 8       851.472 8        52.137                  
 02  5 18 00 02 10.0000000  0  4G01G10G23G08                                    
  23707492.421 7 124583946.332 7      3457.450 7        45.125                  
  21327289.869 8 112075713.529 8      -894.050 8        50.847                  
  23048157.263 7 121109964.577 7     -2897.105 7        42.275                  
  20431716.274 8 107369462.586 8       853.697 8        52.221                  
 02  5 18 00 02 11.0000000  0  4G01G10G23G08                                    
  23706834.519 7 124580497.025 7      3450.154 7        42.304                  
  21327467.505 7 112076604.266 7      -892.308 7        46.859                  
  23048707.003 6 121112850.482 6     -2866.586 6        40.413                  
  20431570.284 9 107368611.756 9       850.052 9        56.182                  
 02  5 18 00 02 12.0000000  0  4G01G10G23G08                                    
  23706176.796 6 124577063.249 6      3433.603 6        37.225                  
  21327635.742 6 112077486.675 6      -877.575 6        41.432                  
  23049255.225 6 121115725.680 6     -2873.180 6        37.803                  
  20431402.154 8 107367765.181 8       836.979 8        49.195                  
 02  5 18 00 02 13.0000000  0  5G01G10G23G07G08                                 
  23705529.223 6 124573630.710 6      3429.180 6        36.036                  
  21327803.764 6 112078363.463 6      -880.277 6        40.135                  
  23049801.570 6 121118592.935 6     -2868.058 6        37.508                  
  24994583.528 6 131343872.798 6     -1874.578 6        36.502                  
  20431238.331 7 107366921.251 7       834.166 7        46.475                  
 02  5 18 00 02 14.0000000  0  5G01G10G23G07G08                                 
  23704873.019 6 124570211.362 6      3416.214 6        40.815                  
  21327967.087 7 112079238.989 7      -875.931 7        46.398                  
  23050342.751 6 121121456.425 6     -2865.562 6        41.926                  
  24994947.342 6 131345750.548 6     -1888.210 6        41.299                  
  20431082.156 9 107366078.041 9       842.810 9        54.677                  
 02  5 18 00 02 15.0000000  0  5G01G10G23G07G08                                 
  23704226.911 7 124566794.543 7      3413.820 7        43.511                  
  21328131.375 8 112080113.275 8      -874.804 8        48.775                  
  23050889.186 7 121124317.415 7     -2848.440 7        42.689                  
  24995304.222 7 131347632.554 7     -1882.803 7        42.655                  
  20430917.439 9 107365235.459 9       841.996 9        55.867                  
 02  5 18 00 02 16.0000000  0  5G01G10G23G07G08                                 
  23703576.067 6 124563383.510 6      3403.329 6        41.487                  
  21328298.683 7 112080983.819 7      -873.894 7        46.286                  
  23051431.439 6 121127171.350 6     -2854.871 6        41.929                  
  24995660.155 7 131349519.368 7     -1882.499 7        43.620                  
  20430737.820 8 107364394.360 8       844.931 8        50.372                  
 02  5 18 00 02 17.0000000  0  5G01G10G23G07G08                                 
  23702931.353 7 124559974.315 7      3409.349 7        43.984                  
  21328462.273 8 112081855.388 8      -871.664 8        51.392                  
  23051974.193 6 121130018.457 6     -2827.443 6        39.715                  
  24996025.469 7 131351398.282 7     -1875.918 7        42.396                  
  20430593.259 8 107363549.856 8       842.541 8        48.505                  
 02  5 18 00 02 19.0000000  0  7G01G10G23G27G16G07G08                           
  23701634.580 6 124553176.630 6      3387.639 6        39.795                  
  21328794.208 7 112083587.805 7      -857.084 7        45.760                  
  23053050.766 6 121135688.735 6     -2833.718 6        40.004                  
  20504871.554 8 107753838.712 8     -1443.540 8        52.624                  
  23538215.075 7 123694166.689 7     -3749.104 7        43.519                  
  24996739.176 7 131355170.512 7     -1883.473 7        42.129                  
  20430268.758 8 107361863.908 8       840.779 8        52.517                  
 02  5 18 00 02 20.0000000  0  7G01G10G23G27G16G07G08                           
  23700992.761 6 124549785.504 6      3391.363 6        40.885                  
  21328959.658 7 112084450.094 7      -863.837 7        45.963                  
  23053591.894 6 121138516.605 6     -2824.121 6        41.663                  
  20505142.091 8 107755281.237 8     -1442.745 8        52.419                  
  23538928.763 7 123697920.949 7     -3753.675 7        45.931                  
  24997098.129 7 131357064.225 7     -1911.175 7        42.278                  
  20430120.302 8 107361022.703 8       840.697 8        53.722                  
 02  5 18 00 02 21.0000000  0  7G01G10G23G27G16G07G08                           
  23700346.045 6 124546402.271 6      3383.216 6        39.181                  
  21329123.767 7 112085307.814 7      -851.245 7        44.414                  
  23054129.340 6 121141337.493 6     -2815.883 6        41.596                  
  20505415.755 8 107756722.193 8     -1442.355 8        50.943                  
  23539654.871 7 123701678.302 7     -3763.531 7        45.625                  
  24997460.548 6 131358964.820 6     -1901.343 6        39.920                  
  20429959.535 8 107360184.205 8       839.282 8        49.901                  
 02  5 18 00 02 22.0000000  0  7G01G10G23G27G16G07G08                           
  23699704.082 6 124543024.495 6      3372.704 6        39.986                  
  21329285.106 7 112086163.332 7      -852.479 7        44.906                  
  23054664.535 7 121144154.739 7     -2819.531 7        42.664                  
  20505689.973 8 107758162.374 8     -1441.353 8        51.052                  
  23540356.427 7 123705436.879 7     -3757.257 7        46.302                  
  24997824.201 6 131360870.327 6     -1904.619 6        40.161                  
  20429803.574 8 107359346.854 8       836.626 8        52.885                  
 02  5 18 00 02 23.0000000  0  7G01G10G23G27G16G07G08                           
  23699059.993 6 124539651.972 6      3371.705 6        40.610                  
  21329449.466 7 112087016.349 7      -853.822 7        45.358                  
  23055203.965 7 121146968.267 7     -2813.249 7        44.178                  
  20505968.176 8 107759601.726 8     -1437.702 8        50.907                  
  23541075.155 7 123709196.802 7     -3758.652 7        46.680                  
  24998183.243 6 131362782.996 6     -1920.284 6        40.770                  
  20429646.594 8 107358511.399 8       833.420 8        52.481                  
 02  5 18 00 02 24.0000000  0  7G01G10G23G27G16G07G08                           
  23698421.426 6 124536288.986 6      3364.817 6        38.551                  
  21329609.232 7 112087864.511 7      -848.654 7        43.293                  
  23055734.908 6 121149775.321 6     -2798.717 6        41.845                  
  20506244.699 8 107761038.716 8     -1436.580 8        49.347                  
  23541796.884 7 123712957.984 7     -3759.995 7        45.391                  
  24998551.470 6 131364703.102 6     -1929.099 6        39.126                  
  20429485.398 8 107357678.957 8       826.999 8        48.850                  
 02  5 18 00 02 25.0000000  0  6G01G10G27G16G07G08                              
  23697782.323 6 124532932.909 6      3358.803 6        38.450                  
  21329769.714 7 112088708.209 7      -837.435 7        43.373                  
  20506518.113 7 107762473.282 7     -1428.496 7        47.678                  
  23542495.045 7 123716719.516 7     -3762.224 7        46.368                  
  24998920.233 6 131366626.531 6     -1924.825 6        37.414                  
  20429329.169 8 107356849.095 8       829.640 8        48.288                  
 02  5 18 00 02 26.0000000  0  6G01G10G27G16G07G08                              
  23697144.220 6 124529584.433 6      3350.965 6        39.002                  
  21329929.499 7 112089548.812 7      -843.948 7        44.687                  
  20506786.094 7 107763903.971 7     -1431.360 7        45.240                  
  23543224.941 7 123720473.247 7     -3745.915 7        42.144                  
  24999288.049 6 131368562.721 6     -1933.301 6        36.912                  
  20429171.546 7 107356022.966 7       825.901 7        46.531                  
 02  5 18 00 02 27.0000000  0  6G01G10G27G16G07G08                              
  23696508.976 7 124526231.557 7      3357.088 7        44.079                  
  21330090.284 8 112090393.771 8      -844.867 8        48.160                  
  20507055.148 7 107765330.811 7     -1428.926 7        44.050                  
  23543931.732 5 123724204.626 5     -3735.483 5        35.927                  
  24999655.579 6 131370505.977 6     -1942.444 6        38.957                  
  20429013.548 7 107355200.626 7       823.332 7        46.563                  
 02  5 18 00 02 28.0000000  0  6G01G10G27G16G07G08                              
  23695868.175 6 124522867.250 6      3369.594 6        37.816                  
  21330251.106 7 112091246.559 7      -855.662 7        42.172                  
  20507329.331 7 107766755.387 7     -1426.082 7        46.850                  
  23544640.400 5 123727913.365 5     -3687.865 5        34.571                  
  25000029.274 7 131372451.235 7     -1937.743 7        43.345                  
  20428856.909 8 107354380.446 8       821.177 8        49.982                  
 02  5 18 00 02 29.0000000  0  6G01G10G27G16G07G08                              
  23695225.909 5 124519493.413 5      3383.064 5        35.988                  
  21330414.697 6 112092107.163 6      -859.563 6        40.293                  
  20507603.888 8 107768178.483 8     -1423.785 8        49.491                  
  23545343.778 5 123731601.609 5     -3688.663 5        34.303                  
  25000398.752 7 131374394.279 7     -1941.824 7        42.964                  
  20428697.356 8 107353562.273 8       819.231 8        49.552                  
 02  5 18 00 02 30.0000000  0  6G01G10G27G16G07G08                              
  23694583.607 6 124516114.036 6      3391.164 6        39.530                  
  21330578.109 7 112092969.916 7      -863.491 7        45.652                  
  20507875.604 8 107769601.569 8     -1423.512 8        53.470                  
  23546041.760 6 123735286.334 6     -3686.153 6        36.941                  
  25000774.859 7 131376336.170 7     -1945.016 7        44.568                  
  20428541.502 8 107352744.488 8       817.952 8        53.167                  
 02  5 18 00 02 31.0000000  0  4G10G27G16G08                                    
  21330744.148 9 112093833.547 9      -863.454 9        54.236                  
  20508142.389 8 107771025.297 8     -1424.067 8        53.567                  
  23546744.191 8 123738970.349 8     -3682.535 8        48.655                  
  20428386.524 9 107351927.186 9       817.135 9        56.194                  
 02  5 18 00 02 32.0000000  0  4G10G27G16G08                                    
  21330909.061 8 112094697.754 8      -864.718 8        52.878                  
  20508410.389 8 107772449.419 8     -1425.518 8        52.407                  
  23547445.908 8 123742654.468 8     -3684.880 8        52.447                  
  20428231.046 9 107351110.411 9       816.692 9        56.223                  
 02  5 18 00 02 33.0000000  0  4G10G27G16G08                                    
  21331074.546 8 112095562.557 8      -866.006 8        52.616                  
  20508683.052 8 107773874.017 8     -1425.240 8        50.295                  
  23548145.748 8 123746338.786 8     -3684.515 8        51.656                  
  20428073.727 9 107350294.116 9       815.895 9        55.954                  
 02  5 18 00 02 34.0000000  0  4G10G27G16G08                                    
  21331240.067 8 112096427.910 8      -864.079 8        53.764                  
  20508958.414 8 107775299.158 8     -1430.499 8        51.716                  
  23548848.215 8 123750023.269 8     -3684.594 8        50.746                  
  20427916.694 9 107349478.308 9       814.929 9        56.928                  
 02  5 18 00 02 35.0000000  0  4G10G27G16G08                                    
  21331405.284 8 112097293.818 8      -865.097 8        53.870                  
  20509231.238 8 107776724.812 8     -1424.826 8        53.182                  
  23549549.539 8 123753707.956 8     -3682.773 8        50.689                  
  20427761.055 9 107348662.986 9       814.550 9        55.043                  
