     2.11           OBSERVATION DATA    G                   RINEX VERSION / TYPE
BLANK OR G = GPS,  R = GLONASS,  E = GALILEO,  M = MIXED    COMMENT             
GNSS-SDR            joel                17-APR-25 08:13     PGM / RUN BY / DATE 
GPS OBSERVATION DATA FILE GENERATED BY GNSS-SDR             COMMENT             
GNSS-SDR VERSION 0.0.16                                     COMMENT             
See https://gnss-sdr.org                                    COMMENT             
DEFAULT MARKER NAME                                         MARKER NAME         
joel                CTTC                                    OBSERVER / AGENCY   
GNSS-SDR            Software Receiver   0.0.16              REC # / TYPE / VERS 
Antenna number      Antenna type                            ANT # / TYPE        
        0.0000        0.0000        0.0000                  APPROX POSITION XYZ 
        0.0000        0.0000        0.0000                  ANTENNA: DELTA H/E/N
     1     1                                                WAVELENGTH FACT L1/2
     4    C1    L1    D1    S1                              # / TYPES OF OBSERV 
  2002    05    18    00    00   42.4800000     GPS         TIME OF FIRST OBS   
    18                                                      LEAP SECONDS        
                                                            END OF HEADER       
 02  5 18 00 00 43.0000000  0  7G01G16G23G21G10G07G08                           
  23763590.557 7 124878514.381 7      3399.696 7        46.684                  
  23471245.193 8 123342234.695 8     -3662.994 8        49.407                  
  23001127.174 8 120871736.352 8     -2818.484 8        49.979                  
  21783585.538 8 114473506.344 8      1786.636 8        53.259                  
  21313658.681 9 112004038.667 9      -798.336 9        54.379                  
  24961618.648 7 131174190.514 7     -1906.865 7        45.638                  
  20445704.806 9 107442919.360 9       868.249 9        55.799                  
 02  5 18 00 00 44.0000000  0  7G01G16G23G21G10G07G08                           
  23762945.592 7 124875117.259 7      3394.655 7        46.770                  
  23471943.872 8 123345898.470 8     -3663.423 8        50.487                  
  23001664.817 8 120874555.620 8     -2818.304 8        50.206                  
  21783249.386 9 114471719.133 9      1786.419 9        54.226                  
  21313811.211 8 112004837.024 8      -799.526 8        53.914                  
  24961981.978 7 131176095.041 7     -1909.805 7        46.109                  
  20445541.823 9 107442051.516 9       867.789 9        56.826                  
 02  5 18 00 00 45.0000000  0  7G01G16G23G21G10G07G08                           
  23762299.002 7 124871720.311 7      3394.043 7        47.506                  
  23472640.764 8 123349562.442 8     -3662.072 8        50.281                  
  23002198.975 8 120877375.250 8     -2818.289 8        51.031                  
  21782906.712 8 114469932.232 8      1786.910 8        53.222                  
  21313963.044 9 112005636.022 9      -798.032 9        54.604                  
  24962342.718 7 131177999.923 7     -1904.898 7        46.789                  
  20445380.198 9 107441184.149 9       867.250 9        57.368                  
 02  5 18 00 00 46.0000000  0  7G01G16G23G21G10G07G08                           
  23761651.178 8 124868323.515 8      3395.471 8        48.418                  
  23473337.673 8 123353226.599 8     -3665.612 8        49.297                  
  23002736.511 8 120880195.292 8     -2822.643 8        50.575                  
  21782563.537 8 114468145.641 8      1786.830 8        53.633                  
  21314115.253 9 112006435.619 9      -799.383 9        54.144                  
  24962709.069 7 131179905.164 7     -1905.457 7        45.007                  
  20445215.695 9 107440317.259 9       866.660 9        56.301                  
 02  5 18 00 00 47.0000000  0  7G01G16G23G21G10G07G08                           
  23761005.713 7 124864926.872 7      3392.840 7        47.628                  
  23474035.637 8 123356890.951 8     -3665.559 8        50.481                  
  23003272.582 8 120883015.723 8     -2822.779 8        49.775                  
  21782227.278 8 114466359.352 8      1785.611 8        52.244                  
  21314268.462 8 112007235.812 8      -801.047 8        53.803                  
  24963068.415 7 131181810.745 7     -1907.415 7        45.944                  
  20445048.388 9 107439450.823 9       865.979 9        55.631                  
 02  5 18 00 00 48.0000000  0  7G01G16G23G21G10G07G08                           
  23760360.070 7 124861530.391 7      3396.518 7        47.345                  
  23474732.958 8 123360555.505 8     -3664.553 8        50.440                  
  23003811.941 8 120885836.546 8     -2822.510 8        50.773                  
  21781887.784 8 114464573.358 8      1785.159 8        52.284                  
  21314420.241 9 112008036.612 9      -801.060 9        56.881                  
  24963433.175 7 131183716.683 7     -1905.886 7        46.246                  
  20444880.991 9 107438584.862 9       864.952 9        57.922                  
 02  5 18 00 00 49.0000000  0  7G01G16G23G21G10G07G08                           
  23759712.085 8 124858134.070 8      3396.604 8        49.106                  
  23475429.671 8 123364220.251 8     -3667.135 8        50.710                  
  23004345.867 8 120888657.780 8     -2821.147 8        49.431                  
  21781545.575 8 114462787.662 8      1785.502 8        53.590                  
  21314573.540 9 112008838.055 9      -802.225 9        57.280                  
  24963795.095 7 131185622.983 7     -1907.315 7        46.815                  
  20444713.272 9 107437719.377 9       865.610 9        57.235                  
 02  5 18 00 00 50.0000000  0  7G01G16G23G21G10G07G08                           
  23759066.317 7 124854737.906 7      3396.991 7        47.096                  
  23476128.386 8 123367885.173 8     -3665.728 8        48.834                  
  23004883.850 8 120891479.407 8     -2822.126 8        49.601                  
  21781204.937 8 114461002.265 8      1787.111 8        53.307                  
  21314726.105 9 112009640.095 9      -801.909 9        56.270                  
  24964157.050 7 131187529.626 7     -1905.315 7        47.782                  
  20444545.267 9 107436854.361 9       864.884 9        58.656                  
 02  5 18 00 00 51.0000000  0  7G01G16G23G21G10G07G08                           
  23758421.549 7 124851341.921 7      3393.905 7        47.527                  
  23476824.849 8 123371550.307 8     -3665.762 8        50.497                  
  23005422.261 8 120894301.419 8     -2821.814 8        49.856                  
  21780869.375 8 114459217.167 8      1783.596 8        53.157                  
  21314878.993 9 112010442.732 9      -802.743 9        54.758                  
  24964522.918 7 131189436.629 7     -1906.597 7        47.333                  
  20444381.391 9 107435989.807 9       863.709 9        54.629                  
 02  5 18 00 00 52.0000000  0  7G01G16G23G21G10G07G08                           
  23757774.333 8 124847946.075 8      3397.190 8        48.305                  
  23477522.170 8 123375215.640 8     -3666.343 8        49.675                  
  23005957.206 8 120897123.815 8     -2822.246 8        51.387                  
  21780530.221 8 114457432.364 8      1784.978 8        51.520                  
  21315031.952 9 112011245.989 9      -804.183 9        54.026                  
  24964882.460 7 131191343.991 7     -1911.302 7        46.039                  
  20444219.229 9 107435125.730 9       864.520 9        56.363                  
 02  5 18 00 00 53.0000000  0  7G01G16G23G21G10G07G08                           
  23757127.188 7 124844550.402 7      3393.063 7        47.986                  
  23478220.813 8 123378881.143 8     -3662.367 8        49.493                  
  23006496.958 8 120899946.603 8     -2823.607 8        49.659                  
  21780186.153 8 114455647.858 8      1784.931 8        51.848                  
  21315184.857 9 112012049.876 9      -805.068 9        55.026                  
  24965249.365 7 131193251.699 7     -1908.637 7        46.796                  
  20444056.979 9 107434262.131 9       863.371 9        57.121                  
 02  5 18 00 00 54.0000000  0  7G01G16G23G21G10G07G08                           
  23756482.528 7 124841154.887 7      3394.703 7        46.979                  
  23478916.865 8 123382546.856 8     -3666.088 8        50.114                  
  23007032.225 8 120902769.776 8     -2824.017 8        50.439                  
  21779846.981 8 114453863.667 8      1783.999 8        53.865                  
  21315338.173 9 112012854.360 9      -805.104 9        54.013                  
  24965609.069 7 131195159.759 7     -1906.379 7        46.833                  
  20443895.210 9 107433399.008 9       863.128 9        54.943                  
 02  5 18 00 00 55.0000000  0  7G01G16G23G21G10G07G08                           
  23755836.723 8 124837759.521 8      3394.965 8        48.819                  
  23479614.704 8 123386212.755 8     -3667.160 8        49.606                  
  23007570.743 8 120905593.340 8     -2822.360 8        49.872                  
  21779511.615 8 114452079.796 8      1782.432 8        53.359                  
  21315491.221 9 112013659.441 9      -805.396 9        54.168                  
  24965973.597 7 131197068.174 7     -1908.904 7        47.055                  
  20443734.175 9 107432536.338 9       862.160 9        56.864                  
 02  5 18 00 00 56.0000000  0  7G01G16G23G21G10G07G08                           
  23755189.239 7 124834364.326 7      3392.404 7        46.773                  
  23480314.097 7 123389878.845 7     -3668.049 7        47.429                  
  23008107.922 8 120908417.322 8     -2824.772 8        51.900                  
  21779171.568 9 114450296.209 9      1782.481 9        54.233                  
  21315644.805 9 112014465.138 9      -806.164 9        54.590                  
  24966337.589 7 131198976.942 7     -1904.840 7        46.368                  
  20443571.674 9 107431674.145 9       861.569 9        56.021                  
 02  5 18 00 00 57.0000000  0  7G01G16G23G21G10G07G08                           
  23754544.650 8 124830969.292 8      3395.849 8        48.710                  
  23481009.506 7 123393545.124 7     -3663.732 7        47.421                  
  23008644.386 8 120911241.685 8     -2824.402 8        50.930                  
  21778828.089 8 114448512.933 8      1784.772 8        51.744                  
  21315798.336 9 112015271.470 9      -806.509 9        55.378                  
  24966698.364 7 131200886.067 7     -1912.637 7        45.965                  
  20443405.295 9 107430812.429 9       861.553 9        58.264                  
 02  5 18 00 00 58.0000000  0  7G01G16G23G21G10G07G08                           
  23753898.202 8 124827574.410 8      3397.125 8        48.504                  
  23481707.827 7 123397211.601 7     -3665.604 7        47.741                  
  23009182.940 8 120914066.446 8     -2825.137 8        50.078                  
  21778490.329 8 114446729.946 8      1783.034 8        51.992                  
  21315952.081 9 112016078.397 9      -806.609 9        55.502                  
  24967065.037 7 131202795.535 7     -1911.458 7        45.919                  
  20443239.113 9 107429951.189 9       861.865 9        56.998                  
 02  5 18 00 00 59.0000000  0  7G01G16G23G21G10G07G08                           
  23753251.076 8 124824179.701 8      3395.359 8        49.097                  
  23482406.274 8 123400878.275 8     -3666.557 8        48.522                  
  23009718.796 8 120916891.586 8     -2824.324 8        49.960                  
  21778154.999 8 114444947.266 8      1782.947 8        50.760                  
  21316105.969 9 112016885.921 9      -807.637 9        56.595                  
  24967425.347 7 131204705.368 7     -1910.931 7        44.697                  
  20443072.681 9 107429090.403 9       860.775 9        55.323                  
 02  5 18 00 01  0.0000000  0  7G01G16G23G21G10G07G08                           
  23752605.825 8 124820785.142 8      3397.673 8        49.842                  
  23483102.755 8 123404545.131 8     -3670.425 8        48.698                  
  23010258.709 8 120919717.103 8     -2826.585 8        51.590                  
  21777813.522 8 114443164.873 8      1780.439 8        52.409                  
  21316259.643 9 112017694.078 9      -807.977 9        57.439                  
  24967791.180 7 131206615.536 7     -1908.942 7        46.980                  
  20442905.695 9 107428230.093 9       859.875 9        57.006                  
 02  5 18 00 01  1.0000000  0  7G01G16G23G21G10G07G08                           
  23751959.914 8 124817390.741 8      3396.173 8        50.107                  
  23483801.166 8 123408212.186 8     -3665.098 8        49.381                  
  23010795.155 8 120922543.020 8     -2823.881 8        49.271                  
  21777470.294 8 114441382.790 8      1782.213 8        53.966                  
  21316414.138 9 112018502.852 9      -808.689 9        55.334                  
  24968153.278 7 131208526.075 7     -1912.297 7        47.399                  
  20442740.425 9 107427370.259 9       859.801 9        56.641                  
 02  5 18 00 01  2.0000000  0  7G01G16G23G21G10G07G08                           
  23751313.180 8 124813996.510 8      3395.810 8        49.064                  
  23484499.755 8 123411879.434 8     -3666.528 8        49.124                  
  23011333.263 8 120925369.329 8     -2824.886 8        50.199                  
  21777134.696 8 114439600.991 8      1782.070 8        50.745                  
  21316567.401 9 112019312.225 9      -810.838 9        54.345                  
  24968517.788 7 131210436.945 7     -1912.130 7        45.640                  
  20442578.621 9 107426510.904 9       858.932 9        57.193                  
 02  5 18 00 01  3.0000000  0  7G01G16G23G21G10G07G08                           
  23750667.930 8 124810602.432 8      3396.392 8        48.961                  
  23485196.022 8 123415546.857 8     -3666.903 8        51.018                  
  23011872.085 8 120928196.043 8     -2826.686 8        50.887                  
  21776798.651 8 114437819.515 8      1781.650 8        51.974                  
  21316721.039 9 112020122.192 9      -810.331 9        55.032                  
  24968882.030 7 131212348.184 7     -1910.559 7        44.744                  
  20442416.942 9 107425652.000 9       858.104 9        55.570                  
 02  5 18 00 01  4.0000000  0  7G01G16G23G21G10G07G08                           
  23750023.180 8 124807208.508 8      3390.088 8        49.268                  
  23485895.344 8 123419214.501 8     -3668.042 8        52.163                  
  23012407.602 8 120931023.149 8     -2826.597 8        53.064                  
  21776456.387 9 114436038.350 9      1780.680 9        54.058                  
  21316875.088 9 112020932.780 9      -810.880 9        54.674                  
  24969242.842 7 131214259.774 7     -1910.281 7        45.141                  
  20442255.888 9 107424793.575 9       858.148 9        56.759                  
 02  5 18 00 01  5.0000000  0  7G01G16G23G21G10G07G08                           
  23749375.856 8 124803814.766 8      3389.047 8        48.139                  
  23486593.469 8 123422882.316 8     -3666.011 8        49.209                  
  23012947.782 8 120933850.640 8     -2827.707 8        51.188                  
  21776115.429 8 114434257.482 8      1779.828 8        53.745                  
  21317028.833 9 112021743.999 9      -812.003 9        56.111                  
  24969609.996 7 131216171.713 7     -1912.792 7        45.784                  
  20442094.638 9 107423935.625 9       858.151 9        56.298                  
 02  5 18 00 01  6.0000000  0  7G01G16G23G21G10G07G08                           
  23748729.552 8 124800421.169 8      3392.093 8        48.427                  
  23487290.468 8 123426550.329 8     -3664.422 8        48.789                  
  23013485.015 8 120936678.498 8     -2827.003 8        48.880                  
  21775779.938 8 114432476.913 8      1779.896 8        52.030                  
  21317182.703 9 112022555.814 9      -812.129 9        56.325                  
  24969970.879 7 131218083.992 7     -1910.492 7        46.430                  
  20441934.710 9 107423078.154 9       857.032 9        57.027                  
 02  5 18 00 01  7.0000000  0  7G01G16G23G21G10G07G08                           
  23748085.463 8 124797027.723 8      3392.592 8        49.177                  
  23487989.665 8 123430218.541 8     -3668.269 8        50.152                  
  23014023.247 8 120939506.762 8     -2827.343 8        48.925                  
  21775443.035 8 114430696.640 8      1779.828 8        52.923                  
  21317336.662 9 112023368.226 9      -813.274 9        54.949                  
  24970337.462 7 131219996.640 7     -1914.433 7        46.142                  
  20441772.817 9 107422221.146 9       856.574 9        57.068                  
 02  5 18 00 01  8.0000000  0  7G01G16G23G21G10G07G08                           
  23747438.568 8 124793634.467 8      3393.928 8        48.889                  
  23488687.432 8 123433886.933 8     -3666.721 8        50.799                  
  23014562.427 8 120942335.417 8     -2828.541 8        49.933                  
  21775100.897 8 114428916.669 8      1778.966 8        52.584                  
  21317491.408 9 112024181.271 9      -813.296 9        57.848                  
  24970700.025 8 131221909.639 8     -1914.163 8        48.190                  
  20441607.314 9 107421364.601 9       857.239 9        58.693                  
 02  5 18 00 01  9.0000000  0  7G01G16G23G21G10G07G08                           
  23746792.532 8 124790241.353 8      3391.224 8        48.028                  
  23489384.413 8 123437555.528 8     -3667.219 8        48.443                  
  23015099.338 8 120945164.476 8     -2829.958 8        50.448                  
  21774760.492 8 114427136.990 8      1780.313 8        53.912                  
  21317645.475 9 112024994.930 9      -813.810 9        55.602                  
  24971064.445 8 131223822.982 8     -1912.736 8        48.040                  
  20441442.580 9 107420508.537 9       855.923 9        57.489                  
 02  5 18 00 01 10.0000000  0  7G01G16G23G21G10G07G08                           
  23746148.782 8 124786848.394 8      3397.262 8        49.664                  
  23490083.825 8 123441224.312 8     -3669.609 8        49.564                  
  23015639.447 8 120947993.930 8     -2828.592 8        50.119                  
  21774425.144 8 114425357.613 8      1779.872 8        53.374                  
  21317800.560 9 112025809.190 9      -814.380 9        54.984                  
  24971429.760 8 131225736.682 8     -1914.152 8        48.425                  
  20441277.541 9 107419652.949 9       855.830 9        56.887                  
 02  5 18 00 01 11.0000000  0  7G01G16G23G21G10G07G08                           
  23745502.299 7 124783455.614 7      3393.349 7        47.541                  
  23490781.896 8 123444893.279 8     -3669.680 8        50.920                  
  23016176.500 8 120950823.753 8     -2827.748 8        50.590                  
  21774088.474 8 114423578.533 8      1779.056 8        51.793                  
  21317955.324 9 112026624.045 9      -815.053 9        56.145                  
  24971791.822 8 131227650.729 8     -1913.670 8        48.145                  
  20441111.842 9 107418797.837 9       854.971 9        57.310                  
 02  5 18 00 01 12.0000000  0  7G01G16G23G21G10G07G08                           
  23744855.887 8 124780062.977 8      3389.539 8        49.999                  
  23491479.467 8 123448562.446 8     -3669.312 8        51.404                  
  23016715.734 8 120953653.963 8     -2829.950 8        50.663                  
  21773745.228 8 114421799.764 8      1779.356 8        53.134                  
  21318109.748 9 112027439.519 9      -816.640 9        57.107                  
  24972158.744 7 131229565.130 7     -1918.454 7        47.876                  
  20440946.553 9 107417943.178 9       854.478 9        57.350                  
 02  5 18 00 01 13.0000000  0  7G01G16G23G21G10G07G08                           
  23744211.298 8 124776670.505 8      3391.713 8        48.966                  
  23492178.503 8 123452231.792 8     -3669.395 8        50.377                  
  23017255.253 8 120956484.562 8     -2828.607 8        50.185                  
  21773406.360 8 114420021.306 8      1778.243 8        52.767                  
  21318266.030 9 112028255.629 9      -816.409 9        56.970                  
  24972519.055 7 131231479.871 7     -1913.301 7        46.490                  
  20440784.410 9 107417088.995 9       854.123 9        56.040                  
 02  5 18 00 01 14.0000000  0  7G01G16G23G21G10G07G08                           
  23743565.815 8 124773278.202 8      3392.187 8        48.569                  
  23492876.288 8 123455901.338 8     -3670.833 8        49.976                  
  23017792.396 8 120959315.566 8     -2830.583 8        50.848                  
  21773072.709 8 114418243.155 8      1778.606 8        51.988                  
  21318421.151 9 112029072.330 9      -816.833 9        54.918                  
  24972887.390 7 131233394.973 7     -1915.977 7        46.568                  
  20440624.053 9 107416235.288 9       854.178 9        54.650                  
 02  5 18 00 01 15.0000000  0  7G01G16G23G21G10G07G08                           
  23742918.849 8 124769886.055 8      3390.615 8        48.705                  
  23493573.984 8 123459571.079 8     -3669.919 8        49.045                  
  23018333.863 8 120962146.968 8     -2830.897 8        50.297                  
  21772733.484 8 114416465.292 8      1778.187 8        52.843                  
  21318576.308 9 112029889.630 9      -817.226 9        55.308                  
  24973249.648 7 131235310.428 7     -1916.103 7        46.905                  
  20440463.804 9 107415382.060 9       853.195 9        55.707                  
 02  5 18 00 01 16.0000000  0  7G01G16G23G21G10G07G08                           
  23742273.813 8 124766494.061 8      3395.031 8        48.236                  
  23494273.932 8 123463240.995 8     -3672.089 8        49.590                  
  23018869.988 8 120964978.752 8     -2831.743 8        50.733                  
  21772392.310 8 114414687.739 8      1778.254 8        52.833                  
  21318731.358 9 112030707.537 9      -818.504 9        55.978                  
  24973615.820 7 131237226.229 7     -1915.940 7        46.184                  
  20440303.823 9 107414529.308 9       853.041 9        56.603                  
 02  5 18 00 01 17.0000000  0  7G01G16G23G21G10G07G08                           
  23741629.724 7 124763102.249 7      3388.895 7        46.926                  
  23494971.199 8 123466911.115 8     -3670.897 8        50.233                  
  23019409.257 8 120967810.905 8     -2834.098 8        50.227                  
  21772053.782 9 114412910.472 9      1777.477 9        54.416                  
  21318887.997 9 112031526.086 9      -819.215 9        56.122                  
  24973980.742 8 131239142.390 8     -1916.848 8        48.112                  
  20440143.252 9 107413677.011 9       852.010 9        57.662                  
 02  5 18 00 01 18.0000000  0  7G01G16G23G21G10G07G08                           
  23740983.956 7 124759710.579 7      3392.968 7        47.714                  
  23495669.449 8 123470581.416 8     -3672.516 8        49.396                  
  23019949.169 8 120970643.452 8     -2830.600 8        49.603                  
  21771719.292 8 114411133.520 8      1775.582 8        53.196                  
  21319043.780 9 112032345.234 9      -820.192 9        55.371                  
  24974342.553 7 131241058.889 7     -1914.788 7        47.696                  
  20439983.771 9 107412825.189 9       850.983 9        57.426                  
 02  5 18 00 01 19.0000000  0  7G01G16G23G21G10G07G08                           
  23740337.043 7 124756319.076 7      3392.726 7        47.749                  
  23496368.503 8 123474251.912 8     -3669.740 8        50.746                  
  23020485.776 8 120973476.406 8     -2832.119 8        50.267                  
  21771381.442 8 114409356.842 8      1774.968 8        52.674                  
  21319200.973 9 112033164.975 9      -819.750 9        54.667                  
  24974711.102 8 131242975.739 8     -1916.068 8        48.139                  
  20439822.199 9 107411973.844 9       850.792 9        56.584                  
 02  5 18 00 01 20.0000000  0  7G01G16G23G21G10G07G08                           
  23739693.741 7 124752927.993 7      3389.783 7        47.299                  
  23497066.682 8 123477922.472 8     -3671.973 8        50.065                  
  23021027.333 8 120976309.635 8     -2831.761 8        50.790                  
  21771039.554 8 114407580.700 8      1774.737 8        50.988                  
  21319357.971 8 112033985.156 8      -819.467 8        53.409                  
  24975072.396 7 131244893.290 7     -1918.368 7        47.201                  
  20439658.572 9 107411123.078 9       849.440 9        56.529                  
 02  5 18 00 01 21.0000000  0  7G01G16G23G21G10G07G08                           
  23739049.598 7 124749548.162 7      3372.027 7        46.234                  
  23497763.520 8 123481587.766 8     -3662.091 8        51.113                  
  23021565.190 8 120979138.163 8     -2824.341 8        51.663                  
  21770703.670 8 114405813.970 8      1759.530 8        51.078                  
  21319513.556 9 112034799.329 9      -808.229 9        55.025                  
  24975443.643 7 131246825.799 7     -1948.869 7        43.717                  
  20439496.053 9 107410277.159 9       841.470 9        57.232                  
 02  5 18 00 01 22.0000000  0  7G01G16G23G21G10G07G08                           
  23738408.064 6 124746186.877 6      3351.322 6        40.682                  
  23498461.698 8 123485244.088 8     -3652.575 8        50.606                  
  23022102.083 8 120981958.570 8     -2816.326 8        53.355                  
  21770373.861 7 114404062.617 7      1740.881 7        47.382                  
  21319666.551 8 112035603.003 8      -797.190 8        51.963                  
  24975812.835 7 131248783.061 7     -1970.195 7        44.967                  
  20439334.339 9 107409439.026 9       834.379 9        58.976                  
 02  5 18 00 01 23.0000000  0  7G01G16G23G21G10G07G08                           
  23737774.268 8 124742844.766 8      3334.375 8        50.123                  
  23499157.143 7 123488891.527 7     -3641.688 7        44.391                  
  23022635.741 7 120984770.895 7     -2809.642 7        46.712                  
  21770044.839 8 114402327.068 8      1728.543 8        52.038                  
  21319816.990 8 112036396.333 8      -787.306 8        48.901                  
  24976193.159 8 131250765.680 8     -1995.150 8        49.702                  
  20439173.750 9 107408608.670 9       826.768 9        56.916                  
 02  5 18 00 01 24.0000000  0  7G01G16G23G21G10G07G08                           
  23737141.222 8 124739516.637 8      3328.150 8        52.898                  
  23499845.618 7 123492532.168 7     -3637.558 7        43.701                  
  23023172.509 7 120987577.464 7     -2808.287 7        43.007                  
  21769713.744 9 114400603.248 9      1722.775 9        58.393                  
  21319967.072 8 112037181.787 8      -785.598 8        53.839                  
  24976570.713 7 131252766.815 7     -2008.416 7        45.415                  
  20439016.038 8 107407784.165 8       823.493 8        49.648                  
 02  5 18 00 01 25.0000000  0  7G01G16G23G21G10G07G08                           
  23736508.158 8 124736189.633 8      3326.004 8        49.682                  
  23500541.760 8 123496172.392 8     -3640.060 8        49.074                  
  23023704.595 8 120990383.925 8     -2805.639 8        48.298                  
  21769383.113 9 114398880.525 9      1722.800 9        59.271                  
  21320116.654 9 112037967.260 9      -786.231 9        57.175                  
  24976958.239 6 131254769.400 6     -2002.991 6        39.998                  
  20438858.094 8 107406960.526 8       823.330 8        48.366                  
 02  5 18 00 01 26.0000000  0  7G01G16G23G21G10G07G08                           
  23735873.737 7 124732861.666 7      3328.654 7        47.471                  
  23501230.682 8 123499812.056 8     -3641.606 8        48.365                  
  23024238.932 8 120993191.742 8     -2807.073 8        49.136                  
  21769056.378 8 114397157.438 8      1724.065 8        53.418                  
  21320266.324 9 112038753.952 9      -787.428 9        56.054                  
  24977333.524 7 131256772.071 7     -2001.697 7        46.303                  
  20438698.380 8 107406137.297 8       824.275 8        49.266                  
 02  5 18 00 01 27.0000000  0  7G01G16G23G21G10G07G08                           
  23735238.314 7 124729521.015 7      3347.515 7        44.826                  
  23501925.197 7 123503454.643 7     -3650.135 7        44.789                  
  23024776.879 7 120996007.708 7     -2831.902 7        44.781                  
  21768729.911 8 114395424.292 8      1739.454 8        48.983                  
  21320417.353 8 112039548.756 8      -799.634 8        51.848                  
  24977714.385 7 131258759.579 7     -1975.033 7        47.702                  
  20438541.633 7 107405310.138 7       834.800 7        47.119                  
 02  5 18 00 01 28.0000000  0  7G01G16G23G21G10G07G08                           
  23734600.908 6 124726156.971 6      3369.422 6        39.725                  
  23502620.767 6 123507101.965 6     -3655.639 6        39.623                  
  23025312.038 6 120998837.928 6     -2832.616 6        39.435                  
  21768398.083 7 114393673.226 7      1762.710 7        45.175                  
  21320572.010 7 112040358.325 7      -813.259 7        45.921                  
  24978082.665 7 131260719.746 7     -1948.952 7        45.412                  
  20438384.529 7 107404476.059 7       836.563 7        47.348                  
 02  5 18 00 01 29.0000000  0  7G01G16G23G21G10G07G08                           
  23733955.694 6 124722773.951 6      3379.331 6        37.288                  
  23503313.996 6 123510754.389 6     -3643.823 6        37.108                  
  23025855.024 6 121001679.538 6     -2840.266 6        37.000                  
  21768057.964 6 114391907.074 6      1767.302 6        41.673                  
  21320728.006 7 112041179.985 7      -828.753 7        42.383                  
  24978455.967 7 131262657.380 7     -1931.476 7        42.387                  
  20438225.977 8 107403635.692 8       839.996 8        48.107                  
 02  5 18 00 01 30.0000000  0  7G01G16G23G21G10G07G08                           
  23733310.175 5 124719379.912 5      3403.092 5        35.303                  
  23504007.421 5 123514391.470 5     -3640.064 5        35.422                  
  23026398.100 5 121004536.589 5     -2868.618 5        35.474                  
  21767719.239 6 114390134.657 6      1770.243 6        36.692                  
  21320886.880 6 112042008.491 6      -837.245 6        37.138                  
  24978821.192 6 131264591.131 6     -1940.630 6        37.126                  
  20438068.176 9 107402796.520 9       838.107 9        57.652                  
 02  5 18 00 01 31.0000000  0  7G01G16G23G21G10G07G08                           
  23732662.798 5 124715975.317 5      3406.765 5        35.273                  
  23504696.468 5 123518009.403 5     -3612.551 5        35.501                  
  23026942.229 5 121007410.547 5     -2880.111 5        35.398                  
  21767381.783 5 114388356.688 5      1790.334 5        35.200                  
  21321045.003 5 112042843.745 5      -828.010 5        35.392                  
  24979192.903 5 131266523.130 5     -1932.651 5        35.043                  
  20437910.732 9 107401959.344 9       835.597 9        54.172                  
 02  5 18 00 01 32.0000000  0  7G01G16G23G21G10G07G08                           
  23732014.778 5 124712575.487 5      3395.080 5        35.485                  
  23505385.069 5 123521626.044 5     -3618.895 5        35.768                  
  23027491.309 5 121010282.446 5     -2860.792 5        35.909                  
  21767048.829 5 114386582.660 5      1765.873 5        35.380                  
  21321205.074 5 112043676.892 5      -843.141 5        35.355                  
  24979558.664 5 131268461.237 5     -1952.299 5        34.779                  
  20437753.002 8 107401123.892 8       832.955 8        50.751                  
 02  5 18 00 01 33.0000000  0  7G01G16G23G21G10G07G08                           
  23731371.029 5 124709184.093 5      3395.393 5        35.910                  
  23506074.992 6 123525249.086 6     -3629.629 6        36.039                  
  23028030.596 6 121013146.145 6     -2867.067 6        36.072                  
  21766710.068 5 114384814.556 5      1762.013 5        35.957                  
  21321361.660 6 112044505.850 6      -828.646 6        36.136                  
  24979932.591 6 131270405.371 6     -1950.468 6        36.023                  
  20437596.004 8 107400289.972 8       832.577 8        53.583                  
 02  5 18 00 01 34.0000000  0  7G01G16G23G21G10G07G08                           
  23730728.852 6 124705801.339 6      3381.009 6        36.284                  
  23506764.772 6 123528877.286 6     -3627.976 6        36.158                  
  23028580.283 6 121016001.988 6     -2857.192 6        36.529                  
  21766370.736 6 114383052.564 6      1759.932 6        37.999                  
  21321516.709 6 112045330.460 6      -818.760 6        38.207                  
  24980301.801 6 131272356.662 6     -1950.850 6        39.545                  
  20437439.668 9 107399457.807 9       831.613 9        54.591                  
 02  5 18 00 01 35.0000000  0  7G01G16G23G21G10G07G08                           
  23730082.190 6 124702425.657 6      3380.403 6        36.703                  
  23507458.126 6 123532515.615 6     -3641.339 6        37.059                  
  23029122.840 6 121018848.750 6     -2849.404 6        37.240                  
  21766041.249 6 114381294.955 6      1749.665 6        38.516                  
  21321673.617 6 112046151.846 6      -815.370 6        39.230                  
  24980673.102 6 131274310.635 6     -1964.182 6        38.491                  
  20437281.849 8 107398625.534 8       831.013 8        52.876                  
 02  5 18 00 01 36.0000000  0  7G01G16G23G21G10G07G08                           
  23729444.015 6 124699059.460 6      3358.117 6        38.684                  
  23508152.999 6 123536157.449 6     -3646.355 6        39.351                  
  23029657.910 6 121021687.957 6     -2832.192 6        38.977                  
  21765709.868 6 114379544.330 6      1743.820 6        41.033                  
  21321828.202 7 112046968.228 7      -820.033 7        42.785                  
  24981046.832 6 131276273.465 6     -1969.971 6        40.985                  
  20437122.743 8 107397795.857 8       831.968 8        51.363                  
 02  5 18 00 01 38.0000000  0  7G01G16G23G21G10G07G08                           
  23728164.611 7 124692349.126 7      3348.387 7        46.638                  
  23509547.926 7 123543458.841 7     -3655.368 7        46.108                  
  23030735.716 7 121027344.609 7     -2821.111 7        47.361                  
  21765043.228 8 114376058.299 8      1735.245 8        52.698                  
  21322130.743 8 112048590.590 8      -809.745 8        49.226                  
  24981797.992 7 131280214.369 7     -1972.864 7        44.072                  
  20436807.677 8 107396139.431 8       827.259 8        53.021                  
 02  5 18 00 01 39.0000000  0  7G01G16G23G21G10G07G08                           
  23727539.714 7 124689002.309 7      3349.487 7        42.071                  
  23510239.975 7 123547120.029 7     -3658.580 7        42.217                  
  23031271.929 6 121030162.943 6     -2819.293 6        41.813                  
  21764711.257 7 114374320.909 7      1733.076 7        45.709                  
  21322288.812 7 112049398.004 7      -803.921 7        46.466                  
  24982171.383 7 131282189.339 7     -1978.726 7        42.828                  
  20436648.928 8 107395311.898 8       828.222 8        52.862                  
 02  5 18 00 01 40.0000000  0  7G01G16G23G21G10G07G08                           
  23726891.872 6 124685658.919 6      3340.653 6        37.536                  
  23510935.831 6 123550787.448 6     -3670.974 6        39.932                  
  23031806.588 6 121032976.756 6     -2818.030 6        38.541                  
  21764384.201 6 114372585.290 6      1737.273 6        39.969                  
  21322442.003 6 112050204.217 6      -809.093 6        40.869                  
  24982546.150 6 131284164.907 6     -1980.870 6        38.616                  
  20436489.376 8 107394484.418 8       824.489 8        50.586                  
 02  5 18 00 01 41.0000000  0  7G01G16G23G21G10G07G08                           
  23726256.539 6 124682315.459 6      3324.571 6        36.526                  
  23511636.511 6 123554462.982 6     -3669.929 6        37.083                  
  23032341.962 6 121035787.179 6     -2804.222 6        37.004                  
  21764054.535 6 114370849.001 6      1732.566 6        38.576                  
  21322594.104 6 112051011.204 6      -806.551 6        39.287                  
  24982925.546 6 131286136.695 6     -1992.983 6        39.570                  
  20436329.430 8 107393655.438 8       827.518 8        51.925                  
 02  5 18 00 01 42.0000000  0  7G01G16G23G21G10G07G08                           
  23725624.190 6 124678979.460 6      3329.859 6        36.009                  
  23512333.939 6 123558146.950 6     -3695.773 6        36.504                  
  23032878.194 6 121038589.144 6     -2806.751 6        36.625                  
  21763723.243 6 114369117.494 6      1737.683 6        36.650                  
  21322749.207 6 112051814.613 6      -797.681 6        37.016                  
  24983295.416 6 131288112.692 6     -1976.255 6        37.281                  
  20436168.466 7 107392826.868 7       827.726 7        46.887                  
 02  5 18 00 01 43.0000000  0  7G01G16G23G21G10G07G08                           
  23724987.159 5 124675645.287 5      3326.947 5        35.865                  
  23513037.496 6 123561838.678 6     -3689.993 6        36.128                  
  23033406.920 6 121041386.653 6     -2800.382 6        36.187                  
  21763389.378 5 114367386.767 5      1734.660 5        35.796                  
  21322901.773 6 112052617.667 6      -805.284 6        36.014                  
  24983678.099 6 131290087.001 6     -1980.424 6        36.419                  
  20436010.683 7 107391997.852 7       828.001 7        44.951                  
 02  5 18 00 01 44.0000000  0  7G01G16G23G21G10G07G08                           
  23724351.916 5 124672316.251 5      3338.339 5        35.522                  
  23513740.571 5 123565539.489 5     -3711.566 5        35.712                  
  23033940.454 5 121044176.952 5     -2776.981 5        35.707                  
  21763061.678 5 114365658.997 5      1723.572 5        35.507                  
  21323054.232 5 112053418.527 5      -797.880 5        35.651                  
  24984052.974 5 131292062.723 5     -1966.749 5        35.759                  
  20435851.577 9 107391168.260 9       830.284 9        56.794                  
 02  5 18 00 01 45.0000000  0  7G01G16G23G21G10G07G08                           
  23723716.332 5 124668986.078 5      3336.322 5        35.248                  
  23514446.004 5 123569245.318 5     -3702.156 5        35.359                  
  23034473.683 5 121046966.212 5     -2786.989 5        35.438                  
  21762736.945 5 114363929.960 5      1724.039 5        35.801                  
  21323206.708 6 112054220.808 6      -803.312 6        36.126                  
  24984430.064 5 131294035.066 5     -1967.407 5        35.706                  
  20435692.971 8 107390338.022 8       831.525 8        52.677                  
 02  5 18 00 01 46.0000000  0  7G01G16G23G21G10G07G08                           
  23723084.805 6 124665649.893 6      3332.839 6        36.413                  
  23515149.579 5 123572949.598 5     -3693.558 5        35.093                  
  23035004.214 5 121049760.901 5     -2809.827 5        35.352                  
  21762405.867 6 114362196.739 6      1734.101 6        39.772                  
  21323360.828 6 112055027.292 6      -806.243 6        39.860                  
  24984800.971 7 131296001.762 7     -1965.598 7        42.153                  
  20435535.438 8 107389506.694 8       836.536 8        50.061                  
 02  5 18 00 01 47.0000000  0  7G01G16G23G21G10G07G08                           
  23722449.312 6 124662294.038 6      3355.741 6        38.773                  
  23515853.886 5 123576637.004 5     -3672.397 5        35.085                  
  23035552.186 6 121052577.708 6     -2827.907 6        41.899                  
  21762072.860 6 114360450.695 6      1750.500 6        41.043                  
  21323516.396 7 112055845.939 7      -825.989 7        43.975                  
  24985175.970 6 131297956.101 6     -1960.343 6        36.347                  
  20435379.584 7 107388674.468 7       827.669 7        43.164                  
 02  5 18 00 01 48.0000000  0  7G01G16G23G21G10G07G08                           
  23721810.583 6 124658938.250 6      3356.116 6        37.207                  
  23516549.688 5 123580313.569 5     -3670.902 5        35.218                  
  23036073.461 7 121055400.511 7     -2819.449 7        44.473                  
  21761738.567 6 114358706.270 6      1743.194 6        38.203                  
  21323671.946 6 112056665.101 6      -816.204 6        41.250                  
  24985544.626 5 131299916.152 5     -1981.771 5        34.912                  
  20435221.426 6 107387845.057 6       832.136 6        40.773                  
 02  5 18 00 01 49.0000000  0  7G01G16G23G21G10G07G08                           
  23721175.393 6 124655600.097 6      3326.343 6        41.609                  
  23517248.814 6 123583977.583 6     -3663.257 6        37.507                  
  23036619.360 7 121058217.353 7     -2815.811 7        46.431                  
  21761408.597 7 114356976.743 7      1719.286 7        42.541                  
  21323822.921 7 112057474.532 7      -803.115 7        46.971                  
  24985927.952 6 131301901.522 6     -1977.246 6        37.536                  
  20435069.342 7 107387023.934 7       814.905 7        46.105                  
 02  5 18 00 01 50.0000000  0  7G01G16G23G21G10G07G08                           
  23720537.594 7 124652277.265 7      3323.557 7        43.066                  
  23517943.043 7 123587629.474 7     -3654.053 7        42.325                  
  23037148.229 7 121061030.143 7     -2809.769 7        44.700                  
  21761092.137 8 114355260.642 8      1715.191 8        48.078                  
  21323982.241 8 112058275.454 8      -796.331 8        51.598                  
  24986314.263 6 131303909.252 6     -2012.082 6        41.850                  
  20434916.366 9 107386209.949 9       812.280 9        54.774                  
 02  5 18 00 01 51.0000000  0  7G01G16G23G21G10G07G08                           
  23719909.444 6 124648957.118 6      3322.762 6        41.378                  
  23518636.040 7 123591278.319 7     -3645.257 7        44.909                  
  23037685.944 6 121063843.227 6     -2818.338 6        41.983                  
  21760764.508 7 114353547.215 7      1718.630 7        44.530                  
  21324130.912 7 112059075.346 7      -793.272 7        46.747                  
  24986689.977 6 131305922.190 6     -2012.540 6        40.905                  
  20434756.063 8 107385398.260 8       807.091 8        51.294                  
 02  5 18 00 01 52.0000000  0  7G01G16G23G21G10G07G08                           
  23719278.989 6 124645636.660 6      3321.131 6        36.644                  
  23519328.679 7 123594926.420 7     -3649.696 7        46.330                  
  23038219.423 6 121066657.523 6     -2822.074 6        38.329                  
  21760435.879 6 114351833.773 6      1707.631 6        38.236                  
  21324282.227 6 112059876.277 6      -804.471 6        39.750                  
  24987069.247 6 131307935.166 6     -2018.127 6        36.081                  
  20434605.749 7 107384586.890 7       812.075 7        44.895                  
 02  5 18 00 01 53.0000000  0  7G01G16G23G21G10G07G08                           
  23718641.691 5 124642306.663 5      3353.931 5        35.100                  
  23520027.000 7 123598576.115 7     -3655.878 7        45.524                  
  23038756.280 6 121069477.988 6     -2823.716 6        36.579                  
  21760103.855 5 114350113.124 5      1735.579 5        35.884                  
  21324436.079 6 112060683.421 6      -812.629 6        37.114                  
  24987455.236 5 131309937.379 5     -2012.198 5        34.983                  
  20434451.539 7 107383772.980 7       820.515 7        42.074                  
 02  5 18 00 01 54.0000000  0  7G01G16G23G21G10G07G08                           
  23718003.159 5 124638954.037 5      3374.042 5        35.126                  
  23520719.425 8 123602229.661 8     -3655.997 8        49.650                  
  23039296.068 6 121072312.931 6     -2841.238 6        37.182                  
  21759772.241 6 114348374.895 6      1746.450 6        36.421                  
  21324593.255 6 112061504.819 6      -834.543 6        37.945                  
  24987826.411 5 131311913.562 5     -1954.974 5        34.826                  
  20434295.900 7 107382952.413 7       826.229 7        43.308                  
 02  5 18 00 01 55.0000000  0  7G01G16G23G21G10G07G08                           
  23717362.805 5 124635577.857 5      3384.421 5        35.262                  
  23521418.247 6 123605888.967 6     -3669.184 6        39.396                  
  23039836.391 5 121075161.974 5     -2856.558 5        35.721                  
  21759441.861 6 114346618.331 6      1765.463 6        37.285                  
  21324754.326 6 112062340.839 6      -834.498 6        38.728                  
  24988199.623 6 131313861.974 6     -1935.428 6        36.252                  
  20434141.047 8 107382124.347 8       831.034 8        50.913                  
 02  5 18 00 01 56.0000000  0  6G01G16G23G21G10G08                              
  23716718.537 5 124632187.138 5      3394.027 5        34.826                  
  23522113.923 5 123609545.397 5     -3639.117 5        35.872                  
  23040382.326 5 121078022.854 5     -2877.022 5        35.135                  
  21759107.835 6 114344851.282 6      1775.155 6        36.455                  
  21324915.648 6 112063186.145 6      -854.498 6        37.358                  
  20433984.478 8 107381293.779 8       829.828 8        49.466                  
 02  5 18 00 01 57.0000000  0  6G01G16G23G21G10G08                              
  23716068.730 5 124628774.729 5      3415.307 5        35.634                  
  23522804.472 6 123613182.242 6     -3629.282 6        38.078                  
  23040930.672 5 121080908.582 5     -2888.400 5        35.602                  
  21758765.340 6 114343070.361 6      1784.045 6        36.979                  
  21325078.988 6 112064044.698 6      -859.410 6        38.210                  
  20433826.695 8 107380461.853 8       828.747 8        48.482                  
 02  5 18 00 01 58.0000000  0  5G16G23G21G10G08                                 
  23523490.678 7 123616801.877 7     -3615.494 7        43.226                  
  23041495.530 7 121083819.183 7     -2918.886 7        43.833                  
  21758417.984 7 114341273.866 7      1804.911 7        42.882                  
  21325250.049 7 112064917.781 7      -880.053 7        45.068                  
  20433665.213 8 107379627.885 8       836.323 8        50.285                  
 02  5 18 00 01 59.0000000  0  5G16G23G21G10G08                                 
  23524181.012 6 123620415.464 6     -3612.635 6        38.288                  
  23042042.823 6 121086744.192 6     -2930.722 6        39.754                  
  21758081.081 7 114339466.525 7      1810.116 7        45.765                  
  21325414.908 7 112065800.655 7      -881.407 7        46.878                  
  20433504.123 9 107378791.443 9       836.258 9        54.563                  
 02  5 18 00 02  0.0000000  0  5G16G23G21G10G08                                 
  23524874.973 6 123624036.499 6     -3631.004 6        40.979                  
  23042601.069 7 121089666.545 7     -2915.246 7        44.469                  
  21757733.636 7 114337658.010 7      1808.995 7        45.920                  
  21325583.038 7 112066684.534 7      -883.891 7        46.382                  
  20433344.374 8 107377953.882 8       831.051 8        50.473                  
 02  5 18 00 02  1.0000000  0  5G16G23G21G10G08                                 
  23525556.033 8 123627673.600 8     -3640.747 8        48.840                  
  23043149.344 6 121092574.189 6     -2913.563 6        39.465                  
  21757391.552 6 114335856.268 6      1798.721 6        40.073                  
  21325745.396 6 112067562.914 6      -875.775 6        41.361                  
  20433183.017 7 107377116.052 7       842.085 7        46.717                  
 02  5 18 00 02  2.0000000  0  5G16G23G21G10G08                                 
  23526254.462 7 123631308.480 7     -3635.746 7        42.866                  
  23043705.106 7 121095493.894 7     -2926.804 7        44.768                  
  21757050.825 7 114334043.654 7      1819.289 7        44.799                  
  21325907.825 7 112068450.658 7      -894.046 7        46.799                  
  20433019.926 8 107376274.908 8       845.002 8        49.599                  
 02  5 18 00 02  3.0000000  0  5G16G23G21G10G08                                 
  23526947.566 6 123634945.901 6     -3641.965 6        40.060                  
  23044265.515 7 121098419.903 7     -2923.045 7        44.731                  
  21756711.778 7 114332223.275 7      1821.491 7        47.531                  
  21326088.231 8 112069345.466 8      -896.223 8        53.313                  
  20432858.551 8 107375431.256 8       841.042 8        49.567                  
 02  5 18 00 02  4.0000000  0  5G16G23G21G10G08                                 
  23527639.240 6 123638591.798 6     -3640.448 6        40.062                  
  23044820.330 7 121101343.638 7     -2922.106 7        44.526                  
  21756350.770 8 114330400.604 8      1821.516 8        48.658                  
  21326264.473 8 112070241.672 8      -898.038 8        51.989                  
  20432694.603 8 107374585.337 8       849.292 8        51.698                  
 02  5 18 00 02  5.0000000  0  5G16G23G21G10G08                                 
  23528336.417 7 123642247.949 7     -3663.631 7        42.771                  
  23045372.447 7 121104263.427 7     -2917.310 7        45.782                  
  21756018.585 8 114328576.508 8      1823.742 8        49.929                  
  21326394.542 8 112071139.303 8      -898.619 8        49.853                  
  20432533.067 9 107373737.659 9       849.322 9        54.593                  
 02  5 18 00 02  6.0000000  0  5G16G23G21G10G08                                 
  23529034.703 7 123645910.437 7     -3667.262 7        42.821                  
  23045935.321 7 121107180.337 7     -2913.079 7        46.066                  
  21755666.869 7 114326752.330 7      1822.578 7        45.611                  
  21326605.450 9 112072037.139 9      -897.308 9        54.980                  
  20432381.770 8 107372889.267 8       848.771 8        51.372                  
 02  5 18 00 02  7.0000000  0  5G16G23G21G10G08                                 
  23529730.934 6 123649577.191 6     -3662.370 6        41.081                  
  23046486.277 7 121110095.470 7     -2918.660 7        43.798                  
  21755312.741 8 114324928.582 8      1823.525 8        53.858                  
  21326774.705 8 112072935.562 8      -897.844 8        53.335                  
  20432221.253 8 107372040.452 8       849.242 8        52.666                  
 02  5 18 00 02  9.0000000  0  5G16G23G21G10G08                                 
  23531132.205 6 123656932.568 6     -3686.802 6        41.471                  
  23047595.514 7 121115913.373 7     -2900.297 7        43.918                  
  21754634.790 8 114321282.682 8      1821.810 8        50.243                  
  21327107.444 8 112074731.231 8      -898.601 8        51.255                  
  20431896.697 8 107370340.851 8       850.867 8        52.897                  
 02  5 18 00 02 11.0000000  0  5G16G23G21G10G08                                 
  23532537.103 6 123664316.601 6     -3702.937 6        40.643                  
  23048688.866 6 121121712.114 6     -2898.500 6        41.270                  
  21753926.015 7 114317643.037 7      1818.716 7        47.900                  
  21327454.854 7 112076523.317 7      -893.310 7        47.933                  
  20431572.893 9 107368639.790 9       850.374 9        56.271                  
 02  5 18 00 02 12.0000000  0  5G16G23G21G10G08                                 
  23533244.073 7 123668017.265 7     -3707.208 7        44.279                  
  23049248.417 6 121124604.895 6     -2886.139 6        39.042                  
  21753581.733 6 114315826.162 6      1810.603 6        41.112                  
  21327623.412 7 112077417.654 7      -892.767 7        42.523                  
  20431414.413 8 107367789.404 8       853.983 8        49.830                  
 02  5 18 00 02 13.0000000  0  5G16G23G21G10G08                                 
  23533948.935 7 123671726.003 7     -3712.397 7        46.742                  
  23049798.872 6 121127489.609 6     -2877.970 6        38.682                  
  21753236.450 6 114314013.712 6      1802.615 6        39.624                  
  21327794.472 6 112078308.549 6      -882.760 6        41.286                  
  20431250.750 7 107366939.670 7       854.556 7        47.714                  
 02  5 18 00 02 14.0000000  0  5G16G23G21G10G08                                 
  23534652.688 7 123675434.828 7     -3695.135 7        43.746                  
  23050339.714 7 121130363.046 7     -2867.242 7        42.772                  
  21752889.237 7 114312214.534 7      1793.836 7        45.690                  
  21327962.638 7 112079190.014 7      -875.845 7        47.245                  
  20431082.781 9 107366095.057 9       842.906 9        54.979                  
 02  5 18 00 02 15.0000000  0  5G16G23G21G10G08                                 
  23535359.212 7 123679147.840 7     -3709.905 7        45.415                  
  23050887.739 7 121133229.709 7     -2868.008 7        43.169                  
  21752554.389 7 114310420.987 7      1791.655 7        46.350                  
  21328128.176 8 112080067.335 8      -876.497 8        49.578                  
  20430921.496 9 107365252.349 9       842.546 9        55.993                  
 02  5 18 00 02 16.0000000  0  5G16G23G21G10G08                                 
  23536067.093 7 123682863.812 7     -3722.788 7        44.821                  
  23051430.242 7 121136093.065 7     -2864.131 7        42.534                  
  21752213.127 7 114308629.900 7      1788.179 7        46.433                  
  21328290.874 7 112080943.860 7      -874.693 7        47.443                  
  20430773.683 8 107364410.127 8       841.391 8        52.032                  
 02  5 18 00 02 17.0000000  0  5G16G23G21G10G08                                 
  23536773.598 6 123686582.580 6     -3721.593 6        38.238                  
  23051974.783 6 121138953.020 6     -2872.961 6        40.685                  
  21751867.468 8 114306841.556 8      1785.176 8        49.480                  
  21328460.719 8 112081818.367 8      -871.957 8        52.184                  
  20430599.514 8 107363568.892 8       841.749 8        49.551                  
 02  5 18 00 02 18.0000000  0  5G16G23G21G10G08                                 
  23537481.212 6 123690308.705 6     -3738.082 6        38.046                  
  23052521.325 6 121141805.739 6     -2849.892 6        39.768                  
  21751529.368 8 114305057.497 8      1783.904 8        48.456                  
  21328623.130 8 112082690.098 8      -869.070 8        49.763                  
  20430437.281 8 107362728.114 8       843.333 8        53.407                  
 02  5 18 00 02 19.0000000  0  5G16G23G21G10G08                                 
  23538199.582 7 123694052.639 7     -3749.796 7        44.473                  
  23053060.683 6 121144650.310 6     -2835.269 6        41.187                  
  21751193.038 7 114303271.568 7      1782.192 7        44.401                  
  21328790.992 7 112083562.246 7      -873.072 7        46.754                  
  20430287.002 8 107361883.994 8       843.902 8        53.542                  
 02  5 18 00 02 20.0000000  0  5G16G23G21G10G08                                 
  23538913.414 7 123697802.912 7     -3753.169 7        46.688                  
  23053599.184 7 121147486.365 7     -2842.872 7        42.447                  
  21750856.260 7 114301491.750 7      1780.940 7        45.940                  
  21328958.103 7 112084430.162 7      -864.395 7        46.947                  
  20430120.123 9 107361041.608 9       842.097 9        54.368                  
 02  5 18 00 02 21.0000000  0  5G16G23G21G10G08                                 
  23539615.434 7 123701555.589 7     -3745.848 7        46.501                  
  23054140.026 7 121150318.198 7     -2825.579 7        42.623                  
  21750515.123 7 114299715.718 7      1779.326 7        43.995                  
  21329123.159 7 112085295.654 7      -868.267 7        45.516                  
  20429964.681 8 107360200.194 8       838.812 8        50.798                  
 02  5 18 00 02 22.0000000  0  5G16G23G21G10G08                                 
  23540341.953 7 123705310.897 7     -3757.679 7        46.969                  
  23054675.167 7 121153145.315 7     -2820.089 7        43.727                  
  21750175.701 7 114297944.385 7      1764.749 7        44.543                  
  21329287.536 7 112086158.184 7      -863.241 7        45.968                  
  20429804.003 8 107359360.759 8       837.690 8        53.562                  
 02  5 18 00 02 23.0000000  0  5G16G23G21G10G08                                 
  23541054.784 7 123709068.846 7     -3759.145 7        47.421                  
  23055213.740 7 121155965.865 7     -2815.479 7        45.170                  
  21749844.212 7 114296179.000 7      1764.911 7        45.721                  
  21329451.056 7 112087016.400 7      -854.746 7        46.286                  
  20429646.987 8 107358523.314 8       834.921 8        53.008                  
 02  5 18 00 02 24.0000000  0  5G16G23G21G10G08                                 
  23541766.454 7 123712828.042 7     -3759.600 7        46.050                  
  23055751.669 7 121158783.177 7     -2820.283 7        42.846                  
  21749509.776 7 114294417.351 7      1764.130 7        43.269                  
  21329613.575 7 112087872.570 7      -851.346 7        44.380                  
  20429492.706 8 107357687.126 8       839.154 8        49.839                  
 02  5 18 00 02 25.0000000  0  6G16G23G21G10G07G08                              
  23542498.261 7 123716588.561 7     -3762.857 7        46.452                  
  23056284.720 6 121161596.183 6     -2803.693 6        41.505                  
  21749172.051 7 114292660.516 7      1753.439 7        42.023                  
  21329774.753 7 112088725.629 7      -854.141 7        44.553                  
  24998919.768 6 131369305.899 6     -1921.970 6        38.355                  
  20429334.458 8 107356853.064 8       830.816 8        49.371                  
 02  5 18 00 02 26.0000000  0  6G16G23G21G10G07G08                              
  23543198.995 7 123720350.332 7     -3756.953 7        42.924                  
  23056828.081 7 121164402.508 7     -2806.597 7        43.897                  
  21748838.222 7 114290911.064 7      1748.782 7        43.759                  
  21329934.502 7 112089573.850 7      -843.961 7        45.903                  
  24999289.193 6 131371230.769 6     -1926.240 6        37.796                  
  20429174.620 7 107356021.908 7       826.437 7        47.531                  
 02  5 18 00 02 27.0000000  0  6G16G23G21G10G07G08                              
  23543914.382 6 123724111.968 6     -3754.801 6        36.684                  
  23057351.661 6 121167203.559 6     -2800.037 6        39.645                  
  21748505.483 8 114289168.295 8      1741.003 8        48.797                  
  21330094.108 8 112090417.673 8      -844.117 8        48.877                  
  24999654.543 6 131373165.958 6     -1941.151 6        39.831                  
  20429015.300 7 107355193.565 7       823.396 7        47.539                  
 02  5 18 00 02 28.0000000  0  6G16G23G21G10G07G08                              
  23544630.429 5 123727861.865 5     -3747.754 5        35.350                  
  23057886.928 6 121170008.044 6     -2821.184 6        36.258                  
  21748179.874 7 114287429.973 7      1730.239 7        44.545                  
  21330255.519 7 112091259.565 7      -843.876 7        43.184                  
  25000027.183 7 131375110.884 7     -1950.590 7        43.875                  
  20428857.177 8 107354369.416 8       821.766 8        50.711                  
 02  5 18 00 02 29.0000000  0  6G16G23G21G10G07G08                              
  23545338.007 5 123731588.762 5     -3712.864 5        35.099                  
  23058421.712 5 121172829.828 5     -2833.855 5        35.562                  
  21747847.974 6 114285688.473 6      1747.594 6        41.789                  
  21330416.448 6 112092107.103 6      -855.224 6        41.440                  
  25000395.750 7 131377058.345 7     -1942.078 7        43.835                  
  20428700.680 8 107353548.298 8       819.136 8        50.371                  
 02  5 18 00 02 30.0000000  0  6G16G23G21G10G07G08                              
  23546040.134 6 123735293.222 6     -3694.780 6        38.065                  
  23058964.358 6 121175671.448 6     -2854.032 6        39.034                  
  21747511.304 7 114283940.305 7      1753.327 7        45.986                  
  21330578.770 7 112092962.808 7      -860.832 7        46.580                  
  25000769.748 7 131379003.657 7     -1945.313 7        45.422                  
  20428542.396 8 107352729.511 8       818.195 8        53.540                  
 02  5 18 00 02 31.0000000  0  6G16G23G21G10G07G08                              
  23546744.263 8 123738979.357 8     -3682.566 8        48.879                  
  23059507.201 8 121178530.167 8     -2862.647 8        48.668                  
  21747177.207 8 114282186.239 8      1754.713 8        50.826                  
  21330743.522 9 112093825.502 9      -863.201 9        54.407                  
  25001135.492 7 131380945.728 7     -1937.525 7        47.855                  
  20428386.524 9 107351912.196 9       817.173 9        56.247                  
 02  5 18 00 02 32.0000000  0  6G16G23G21G10G07G08                              
  23547445.908 8 123742663.476 8     -3684.814 8        52.446                  
  23060054.565 8 121181391.280 8     -2859.775 8        50.871                  
  21746847.291 8 114280431.598 8      1754.133 8        51.796                  
  21330908.721 8 112094689.707 8      -864.569 8        52.956                  
  25001508.150 7 131382887.914 7     -1944.170 7        47.253                  
  20428231.100 9 107351095.421 9       816.638 9        56.293                  
 02  5 18 00 02 33.0000000  0  6G16G23G21G10G07G08                              
  23548145.748 8 123746347.794 8     -3684.419 8        51.722                  
  23060599.571 8 121184252.790 8     -2860.250 8        50.519                  
  21746514.927 8 114278677.255 8      1753.828 8        53.647                  
  21331074.671 8 112095554.512 8      -865.969 8        52.692                  
  25001875.930 7 131384830.440 7     -1944.356 7        45.596                  
  20428073.763 9 107350279.126 9       815.909 9        55.922                  
 02  5 18 00 02 34.0000000  0  6G16G23G21G10G07G08                              
  23548848.251 8 123750032.277 8     -3684.551 8        50.727                  
  23061139.805 8 121187114.678 8     -2862.622 8        50.782                  
  21746178.079 9 114276923.204 9      1753.847 9        54.801                  
  21331240.067 8 112096419.880 8      -864.948 8        53.748                  
  25002245.926 8 131386773.324 8     -1947.236 8        49.132                  
  20427916.641 9 107349463.314 9       815.331 9        56.962                  
 02  5 18 00 02 35.0000000  0  6G16G23G21G10G07G08                              
  23549549.521 8 123753716.964 8     -3682.770 8        50.711                  
  23061687.544 8 121189976.970 8     -2862.473 8        50.628                  
  21745841.355 8 114275169.439 8      1753.630 8        53.408                  
  21331405.284 8 112097285.818 8      -865.099 8        53.904                  
  25002616.244 7 131388716.569 7     -1947.463 7        46.959                  
  20427761.055 9 107348647.986 9       814.551 9        55.066                  
