     2.11           OBSERVATION DATA    G                   RINEX VERSION / TYPE
BLANK OR G = GPS,  R = GLONASS,  E = GALILEO,  M = MIXED    COMMENT             
GNSS-SDR            joel                 5-MAY-25 07:23     PGM / RUN BY / DATE 
GPS OBSERVATION DATA FILE GENERATED BY GNSS-SDR             COMMENT             
GNSS-SDR VERSION 0.0.16                                     COMMENT             
See https://gnss-sdr.org                                    COMMENT             
DEFAULT MARKER NAME                                         MARKER NAME         
joel                CTTC                                    OBSERVER / AGENCY   
GNSS-SDR            Software Receiver   0.0.16              REC # / TYPE / VERS 
Antenna number      Antenna type                            ANT # / TYPE        
        0.0000        0.0000        0.0000                  APPROX POSITION XYZ 
        0.0000        0.0000        0.0000                  ANTENNA: DELTA H/E/N
     1     1                                                WAVELENGTH FACT L1/2
     4    C1    L1    D1    S1                              # / TYPES OF OBSERV 
  2002    05    18    00    00   42.3400000     GPS         TIME OF FIRST OBS   
    18                                                      LEAP SECONDS        
                                                            END OF HEADER       
 02  5 18 00 00 43.0000000  0  7G01G23G21G10G16G07G08                           
  23763590.557 7 124878513.381 7      3399.658 7        46.685                  
  23001127.120 8 120871744.352 8     -2818.427 8        49.977                  
  21783585.556 8 114473525.344 8      1786.659 8        53.264                  
  21313658.628 9 112004045.667 9      -798.322 9        54.379                  
  23471245.318 8 123342228.695 8     -3662.955 8        49.408                  
  24961618.666 7 131174205.514 7     -1906.861 7        45.648                  
  20445704.806 9 107442938.360 9       868.245 9        55.798                  
 02  5 18 00 00 44.0000000  0  7G01G23G21G10G16G07G08                           
  23762945.646 7 124875116.259 7      3394.709 7        46.775                  
  23001664.781 8 120874563.620 8     -2818.295 8        50.207                  
  21783249.386 9 114471738.133 9      1786.416 9        54.225                  
  21313811.176 8 112004844.024 8      -799.546 8        53.925                  
  23471943.979 8 123345892.470 8     -3663.463 8        50.498                  
  24961982.050 7 131176110.041 7     -1909.758 7        46.111                  
  20445541.823 9 107442070.516 9       867.788 9        56.823                  
 02  5 18 00 00 45.0000000  0  7G01G23G21G10G16G07G08                           
  23762299.020 7 124871719.310 7      3394.050 7        47.506                  
  23002198.940 8 120877383.250 8     -2818.291 8        51.047                  
  21782906.747 8 114469951.232 8      1786.935 8        53.221                  
  21313963.009 9 112005643.022 9      -798.024 9        54.605                  
  23472640.942 8 123349556.442 8     -3662.052 8        50.284                  
  24962342.718 7 131178014.923 7     -1904.918 7        46.797                  
  20445380.215 9 107441203.149 9       867.240 9        57.367                  
 02  5 18 00 00 46.0000000  0  7G01G23G21G10G16G07G08                           
  23761651.250 8 124868322.515 8      3395.413 8        48.422                  
  23002736.494 8 120880203.292 8     -2822.655 8        50.578                  
  21782563.591 8 114468164.641 8      1786.859 8        53.641                  
  21314115.217 9 112006442.619 9      -799.385 9        54.139                  
  23473337.638 8 123353220.599 8     -3665.620 8        49.297                  
  24962709.069 7 131179920.164 7     -1905.527 7        45.003                  
  20445215.677 9 107440336.259 9       866.657 9        56.303                  
 02  5 18 00 00 47.0000000  0  7G01G23G21G10G16G07G08                           
  23761005.749 7 124864925.872 7      3392.825 7        47.630                  
  23003272.511 8 120883023.723 8     -2822.778 8        49.777                  
  21782227.296 8 114466378.352 8      1785.596 8        52.254                  
  21314268.426 8 112007242.812 8      -801.054 8        53.805                  
  23474035.762 8 123356884.951 8     -3665.607 8        50.499                  
  24963068.451 7 131181825.745 7     -1907.404 7        45.938                  
  20445048.388 9 107439469.823 9       865.998 9        55.627                  
 02  5 18 00 00 48.0000000  0  7G01G23G21G10G16G07G08                           
  23760360.123 7 124861529.391 7      3396.569 7        47.362                  
  23003811.887 8 120885844.546 8     -2822.545 8        50.782                  
  21781887.784 8 114464592.358 8      1785.174 8        52.287                  
  21314420.188 9 112008043.612 9      -801.065 9        56.888                  
  23474732.958 8 123360549.505 8     -3664.554 8        50.448                  
  24963433.193 7 131183731.684 7     -1905.933 7        46.249                  
  20444880.991 9 107438603.862 9       864.958 9        57.933                  
 02  5 18 00 00 49.0000000  0  7G01G23G21G10G16G07G08                           
  23759712.139 8 124858133.070 8      3396.768 8        49.099                  
  23004345.813 8 120888665.780 8     -2821.048 8        49.419                  
  21781545.610 8 114462806.662 8      1785.497 8        53.598                  
  21314573.522 9 112008845.055 9      -802.222 9        57.283                  
  23475429.636 8 123364214.251 8     -3667.130 8        50.708                  
  24963795.130 7 131185637.983 7     -1907.274 7        46.822                  
  20444713.254 9 107437738.377 9       865.601 9        57.247                  
 02  5 18 00 00 50.0000000  0  7G01G23G21G10G16G07G08                           
  23759066.335 7 124854736.906 7      3396.929 7        47.094                  
  23004883.796 8 120891487.407 8     -2822.126 8        49.604                  
  21781204.955 8 114461021.265 8      1787.110 8        53.316                  
  21314726.070 9 112009647.095 9      -801.916 9        56.273                  
  23476128.439 8 123367879.173 8     -3665.717 8        48.822                  
  24964157.050 7 131187544.626 7     -1905.261 7        47.788                  
  20444545.267 9 107436873.361 9       864.888 9        58.659                  
 02  5 18 00 00 51.0000000  0  7G01G23G21G10G16G07G08                           
  23758421.620 7 124851340.914 7      3393.945 7        47.525                  
  23005422.226 8 120894309.419 8     -2821.818 8        49.868                  
  21780869.393 8 114459236.167 8      1783.619 8        53.154                  
  21314878.957 9 112010449.732 9      -802.751 9        54.766                  
  23476824.831 8 123371544.307 8     -3665.742 8        50.495                  
  24964522.918 7 131189451.629 7     -1906.477 7        47.338                  
  20444381.391 9 107436008.807 9       863.700 9        54.644                  
 02  5 18 00 00 52.0000000  0  7G01G23G21G10G16G07G08                           
  23757774.369 8 124847945.068 8      3397.270 8        48.301                  
  23005957.170 8 120897131.815 8     -2822.212 8        51.389                  
  21780530.257 8 114457451.363 8      1784.992 8        51.515                  
  21315031.934 9 112011252.989 9      -804.177 9        54.029                  
  23477522.152 8 123375209.640 8     -3666.270 8        49.681                  
  24964882.460 7 131191358.991 7     -1911.228 7        46.035                  
  20444219.229 9 107435144.730 9       864.514 9        56.364                  
 02  5 18 00 00 53.0000000  0  7G01G23G21G10G16G07G08                           
  23757127.170 7 124844549.395 7      3392.974 7        47.984                  
  23006496.904 8 120899954.603 8     -2823.638 8        49.664                  
  21780186.189 8 114455666.858 8      1784.912 8        51.855                  
  21315184.839 9 112012056.876 9      -805.068 9        55.028                  
  23478221.009 8 123378875.143 8     -3662.337 8        49.509                  
  24965249.383 7 131193266.699 7     -1908.667 7        46.803                  
  20444056.979 9 107434281.131 9       863.389 9        57.118                  
 02  5 18 00 00 54.0000000  0  7G01G23G21G10G16G07G08                           
  23756482.563 7 124841153.880 7      3394.635 7        46.983                  
  23007032.135 8 120902777.776 8     -2824.037 8        50.435                  
  21779846.999 8 114453882.667 8      1784.015 8        53.871                  
  21315338.173 9 112012861.360 9      -805.133 9        54.012                  
  23478916.865 8 123382540.856 8     -3665.989 8        50.117                  
  24965609.122 7 131195174.759 7     -1906.393 7        46.840                  
  20443895.210 9 107433418.008 9       863.162 9        54.952                  
 02  5 18 00 00 55.0000000  0  7G01G23G21G10G16G07G08                           
  23755836.777 8 124837758.515 8      3394.897 8        48.819                  
  23007570.672 8 120905601.340 8     -2822.346 8        49.874                  
  21779511.633 8 114452098.796 8      1782.393 8        53.359                  
  21315491.203 9 112013666.441 9      -805.409 9        54.167                  
  23479614.704 8 123386206.755 8     -3667.143 8        49.609                  
  24965973.632 7 131197083.174 7     -1908.903 7        47.057                  
  20443734.175 9 107432555.338 9       862.138 9        56.856                  
 02  5 18 00 00 56.0000000  0  7G01G23G21G10G16G07G08                           
  23755189.382 7 124834363.319 7      3392.528 7        46.765                  
  23008107.868 8 120908425.322 8     -2824.754 8        51.900                  
  21779171.585 9 114450315.209 9      1782.475 9        54.235                  
  21315644.788 9 112014472.138 9      -806.160 9        54.596                  
  23480314.133 7 123389872.845 7     -3668.108 7        47.430                  
  24966337.571 7 131198991.942 7     -1904.862 7        46.364                  
  20443571.674 9 107431693.145 9       861.547 9        56.022                  
 02  5 18 00 00 57.0000000  0  7G01G23G21G10G16G07G08                           
  23754544.704 8 124830968.285 8      3395.862 8        48.679                  
  23008644.332 8 120911249.685 8     -2824.429 8        50.932                  
  21778828.107 8 114448531.933 8      1784.756 8        51.746                  
  21315798.318 9 112015278.470 9      -806.512 9        55.391                  
  23481009.560 7 123393539.124 7     -3663.700 7        47.426                  
  24966698.364 7 131200901.067 7     -1912.580 7        45.970                  
  20443405.295 9 107430831.429 9       861.561 9        58.269                  
 02  5 18 00 00 58.0000000  0  7G01G23G21G10G16G07G08                           
  23753898.238 8 124827573.403 8      3397.160 8        48.508                  
  23009182.815 8 120914074.446 8     -2825.112 8        50.081                  
  21778490.347 8 114446748.946 8      1783.064 8        51.998                  
  21315952.063 9 112016085.397 9      -806.613 9        55.505                  
  23481707.810 7 123397205.601 7     -3665.657 7        47.745                  
  24967065.072 7 131202810.535 7     -1911.452 7        45.927                  
  20443239.113 9 107429970.189 9       861.866 9        57.003                  
 02  5 18 00 00 59.0000000  0  7G01G23G21G10G16G07G08                           
  23753251.183 8 124824178.694 8      3395.400 8        49.064                  
  23009718.689 8 120916899.586 8     -2824.305 8        49.975                  
  21778155.017 8 114444966.266 8      1782.958 8        50.761                  
  21316105.933 9 112016892.921 9      -807.612 9        56.596                  
  23482406.453 8 123400872.282 8     -3666.667 8        48.538                  
  24967425.383 7 131204720.368 7     -1910.956 7        44.704                  
  20443072.681 9 107429109.403 9       860.788 9        55.326                  
 02  5 18 00 01  0.0000000  0  7G01G23G21G10G16G07G08                           
  23752605.932 8 124820784.135 8      3397.685 8        49.811                  
  23010258.655 8 120919725.103 8     -2826.643 8        51.598                  
  21777813.540 8 114443183.873 8      1780.451 8        52.415                  
  21316259.607 9 112017701.078 9      -807.978 9        57.453                  
  23483102.808 8 123404539.138 8     -3670.336 8        48.678                  
  24967791.180 7 131206630.536 7     -1908.943 7        46.992                  
  20442905.695 9 107428249.093 9       859.900 9        57.006                  
 02  5 18 00 01  1.0000000  0  7G01G23G21G10G16G07G08                           
  23751959.949 8 124817389.734 8      3396.040 8        50.110                  
  23010795.048 8 120922551.020 8     -2823.870 8        49.267                  
  21777470.312 8 114441401.790 8      1782.226 8        53.964                  
  21316414.103 9 112018509.852 9      -808.682 9        55.346                  
  23483801.255 8 123408206.194 8     -3665.177 8        49.372                  
  24968153.278 7 131208541.075 7     -1912.363 7        47.395                  
  20442740.425 9 107427389.259 9       859.802 9        56.635                  
 02  5 18 00 01  2.0000000  0  7G01G23G21G10G16G07G08                           
  23751313.252 8 124813995.503 8      3395.671 8        49.061                  
  23011333.173 8 120925377.329 8     -2824.962 8        50.189                  
  21777134.713 8 114439619.991 8      1782.115 8        50.752                  
  21316567.383 9 112019319.225 9      -810.822 9        54.343                  
  23484499.898 8 123411873.441 8     -3666.626 8        49.139                  
  24968517.824 7 131210451.945 7     -1912.132 7        45.647                  
  20442578.603 9 107426529.904 9       858.936 9        57.195                  
 02  5 18 00 01  3.0000000  0  7G01G23G21G10G16G07G08                           
  23750668.001 8 124810601.425 8      3396.408 8        48.963                  
  23011872.049 8 120928204.043 8     -2826.678 8        50.903                  
  21776798.669 8 114437838.515 8      1781.647 8        51.977                  
  21316721.003 9 112020129.192 9      -810.318 9        55.029                  
  23485196.111 8 123415540.863 8     -3666.806 8        51.019                  
  24968882.066 7 131212363.184 7     -1910.570 7        44.747                  
  20442416.924 9 107425671.000 9       858.084 9        55.571                  
 02  5 18 00 01  4.0000000  0  7G01G23G21G10G16G07G08                           
  23750023.197 8 124807207.501 8      3390.053 8        49.246                  
  23012407.548 8 120931031.149 8     -2826.555 8        53.056                  
  21776456.405 9 114436057.350 9      1780.653 9        54.057                  
  21316875.070 9 112020939.780 9      -810.893 9        54.686                  
  23485895.415 8 123419208.508 8     -3667.961 8        52.147                  
  24969242.859 7 131214274.774 7     -1910.250 7        45.158                  
  20442255.888 9 107424812.575 9       858.138 9        56.761                  
 02  5 18 00 01  5.0000000  0  7G01G23G21G10G16G07G08                           
  23749375.910 8 124803813.759 8      3389.173 8        48.125                  
  23012947.711 8 120933858.640 8     -2827.679 8        51.167                  
  21776115.482 8 114434276.482 8      1779.852 8        53.736                  
  21317028.779 9 112021750.999 9      -811.984 9        56.110                  
  23486593.504 8 123422876.322 8     -3665.980 8        49.198                  
  24969609.996 7 131216186.713 7     -1912.809 7        45.789                  
  20442094.638 9 107423954.625 9       858.142 9        56.311                  
 02  5 18 00 01  6.0000000  0  8G01G23G21G27G10G16G07G08                        
  23748729.552 8 124800420.163 8      3391.876 8        48.451                  
  23013484.979 8 120936686.498 8     -2827.095 8        48.888                  
  21775779.956 8 114432495.913 8      1779.910 8        52.022                  
  20485438.026 9 107651718.561 9     -1384.361 9        56.690                  
  21317182.667 9 112022562.814 9      -812.119 9        56.330                  
  23487290.628 8 123426544.336 8     -3664.361 8        48.782                  
  24969970.915 7 131218098.992 7     -1910.560 7        46.438                  
  20441934.710 9 107423097.154 9       857.047 9        57.040                  
 02  5 18 00 01  7.0000000  0  8G01G23G21G27G10G16G07G08                        
  23748085.516 8 124797026.716 8      3392.542 8        49.214                  
  23014023.158 8 120939514.762 8     -2827.322 8        48.928                  
  21775443.071 8 114430715.640 8      1779.796 8        52.923                  
  20485704.632 9 107653102.150 9     -1383.845 9        56.544                  
  21317336.645 9 112023375.226 9      -813.296 9        54.965                  
  23487989.665 8 123430212.548 8     -3668.238 8        50.145                  
  24970337.462 7 131220011.640 7     -1914.441 7        46.132                  
  20441772.817 9 107422240.146 9       856.592 9        57.079                  
 02  5 18 00 01  8.0000000  0  8G01G23G21G27G10G16G07G08                        
  23747438.676 8 124793633.460 8      3393.831 8        48.854                  
  23014562.338 8 120942343.417 8     -2828.536 8        49.937                  
  21775100.915 8 114428935.669 8      1778.952 8        52.592                  
  20485964.519 9 107654486.218 9     -1384.804 9        56.585                  
  21317491.390 9 112024188.271 9      -813.301 9        57.855                  
  23488687.414 8 123433880.940 8     -3666.757 8        50.793                  
  24970700.025 8 131221924.639 8     -1914.160 8        48.175                  
  20441607.314 9 107421383.601 9       857.243 9        58.682                  
 02  5 18 00 01  9.0000000  0  8G01G23G21G27G10G16G07G08                        
  23746792.550 8 124790240.346 8      3391.559 8        48.038                  
  23015099.284 8 120945172.476 8     -2829.935 8        50.436                  
  21774760.510 8 114427155.990 8      1780.310 8        53.921                  
  20486224.085 9 107655870.763 9     -1385.102 9        55.912                  
  21317645.457 9 112025001.930 9      -813.802 9        55.609                  
  23489384.413 8 123437549.535 8     -3667.074 8        48.442                  
  24971064.517 8 131223837.982 8     -1912.741 8        48.036                  
  20441442.580 9 107420527.537 9       855.913 9        57.485                  
 02  5 18 00 01 10.0000000  0  8G01G23G21G27G10G16G07G08                        
  23746148.782 8 124786847.387 8      3397.282 8        49.635                  
  23015639.358 8 120948001.930 8     -2828.595 8        50.123                  
  21774425.162 8 114425376.613 8      1779.839 8        53.375                  
  20486491.101 9 107657255.784 9     -1385.362 9        56.610                  
  21317800.542 9 112025816.190 9      -814.377 9        54.990                  
  23490083.896 8 123441218.319 8     -3669.537 8        49.552                  
  24971429.796 8 131225751.682 8     -1914.138 8        48.429                  
  20441277.524 9 107419671.948 9       855.831 9        56.890                  
 02  5 18 00 01 11.0000000  0  8G01G23G21G27G10G16G07G08                        
  23745502.335 7 124783454.607 7      3393.359 7        47.507                  
  23016176.465 8 120950831.753 8     -2827.734 8        50.592                  
  21774088.474 8 114423597.533 8      1779.037 8        51.797                  
  20486758.511 9 107658641.282 9     -1386.168 9        56.908                  
  21317955.306 9 112026631.045 9      -815.045 9        56.143                  
  23490781.950 8 123444887.285 8     -3669.778 8        50.925                  
  24971791.876 8 131227665.729 8     -1913.684 8        48.151                  
  20441111.824 9 107418816.837 9       854.971 9        57.305                  
 02  5 18 00 01 12.0000000  0  8G01G23G21G27G10G16G07G08                        
  23744856.012 8 124780061.970 8      3389.700 8        50.024                  
  23016715.680 8 120953661.963 8     -2829.888 8        50.661                  
  21773745.246 8 114421818.764 8      1779.370 8        53.132                  
  20487019.739 9 107660027.256 9     -1387.173 9        56.162                  
  21318109.694 9 112027446.513 9      -816.642 9        57.082                  
  23491479.556 8 123448556.452 8     -3669.289 8        51.393                  
  24972158.798 7 131229580.130 7     -1918.429 7        47.874                  
  20440946.553 9 107417962.178 9       854.466 9        57.352                  
 02  5 18 00 01 13.0000000  0  8G01G23G21G27G10G16G07G08                        
  23744211.280 8 124776669.499 8      3391.687 8        48.961                  
  23017255.200 8 120956492.562 8     -2828.595 8        50.193                  
  21773406.431 8 114420040.306 8      1778.207 8        52.767                  
  20487279.340 9 107661413.708 9     -1386.748 9        57.344                  
  21318266.030 9 112028262.622 9      -816.418 9        56.969                  
  23492178.521 8 123452225.799 8     -3669.357 8        50.378                  
  24972519.055 7 131231494.871 7     -1913.298 7        46.501                  
  20440784.392 9 107417107.994 9       854.140 9        56.038                  
 02  5 18 00 01 14.0000000  0  8G01G23G21G27G10G16G07G08                        
  23743565.886 8 124773277.195 8      3392.241 8        48.577                  
  23017792.325 8 120959323.566 8     -2830.555 8        50.850                  
  21773072.727 8 114418262.155 8      1778.650 8        51.981                  
  20487545.159 9 107662800.637 9     -1387.796 9        57.219                  
  21318421.116 9 112029079.324 9      -816.895 9        54.917                  
  23492876.324 8 123455895.345 8     -3670.740 8        49.964                  
  24972887.443 7 131233409.973 7     -1916.047 7        46.564                  
  20440624.053 9 107416254.288 9       854.211 9        54.647                  
 02  5 18 00 01 15.0000000  0  8G01G23G21G27G10G16G07G08                        
  23742918.903 8 124769885.048 8      3390.704 8        48.730                  
  23018333.792 8 120962154.968 8     -2830.893 8        50.293                  
  21772733.502 8 114416484.292 8      1778.176 8        52.861                  
  20487813.623 9 107664188.043 9     -1387.742 9        56.362                  
  21318576.272 9 112029896.623 9      -817.237 9        55.317                  
  23493574.020 8 123459565.087 8     -3670.023 8        49.049                  
  24973249.648 7 131235325.428 7     -1916.194 7        46.914                  
  20440463.804 9 107415401.060 9       853.171 9        55.705                  
 02  5 18 00 01 16.0000000  0  8G01G23G21G27G10G16G07G08                        
  23742273.760 8 124766493.054 8      3395.011 8        48.231                  
  23018869.898 8 120964986.752 8     -2831.757 8        50.714                  
  21772392.310 8 114414706.739 8      1778.241 8        52.845                  
  20488077.120 9 107665575.925 9     -1388.466 9        57.731                  
  21318731.340 9 112030714.530 9      -818.497 9        55.982                  
  23494274.021 8 123463235.002 8     -3672.109 8        49.586                  
  24973615.838 7 131237241.229 7     -1915.954 7        46.177                  
  20440303.823 9 107414548.308 9       853.057 9        56.602                  
 02  5 18 00 01 17.0000000  0  8G01G23G21G27G10G16G07G08                        
  23741629.706 7 124763101.242 7      3388.856 7        46.907                  
  23019409.221 8 120967818.905 8     -2834.134 8        50.229                  
  21772053.835 9 114412929.472 9      1777.480 9        54.425                  
  20488336.006 9 107666964.283 9     -1388.246 9        58.255                  
  21318887.962 9 112031533.079 9      -819.287 9        56.138                  
  23494971.271 8 123466905.122 8     -3670.724 8        50.231                  
  24973980.742 8 131239157.390 8     -1916.992 8        48.105                  
  20440143.234 9 107413696.011 9       852.032 9        57.653                  
 02  5 18 00 01 18.0000000  0  8G01G23G21G27G10G16G07G08                        
  23740983.991 7 124759709.572 7      3392.885 7        47.709                  
  23019949.062 8 120970651.452 8     -2830.506 8        49.604                  
  21771719.327 8 114411152.520 8      1775.606 8        53.201                  
  20488600.486 9 107668353.119 9     -1389.139 9        57.009                  
  21319043.744 9 112032352.227 9      -820.207 9        55.378                  
  23495669.556 8 123470575.423 8     -3672.591 8        49.382                  
  24974342.553 7 131241073.890 7     -1914.805 7        47.696                  
  20439983.771 9 107412844.189 9       851.011 9        57.420                  
 02  5 18 00 01 19.0000000  0  8G01G23G21G27G10G16G07G08                        
  23740337.043 7 124756318.069 7      3392.527 7        47.756                  
  23020485.812 8 120973484.406 8     -2832.141 8        50.274                  
  21771381.478 8 114409375.842 8      1774.925 8        52.677                  
  20488870.076 9 107669742.432 9     -1388.942 9        57.249                  
  21319200.920 9 112033171.969 9      -819.820 9        54.670                  
  23496368.521 8 123474245.919 8     -3669.741 8        50.735                  
  24974711.156 8 131242990.739 8     -1916.120 8        48.137                  
  20439822.199 9 107411992.844 9       850.782 9        56.585                  
 02  5 18 00 01 20.0000000  0  8G01G23G21G27G10G16G07G08                        
  23739693.794 7 124752927.000 7      3389.405 7        47.307                  
  23021027.243 8 120976317.624 8     -2831.753 8        50.789                  
  21771039.572 8 114407599.704 8      1774.722 8        50.991                  
  20489135.538 9 107671132.098 9     -1389.548 9        55.502                  
  21319357.971 8 112033992.145 8      -819.453 8        53.406                  
  23497066.825 8 123477916.477 8     -3672.010 8        50.059                  
  24975072.396 7 131244908.304 7     -1918.553 7        47.196                  
  20439658.572 9 107411142.080 9       849.464 9        56.527                  
 02  5 18 00 01 21.0000000  0  8G01G23G21G27G10G16G07G08                        
  23739062.607 6 124749547.813 6      3373.988 6        41.118                  
  23021566.066 7 120979145.675 7     -2823.715 7        47.141                  
  21770703.348 8 114405833.219 8      1760.068 8        48.414                  
  20489393.352 9 107672516.987 9     -1381.062 9        58.165                  
  21319513.538 8 112034806.153 8      -809.396 8        53.040                  
  23497763.752 8 123481581.934 8     -3661.333 8        52.464                  
  24975446.234 6 131246841.382 6     -1941.587 6        40.740                  
  20439495.964 9 107410296.167 9       842.000 9        58.558                  
 02  5 18 00 01 22.0000000  0  8G01G23G21G27G10G16G07G08                        
  23738420.233 7 124746187.746 7      3344.347 7        43.180                  
  23022106.622 8 120981965.065 8     -2807.697 8        48.291                  
  21770374.433 8 114404082.760 8      1742.621 8        53.331                  
  20489653.775 9 107673893.568 9     -1372.914 9        56.971                  
  21319666.515 8 112035609.123 8      -798.560 8        50.357                  
  23498461.502 7 123485239.141 7     -3653.861 7        47.407                  
  24975813.228 7 131248799.277 7     -1968.707 7        46.114                  
  20439334.339 9 107409458.045 9       833.842 9        57.736                  
 02  5 18 00 01 23.0000000  0  8G01G23G21G27G10G16G07G08                        
  23737775.001 7 124742846.797 7      3331.622 7        46.941                  
  23022636.670 8 120984775.906 8     -2807.023 8        48.332                  
  21770044.964 8 114402348.180 8      1727.758 8        51.319                  
  20489920.024 9 107675261.811 9     -1363.463 9        54.314                  
  21319817.187 8 112036401.350 8      -787.043 8        50.856                  
  23499154.534 8 123488887.695 8     -3642.684 8        48.763                  
  24976193.463 7 131250782.660 7     -1996.687 7        46.366                  
  20439174.107 9 107408627.728 9       826.036 9        57.647                  
 02  5 18 00 01 24.0000000  0  8G01G23G21G27G10G16G07G08                        
  23737142.008 7 124739520.473 7      3328.683 7        46.573                  
  23023170.490 8 120987580.232 8     -2803.814 8        49.897                  
  21769714.012 8 114400625.343 8      1721.965 8        53.125                  
  20490180.018 8 107676624.075 8     -1362.249 8        53.516                  
  21319966.572 8 112037185.822 8      -784.150 8        52.685                  
  23499845.708 8 123492530.418 8     -3643.422 8        50.209                  
  24976569.784 7 131252784.648 7     -2004.567 7        43.597                  
  20439017.521 9 107407803.265 9       823.353 9        54.212                  
 02  5 18 00 01 25.0000000  0  8G01G23G21G27G10G16G07G08                        
  23736509.302 8 124736194.289 8      3329.561 8        48.511                  
  23023704.488 7 120990383.949 7     -2805.470 7        46.784                  
  21769382.202 8 114398902.643 8      1725.539 8        50.634                  
  20490433.580 8 107677987.108 8     -1373.631 8        53.113                  
  21320115.260 8 112037971.053 8      -786.308 8        48.545                  
  23500542.117 7 123496174.834 7     -3660.741 7        45.746                  
  24976954.915 7 131254786.313 7     -1999.704 7        45.428                  
  20438857.897 9 107406979.213 9       825.382 9        55.601                  
 02  5 18 00 01 26.0000000  0  8G01G23G21G27G10G16G07G08                        
  23735875.899 6 124732854.797 6      3345.280 6        40.950                  
  23024237.914 8 120993192.656 8     -2810.863 8        50.532                  
  21769054.895 7 114397169.268 7      1734.049 7        42.472                  
  20490695.361 7 107679357.822 7     -1378.936 7        44.564                  
  21320266.074 7 112038764.631 7      -802.095 7        45.509                  
  23501235.793 6 123499828.935 6     -3652.688 6        39.288                  
  24977328.414 6 131256778.027 6     -1984.530 6        37.336                  
  20438698.791 7 107406149.164 7       829.392 7        46.632                  
 02  5 18 00 01 27.0000000  0  8G01G23G21G27G10G16G07G08                        
  23735233.114 7 124729509.927 7      3346.000 7        43.839                  
  23024771.250 7 120996001.606 7     -2809.986 7        43.893                  
  21768729.000 8 114395429.401 8      1739.855 8        48.833                  
  20490962.324 7 107680734.419 7     -1375.624 7        44.794                  
  21320420.105 7 112039562.923 7      -800.431 7        46.834                  
  23501933.006 6 123503487.561 6     -3653.921 6        36.262                  
  24977708.416 6 131258754.540 6     -1970.339 6        39.609                  
  20438539.096 7 107405315.383 7       836.552 7        46.340                  
 02  5 18 00 01 28.0000000  0  8G01G23G21G27G10G16G07G08                        
  23734599.943 6 124726157.227 6      3347.710 6        36.721                  
  23025304.194 6 120998806.722 6     -2792.183 6        36.709                  
  21768397.672 6 114393691.119 6      1736.753 6        40.936                  
  20491224.999 8 107682112.292 8     -1379.909 8        51.380                  
  21320570.455 6 112040360.743 6      -793.333 6        41.484                  
  23502634.240 5 123507148.727 5     -3669.428 5        35.671                  
  24978081.396 6 131260725.015 6     -1965.235 6        40.524                  
  20438383.993 8 107404481.412 8       831.525 8        50.899                  
 02  5 18 00 01 29.0000000  0  8G01G23G21G27G10G16G07G08                        
  23733961.912 5 124722792.477 5      3371.106 5        35.000                  
  23025836.298 5 121001610.388 5     -2792.162 5        35.002                  
  21768063.147 6 114391949.635 6      1751.199 6        37.053                  
  20491480.293 8 107683494.173 8     -1386.318 8        51.362                  
  21320724.933 6 112041161.015 6      -804.898 6        37.662                  
  23503330.560 5 123510828.067 5     -3678.177 5        35.438                  
  24978459.433 6 131262685.509 6     -1944.118 6        36.358                  
  20438225.423 8 107403645.144 8       838.294 8        50.359                  
 02  5 18 00 01 30.0000000  0  8G01G23G21G27G10G16G07G08                        
  23733318.591 5 124719412.602 5      3382.770 5        35.301                  
  23026373.119 5 121004425.605 5     -2827.540 5        34.710                  
  21767726.030 6 114390193.125 6      1760.754 6        38.954                  
  20491746.006 7 107684884.022 7     -1390.399 7        47.972                  
  21320879.000 6 112041973.501 6      -817.507 6        38.875                  
  23504032.884 5 123514512.239 5     -3680.153 5        34.734                  
  24978822.514 7 131264625.706 7     -1933.815 7        42.126                  
  20438066.138 8 107402803.067 8       852.913 8        49.170                  
 02  5 18 00 01 31.0000000  0  8G01G23G21G27G10G16G07G08                        
  23732682.025 5 124716028.685 5      3387.729 5        34.722                  
  23026911.441 5 121007232.550 5     -2804.241 5        34.769                  
  21767393.809 6 114388436.981 6      1752.542 6        36.798                  
  20492016.203 7 107686278.056 7     -1393.578 7        43.235                  
  21321032.173 6 112042785.434 6      -804.653 6        36.525                  
  23504736.048 5 123518211.474 5     -3701.380 5        35.024                  
  24979193.028 7 131266561.873 7     -1931.742 7        43.542                  
  20437906.568 7 107401958.432 7       849.157 7        44.905                  
 02  5 18 00 01 32.0000000  0  8G01G23G21G27G10G16G07G08                        
  23732045.441 5 124712649.040 5      3379.542 5        34.745                  
  23027444.492 5 121010027.581 5     -2801.472 5        35.164                  
  21767065.483 6 114386681.460 6      1754.574 6        38.722                  
  20492284.149 6 107687677.409 6     -1398.148 6        39.130                  
  21321186.025 6 112043596.030 6      -809.446 6        37.134                  
  23505439.051 5 123521931.527 5     -3735.010 5        35.184                  
  24979559.450 6 131268495.367 6     -1912.739 6        40.243                  
  20437748.195 6 107401110.779 6       843.168 6        41.374                  
 02  5 18 00 01 33.0000000  0  7G01G21G27G10G16G07G08                           
  23731402.675 6 124709276.094 6      3372.142 6        39.473                  
  21766723.577 7 114384917.139 7      1772.509 7        47.886                  
  20492545.841 6 107689079.955 6     -1404.143 6        37.609                  
  21321347.150 7 112044414.769 7      -825.472 7        44.102                  
  23506146.665 5 123525646.961 5     -3696.854 5        35.406                  
  24979928.446 5 131270416.257 5     -1934.729 5        35.903                  
  20437589.375 6 107400260.990 6       843.854 6        39.689                  
 02  5 18 00 01 34.0000000  0  6G01G21G27G10G07G08                              
  23730758.479 7 124705890.182 7      3398.202 7        43.080                  
  21766385.638 6 114383143.692 6      1781.959 6        41.767                  
  20492811.125 6 107690484.077 6     -1411.111 6        36.817                  
  21321499.180 7 112045242.182 7      -836.877 7        47.069                  
  24980289.489 5 131272347.184 5     -1926.686 5        34.499                  
  20437429.036 6 107399410.691 6       846.971 6        38.446                  
 02  5 18 00 01 35.0000000  0  6G01G21G27G10G07G08                              
  23730108.618 6 124702493.691 6      3416.258 6        37.454                  
  21766045.877 6 114381360.788 6      1795.866 6        36.532                  
  20493084.413 5 107691896.243 5     -1425.154 5        35.674                  
  21321658.339 6 112046076.719 6      -840.921 6        40.998                  
  24980649.908 5 131274270.468 5     -1935.485 5        34.332                  
  20437264.445 6 107398554.677 6       859.580 6        36.533                  
 02  5 18 00 01 36.0000000  0  6G01G21G27G10G07G08                              
  23729461.831 5 124699085.318 5      3434.185 5        34.911                  
  21765711.744 5 114379567.177 5      1803.485 5        34.836                  
  20493355.772 5 107693317.473 5     -1425.344 5        34.971                  
  21321819.643 6 112046919.057 6      -849.646 6        36.521                  
  24981008.825 5 131276187.912 5     -1907.450 5        34.478                  
  20437097.459 5 107397692.123 5       859.122 5        35.335                  
 02  5 18 00 01 37.0000000  0  6G01G21G27G10G07G08                              
  23728813.418 5 124695672.659 5      3419.778 5        34.430                  
  21765363.959 5 114377769.926 5      1802.768 5        34.443                  
  20493626.059 5 107694742.277 5     -1421.783 5        34.974                  
  21321978.856 5 112047764.716 5      -842.490 5        35.142                  
  24981366.849 5 131278104.701 5     -1929.125 5        34.772                  
  20436931.187 5 107396827.693 5       864.841 5        35.161                  
 02  5 18 00 01 38.0000000  0  5G01G21G10G07G08                                 
  23728168.239 5 124692261.142 5      3401.621 5        34.429                  
  21765019.998 5 114375973.635 5      1784.813 5        34.599                  
  21322139.534 5 112048610.496 5      -854.733 5        34.762                  
  24981726.766 5 131280024.163 5     -1919.482 5        35.004                  
  20436763.505 5 107395963.918 5       864.974 5        35.347                  
 02  5 18 00 02  1.0000000  0  7G01G23G21G27G16G07G08                           
  23713341.774 6 124614448.245 6      3307.464 6        37.251                  
  23042996.331 6 121091762.958 6     -2776.908 6        38.455                  
  21757255.515 6 114335145.963 6      1709.262 6        38.327                  
  20500117.947 7 107728837.858 7     -1398.289 7        46.128                  
  23526042.339 8 123630179.658 8     -3730.652 8        48.105                  
  24990026.999 7 131323221.644 7     -1987.898 7        44.736                  
  20433047.230 7 107376388.885 7       822.011 7        44.114                  
 02  5 18 00 02  2.0000000  0  7G01G23G21G27G16G07G08                           
  23712715.626 6 124611139.245 6      3300.170 6        36.119                  
  23043523.986 6 121094534.452 6     -2771.996 6        39.817                  
  21756928.976 6 114333433.162 6      1707.768 6        37.605                  
  20500383.999 7 107730238.610 7     -1403.245 7        44.610                  
  23526752.239 8 123633912.474 8     -3731.483 8        49.000                  
  24990404.178 7 131325208.613 7     -1987.710 7        43.879                  
  20432893.217 7 107375566.601 7       823.229 7        42.937                  
 02  5 18 00 02  3.0000000  0  7G01G23G21G27G16G07G08                           
  23712081.579 5 124607827.427 5      3305.034 5        35.432                  
  23044049.371 6 121097306.457 6     -2770.385 6        41.331                  
  21756604.778 6 114331717.911 6      1716.790 6        36.854                  
  20500649.729 7 107731642.009 7     -1404.443 7        43.556                  
  23527462.622 8 123637649.534 8     -3739.861 8        49.188                  
  24990784.949 7 131327190.714 7     -1978.484 7        45.257                  
  20432731.324 7 107374743.073 7       823.094 7        42.224                  
 02  5 18 00 02  4.0000000  0  7G01G23G21G27G16G07G08                           
  23711447.229 5 124604512.953 5      3314.451 5        34.793                  
  23044579.062 7 121100079.201 7     -2772.228 7        43.996                  
  21756282.225 6 114330000.438 6      1719.204 6        36.241                  
  20500913.083 7 107733047.788 7     -1405.288 7        42.901                  
  23528174.899 8 123641390.057 8     -3740.205 8        48.391                  
  24991159.681 7 131329168.622 7     -1983.705 7        44.872                  
  20432576.614 6 107373918.507 6       826.101 6        41.634                  
 02  5 18 00 02  5.0000000  0  7G01G23G21G27G16G07G08                           
  23710816.435 5 124601199.931 5      3319.142 5        34.304                  
  23045105.645 7 121102852.116 7     -2776.949 7        45.782                  
  21755953.846 5 114328284.394 5      1715.726 5        35.550                  
  20501182.887 6 107734453.202 6     -1406.838 6        41.624                  
  23528886.676 8 123645129.310 8     -3737.410 8        48.239                  
  24991534.144 7 131331148.983 7     -1978.956 7        44.399                  
  20432417.258 6 107373095.114 6       820.200 6        40.371                  
 02  5 18 00 02  6.0000000  0  7G01G23G21G27G16G07G08                           
  23710190.751 5 124597888.852 5      3300.108 5        34.699                  
  23045633.442 7 121105625.178 7     -2773.085 7        46.825                  
  21755624.341 5 114326570.250 5      1715.344 5        35.175                  
  20501454.317 6 107735857.862 6     -1403.731 6        40.689                  
  23529597.560 7 123648866.638 7     -3738.921 7        47.575                  
  24991913.968 7 131333132.647 7     -1982.513 7        42.987                  
  20432261.083 6 107372273.133 6       822.489 6        39.593                  
 02  5 18 00 02  7.0000000  0  6G23G21G27G16G07G08                              
  23046160.024 7 121108398.586 7     -2774.406 7        47.159                  
  21755295.694 5 114324856.589 5      1721.873 5        34.842                  
  20501720.905 6 107737262.814 6     -1406.018 6        39.921                  
  23530308.157 7 123652603.852 7     -3739.650 7        47.358                  
  24992289.861 6 131335117.121 6     -1985.459 6        40.774                  
  20432102.138 6 107371451.793 6       819.024 6        39.238                  
 02  5 18 00 02  8.0000000  0  6G23G21G27G16G07G08                              
  23046691.610 7 121111173.622 7     -2775.160 7        45.231                  
  21754967.494 5 114323142.037 5      1726.344 5        34.653                  
  20501983.687 6 107738668.778 6     -1411.136 6        39.383                  
  23531019.326 7 123656341.067 7     -3735.205 7        46.351                  
  24992668.273 6 131337100.271 6     -1980.150 6        39.318                  
  20431947.571 6 107370630.500 6       822.576 6        38.797                  
 02  5 18 00 02  9.0000000  0  6G23G21G27G16G07G08                              
  23047221.355 8 121113966.238 8     -2804.473 8        49.132                  
  21754643.153 5 114321415.327 5      1725.360 5        34.705                  
  20502251.508 6 107740078.211 6     -1406.548 6        39.538                  
  23531730.638 7 123660068.325 7     -3724.412 7        45.988                  
  24993042.486 6 131339069.449 6     -1962.698 6        37.996                  
  20431792.932 6 107369807.024 6       823.440 6        39.057                  
 02  5 18 00 02 10.0000000  0  5G23G27G16G07G08                                 
  23047757.729 8 121116782.591 8     -2825.431 8        48.264                  
  20502522.867 6 107741492.099 6     -1415.243 6        39.801                  
  23532435.303 7 123663781.817 7     -3712.194 7        46.523                  
  24993416.771 6 131341019.701 6     -1949.290 6        37.410                  
  20431637.150 6 107368980.543 6       828.697 6        39.469                  
 02  5 18 00 02 11.0000000  0  5G23G27G16G07G08                                 
  23048295.283 7 121119604.574 7     -2816.142 7        47.744                  
  20502796.388 6 107742910.325 6     -1420.931 6        40.222                  
  23533142.970 7 123667498.107 7     -3726.362 7        45.963                  
  24993788.089 6 131342958.878 6     -1926.089 6        36.697                  
  20431478.902 6 107368151.411 6       831.282 6        39.859                  
 02  5 18 00 02 12.0000000  0  5G23G27G16G07G08                                 
  23048826.422 7 121122415.146 7     -2807.671 7        47.492                  
  20503065.853 6 107744334.982 6     -1427.246 6        41.812                  
  23533855.212 8 123671236.659 8     -3743.570 8        48.526                  
  24994153.689 6 131344889.614 6     -1921.289 6        36.059                  
  20431317.830 6 107367318.345 6       833.584 6        41.121                  
 02  5 18 00 02 13.0000000  0  5G23G27G16G07G08                                 
  23049362.904 8 121125222.875 8     -2809.566 8        48.681                  
  20503337.194 7 107745762.176 7     -1425.038 7        42.043                  
  23534568.114 7 123674982.410 7     -3743.090 7        47.126                  
  24994532.888 5 131346817.074 5     -1933.340 5        35.456                  
  20431168.017 6 107366483.992 6       832.859 6        41.871                  
 02  5 18 00 02 14.0000000  0  5G23G27G16G07G08                                 
  23049896.580 8 121128036.277 8     -2814.476 8        48.316                  
  20503604.801 7 107747186.502 7     -1423.461 7        43.117                  
  23535277.943 8 123678717.009 8     -3732.420 8        49.232                  
  24994888.696 5 131348750.619 5     -1933.082 5        35.348                  
  20431004.461 7 107365652.915 7       826.399 7        42.736                  
 02  5 18 00 02 15.0000000  0  5G23G27G16G07G08                                 
  23050433.365 8 121130840.442 8     -2797.650 8        48.320                  
  20503877.911 7 107748609.287 7     -1421.091 7        42.827                  
  23535989.827 8 123682456.676 8     -3749.250 8        49.258                  
  24995258.424 5 131350693.511 5     -1956.891 5        34.682                  
  20430851.145 7 107364824.008 7       824.260 7        42.439                  
 02  5 18 00 02 16.0000000  0  5G23G27G16G07G08                                 
  23050961.645 7 121133628.168 7     -2787.402 7        46.722                  
  20504147.179 7 107750032.626 7     -1428.660 7        42.692                  
  23536705.303 7 123686212.219 7     -3758.997 7        47.987                  
  24995632.154 5 131352643.665 5     -1952.327 5        34.904                  
  20430694.023 7 107363995.766 7       824.962 7        42.143                  
 02  5 18 00 02 17.0000000  0  5G23G27G16G07G08                                 
  23051492.248 7 121136414.449 7     -2784.198 7        47.583                  
  20504421.129 7 107751456.108 7     -1421.492 7        42.694                  
  23537420.225 7 123689968.937 7     -3757.473 7        47.743                  
  24996002.097 5 131354595.963 5     -1953.930 5        34.811                  
  20430539.938 7 107363168.327 7       822.252 7        42.470                  
 02  5 18 00 02 18.0000000  0  6G23G27G30G16G07G08                              
  23052021.189 8 121139200.697 8     -2788.438 8        49.452                  
  20504682.857 7 107752879.716 7     -1427.122 7        42.174                  
  25185729.825 7 132351916.783 7      -919.345 7        42.107                  
  23538133.842 7 123693725.592 7     -3756.271 7        47.799                  
  24996366.982 5 131356549.424 5     -1960.449 5        34.480                  
  20430383.406 6 107362341.656 6       823.451 6        41.967                  
 02  5 18 00 02 19.0000000  0  5G23G27G30G16G08                                 
  23052551.845 8 121141987.131 8     -2786.694 8        49.729                  
  20504954.519 6 107754303.694 6     -1427.282 6        40.452                  
  25185903.959 7 132352833.349 7      -918.727 7        42.066                  
  23538846.995 8 123697482.335 8     -3755.971 8        48.325                  
  20430223.406 6 107361515.559 6       821.822 6        40.417                  
 02  5 18 00 02 20.0000000  0  5G23G27G30G16G08                                 
  23053083.431 8 121144774.132 8     -2785.599 8        49.714                  
  20505229.810 6 107755728.275 6     -1427.537 6        40.491                  
  25186082.292 6 132353752.307 6      -920.517 6        41.847                  
  23539563.864 8 123701239.394 8     -3757.346 8        48.162                  
  20430067.463 6 107360689.814 6       822.386 6        40.742                  
 02  5 18 00 02 21.0000000  0  5G23G27G30G16G08                                 
  23053611.871 8 121147562.166 8     -2786.504 8        48.418                  
  20505501.472 6 107757153.973 6     -1427.668 6        40.960                  
  25186262.983 7 132354674.448 7      -920.652 7        43.536                  
  23540279.929 8 123704997.077 8     -3759.263 8        48.349                  
  20429906.464 6 107359864.230 6       827.355 6        40.894                  
 02  5 18 00 02 22.0000000  0  5G23G27G30G16G08                                 
  23054144.332 7 121150350.860 7     -2792.586 7        47.152                  
  20505773.153 6 107758580.307 6     -1429.675 6        41.513                  
  25186438.421 7 132355600.454 7      -931.783 7        42.691                  
  23540997.228 7 123708755.112 7     -3755.003 7        47.857                  
  20429751.628 7 107359038.771 7       829.630 7        42.097                  
 02  5 18 00 02 23.0000000  0  5G23G27G30G16G08                                 
  23054674.167 8 121153139.773 8     -2790.960 8        49.336                  
  20506042.654 6 107760007.020 6     -1429.002 6        41.928                  
  25186611.018 7 132356532.125 7      -933.878 7        43.537                  
  23541705.127 7 123712513.260 7     -3758.578 7        47.999                  
  20429586.554 7 107358214.027 7       820.762 7        42.215                  
 02  5 18 00 02 24.0000000  0  5G23G27G30G16G08                                 
  23055207.236 8 121155928.810 8     -2790.204 8        49.184                  
  20506312.422 7 107761434.034 7     -1427.870 7        42.233                  
  25186781.453 7 132357467.422 7      -939.024 7        43.539                  
  23542420.746 7 123716271.466 7     -3758.564 7        46.532                  
  20429431.183 7 107357389.805 7       821.256 7        42.829                  
 02  5 18 00 02 25.0000000  0  6G01G23G27G30G16G08                              
  23698114.079 7 124534433.055 7      3334.518 7        46.138                  
  23055735.908 8 121158718.656 8     -2791.837 8        48.639                  
  20506591.304 7 107762861.883 7     -1426.743 7        43.616                  
  25186967.112 7 132358407.822 7      -949.956 7        43.127                  
  23543138.276 8 123720030.079 8     -3758.721 8        48.910                  
  20429268.468 7 107356565.948 7       822.038 7        43.974                  
 02  5 18 00 02 26.0000000  0  6G01G23G27G30G16G08                              
  23697480.443 7 124531097.004 7      3338.211 7        46.085                  
  23056268.548 8 121161509.795 8     -2789.675 8        48.196                  
  20506861.502 7 107764290.989 7     -1431.388 7        45.548                  
  25187151.431 7 132359356.385 7      -950.876 7        42.095                  
  23543854.252 8 123723789.436 8     -3760.494 8        49.145                  
  20429112.775 7 107355741.886 7       824.564 7        45.447                  
 02  5 18 00 02 27.0000000  0  6G01G23G27G30G16G08                              
  23696847.183 7 124527760.613 7      3333.382 7        45.254                  
  23056799.205 7 121164301.568 7     -2789.810 7        47.341                  
  20507117.136 8 107765720.847 8     -1431.585 8        48.632                  
  25187323.617 6 132360313.336 6      -960.060 6        40.935                  
  23544570.961 8 123727549.103 8     -3757.672 8        48.304                  
  20428942.984 8 107354918.099 8       819.724 8        48.699                  
 02  5 18 00 02 29.0000000  0  6G01G23G27G30G16G08                              
  23695576.213 7 124521088.558 7      3343.296 7        46.341                  
  23057861.786 7 121169888.042 7     -2801.246 7        47.886                  
  20507680.421 8 107768580.555 8     -1427.445 8        51.426                  
  25187433.636 7 132362261.090 7      -983.420 7        45.661                  
  23546001.198 7 123735064.900 7     -3749.514 7        47.576                  
  20428659.992 9 107353273.164 9       820.545 9        54.194                  
 02  5 18 00 02 34.0000000  0  7G01G23G21G27G30G16G08                           
  23692380.839 8 124504301.396 8      3354.728 8        48.162                  
  23060554.844 7 121184044.345 7     -2833.573 7        47.276                  
  21746379.034 7 114277976.282 7      1736.987 7        45.303                  
  20509059.016 8 107775708.382 8     -1422.830 8        51.956                  
  25188378.675 7 132367248.355 7     -1013.839 7        45.277                  
  23549533.903 8 123753632.892 8     -3705.639 8        48.550                  
  20427885.513 8 107349188.544 8       811.187 8        52.960                  
 02  5 18 00 02 35.0000000  0  7G01G23G21G27G30G16G08                           
  23691742.039 7 124500939.484 7      3371.270 7        46.650                  
  23061095.096 8 121186890.484 8     -2852.873 8        49.675                  
  21746044.990 8 114276234.525 8      1745.993 8        48.308                  
  20509293.565 8 107777130.779 8     -1423.907 8        50.745                  
  25188573.769 7 132368262.072 7     -1014.870 7        46.188                  
  23550232.671 8 123757325.542 8     -3682.682 8        48.085                  
  20427696.995 8 107348376.729 8       810.860 8        49.676                  
 02  5 18 00 02 36.0000000  0  7G01G23G21G27G30G16G08                           
  23691102.310 7 124497577.044 7      3354.015 7        46.069                  
  23061640.959 8 121189744.566 8     -2853.890 8        50.265                  
  21745710.839 7 114274494.272 7      1738.889 7        47.083                  
  20509565.496 7 107778549.495 7     -1413.477 7        46.396                  
  25188763.002 7 132369288.784 7     -1039.594 7        46.573                  
  23550937.497 8 123761003.693 8     -3667.037 8        48.291                  
  20427560.261 7 107347568.101 7       806.492 7        46.766                  
 02  5 18 00 02 37.0000000  0  7G01G23G21G27G30G16G08                           
  23690467.066 8 124494221.028 8      3355.559 8        50.508                  
  23062183.016 8 121192605.221 8     -2863.706 8        50.371                  
  21745383.515 8 114272761.688 8      1728.885 8        53.061                  
  20509847.487 8 107779959.967 8     -1406.954 8        52.426                  
  25188972.803 7 132370341.276 7     -1062.607 7        47.063                  
  23551631.745 8 123764660.113 8     -3645.436 8        49.391                  
  20427410.769 9 107346766.463 9       798.775 9        55.141                  
 02  5 18 00 02 38.0000000  0  7G01G23G21G27G30G16G08                           
  23689825.890 8 124490871.241 8      3341.830 8        48.429                  
  23062730.809 8 121195471.956 8     -2868.987 8        51.161                  
  21745056.547 8 114271036.374 8      1719.947 8        52.393                  
  20510114.396 9 107781362.860 9     -1399.654 9        55.697                  
  25189171.327 7 132371418.037 7     -1089.342 7        47.493                  
  23552323.544 8 123768296.224 8     -3627.479 8        49.838                  
  20427260.240 9 107345971.455 9       791.455 9        55.601                  
 02  5 18 00 02 39.0000000  0  7G01G23G21G27G30G16G08                           
  23689189.234 8 124487526.876 8      3345.294 8        48.314                  
  23063276.815 8 121198340.031 8     -2869.025 8        49.184                  
  21744732.421 8 114269316.497 8      1719.130 8        52.607                  
  20510375.016 9 107782761.593 9     -1398.878 9        58.007                  
  25189378.251 7 132372508.590 7     -1090.223 7        46.582                  
  23553014.986 8 123771922.934 8     -3625.665 8        51.812                  
  20427109.390 9 107345180.417 9       791.194 9        55.395                  
 02  5 18 00 02 40.0000000  0  7G01G23G21G27G30G16G08                           
  23688553.830 8 124484180.647 8      3345.554 8        50.197                  
  23063822.964 8 121201210.688 8     -2874.183 8        49.901                  
  21744404.792 8 114267595.556 8      1723.206 8        52.749                  
  20510640.282 9 107784160.980 9     -1400.437 9        57.151                  
  25189592.518 7 132373599.200 7     -1091.480 7        47.380                  
  23553704.301 8 123775548.240 8     -3621.270 8        48.525                  
  20426958.861 9 107344389.615 9       792.050 9        54.675                  
 02  5 18 00 02 41.0000000  0  7G01G23G21G27G30G16G08                           
  23687914.494 7 124480828.903 7      3351.442 7        47.643                  
  23064370.238 8 121204087.362 8     -2877.887 8        50.237                  
  21744073.536 8 114265871.032 8      1724.053 8        52.275                  
  20510911.962 9 107785561.712 9     -1400.629 9        55.677                  
  25189790.150 7 132374688.297 7     -1087.705 7        47.133                  
  23554393.724 8 123779170.248 8     -3620.428 8        50.305                  
  20426808.511 8 107343598.485 8       790.085 8        53.214                  
 02  5 18 00 02 42.0000000  0  7G01G23G21G27G30G16G08                           
  23687275.551 8 124477479.370 8      3350.933 8        48.875                  
  23064917.066 8 121206962.375 8     -2873.114 8        48.750                  
  21743743.513 8 114264148.243 8      1720.472 8        53.734                  
  20511180.820 9 107786962.552 9     -1400.194 9        57.348                  
  25190006.526 7 132375778.672 7     -1094.438 7        46.916                  
  23555084.254 8 123782793.641 8     -3626.220 8        50.071                  
  20426658.268 9 107342808.101 9       789.616 9        54.890                  
 02  5 18 00 02 43.0000000  0  8G01G23G21G27G30G16G10G08                        
  23686641.701 7 124474135.047 7      3345.356 7        47.265                  
  23065462.375 8 121209832.806 8     -2867.327 8        50.673                  
  21743417.940 8 114262429.161 8      1719.139 8        50.869                  
  20511442.994 9 107788363.094 9     -1399.581 9        57.253                  
  25190211.841 8 132376871.272 8     -1092.858 8        48.581                  
  23555772.301 8 123786420.394 8     -3628.337 8        49.998                  
  21332478.747 8 112102930.448 8      -850.631 8        53.687                  
  20426508.204 9 107342018.853 9       788.946 9        55.108                  
 02  5 18 00 02 44.0000000  0  8G01G23G21G27G30G16G10G08                        
  23686006.118 7 124470791.607 7      3338.413 7        45.987                  
  23066010.114 8 121212702.914 8     -2871.612 8        50.700                  
  21743094.332 8 114260710.865 8      1717.094 8        51.311                  
  20511706.598 9 107789763.994 9     -1400.440 9        56.214                  
  25190414.743 7 132377964.623 7     -1095.248 7        47.124                  
  23556463.689 8 123790047.748 8     -3626.747 8        50.899                  
  21332639.765 9 112103781.018 9      -850.833 9        54.579                  
  20426357.354 9 107341230.131 9       788.167 9        57.014                  
 02  5 18 00 02 45.0000000  0  8G01G23G21G27G30G16G10G08                        
  23685368.623 7 124467448.363 7      3343.635 7        46.955                  
  23066554.905 8 121215573.363 8     -2870.653 8        49.980                  
  21742768.955 8 114258992.903 8      1718.107 8        51.882                  
  20511975.920 9 107791165.335 9     -1402.315 9        57.204                  
  25190631.173 7 132379058.487 7     -1094.971 7        47.096                  
  23557154.166 8 123793675.353 8     -3629.323 8        50.485                  
  21332801.766 8 112104632.199 8      -850.493 8        53.904                  
  20426207.772 9 107340441.870 9       788.041 9        59.024                  
 02  5 18 00 02 46.0000000  0  8G01G23G21G27G30G16G10G08                        
  23684732.468 8 124464107.818 8      3342.643 8        48.761                  
  23067098.999 8 121218441.627 8     -2868.560 8        50.274                  
  21742440.022 8 114257276.959 8      1713.469 8        50.749                  
  20512246.600 9 107792566.820 9     -1401.479 9        56.285                  
  25190830.984 8 132380153.604 8     -1097.870 8        48.127                  
  23557844.804 8 123797304.895 8     -3631.044 8        48.818                  
  21332963.355 9 112105482.505 9      -851.125 9        54.623                  
  20426058.637 9 107339654.363 9       787.123 9        54.991                  
 02  5 18 00 02 47.0000000  0  8G01G23G21G27G30G16G10G08                        
  23684098.100 8 124460768.658 8      3341.641 8        48.339                  
  23067647.596 8 121221309.065 8     -2869.194 8        50.221                  
  21742110.052 8 114255562.108 8      1715.441 8        52.994                  
  20512513.188 9 107793968.601 9     -1402.046 9        54.954                  
  25191045.198 7 132381249.531 7     -1098.243 7        47.196                  
  23558535.727 8 123800935.445 8     -3630.347 8        49.607                  
  21333124.587 8 112106332.742 8      -849.610 8        53.468                  
  20425908.395 9 107338867.426 9       787.447 9        54.720                  
 02  5 18 00 02 48.0000000  0  8G01G23G21G27G30G16G10G08                        
  23683461.891 8 124457427.988 8      3341.359 8        48.939                  
  23068193.798 8 121224178.600 8     -2868.011 8        50.031                  
  21741783.746 8 114253846.427 8      1714.714 8        51.746                  
  20512775.005 8 107795371.038 8     -1401.781 8        52.604                  
  25191253.569 7 132382345.537 7     -1091.916 7        45.927                  
  23559225.311 8 123804564.988 8     -3629.211 8        50.858                  
  21333287.499 8 112107184.587 8      -851.226 8        51.963                  
  20425758.992 9 107338080.763 9       786.220 9        55.748                  
 02  5 18 00 02 49.0000000  0  8G01G23G21G27G30G16G10G08                        
  23682826.093 8 124454088.617 8      3336.228 8        48.363                  
  23068738.339 8 121227047.353 8     -2867.604 8        51.129                  
  21741459.888 8 114252131.780 8      1712.839 8        53.068                  
  20513040.288 9 107796773.787 9     -1402.400 9        54.564                  
  25191457.204 7 132383442.347 7     -1093.875 7        45.437                  
  23559917.610 8 123808195.523 8     -3631.977 8        50.829                  
  21333451.501 8 112108036.385 8      -850.678 8        53.068                  
  20425608.999 9 107337294.672 9       786.543 9        55.278                  
 02  5 18 00 02 50.0000000  0  8G01G23G21G27G30G16G10G08                        
  23682190.242 7 124450751.096 7      3342.452 7        47.480                  
  23069285.470 8 121229912.610 8     -2861.421 8        50.199                  
  21741136.494 9 114250418.067 9      1717.020 9        54.077                  
  20513312.576 9 107798178.136 9     -1407.088 9        55.738                  
  25191674.331 7 132384536.154 7     -1080.622 7        44.985                  
  23560609.052 8 123811831.898 8     -3642.342 8        48.639                  
  21333614.234 8 112108887.791 8      -853.610 8        52.861                  
  20425459.167 9 107336508.281 9       789.397 9        56.156                  
 02  5 18 00 02 51.0000000  0  8G01G23G21G27G30G16G10G08                        
  23681554.980 8 124447407.444 8      3347.625 8        49.240                  
  23069827.938 8 121232773.773 8     -2858.555 8        49.606                  
  21740808.223 8 114248697.698 8      1725.209 8        53.870                  
  20513583.739 9 107799590.504 9     -1417.579 9        56.384                  
  25191869.621 7 132385608.516 7     -1061.155 7        45.260                  
  23561303.836 8 123815486.714 8     -3661.923 8        49.847                  
  21333777.289 9 112109743.511 9      -857.812 9        54.131                  
  20425308.960 9 107335716.661 9       794.169 9        56.165                  
 02  5 18 00 02 52.0000000  0  8G01G23G21G27G30G16G10G08                        
  23680917.592 8 124444055.988 8      3357.175 8        48.850                  
  23070372.657 8 121235630.610 8     -2855.965 8        50.328                  
  21740476.341 8 114246969.103 8      1735.263 8        52.935                  
  20513851.613 9 107801012.373 9     -1426.912 9        55.656                  
  25192070.505 7 132386655.278 7     -1036.061 7        43.765                  
  23562004.498 8 123819162.936 8     -3686.697 8        49.250                  
  21333941.452 9 112110604.572 9      -864.155 9        55.389                  
  20425156.699 9 107334918.758 9       800.805 9        57.659                  
 02  5 18 00 02 53.0000000  0  8G01G23G21G27G30G16G10G08                        
  23680278.560 8 124440700.764 8      3351.072 8        49.398                  
  23070915.590 8 121238483.731 8     -2844.188 8        49.686                  
  21740144.657 8 114245236.184 8      1727.574 8        52.758                  
  20514119.631 9 107802440.232 9     -1427.487 9        58.003                  
  25192273.229 7 132387686.441 7     -1033.775 7        45.733                  
  23562706.590 8 123822853.477 8     -3696.818 8        51.308                  
  21334105.972 9 112111468.520 9      -860.169 9        55.698                  
  20425005.598 9 107334117.211 9       800.733 9        57.834                  
 02  5 18 00 02 54.0000000  0  8G01G23G21G27G30G16G10G08                        
  23679643.084 8 124437365.261 8      3326.649 8        48.856                  
  23071453.394 8 121241315.230 8     -2820.442 8        50.468                  
  21739819.083 8 114243516.245 8      1712.109 8        52.683                  
  20514390.150 9 107803867.240 9     -1427.615 9        56.426                  
  25192465.285 7 132388720.199 7     -1032.420 7        46.708                  
  23563412.184 8 123826561.806 8     -3718.957 8        52.045                  
  21334266.632 8 112112321.452 8      -847.896 8        52.167                  
  20424853.461 8 107333317.566 8       799.511 8        53.601                  
 02  5 18 00 02 55.0000000  0  8G01G23G21G27G30G16G10G08                        
  23679013.541 8 124434050.866 8      3305.411 8        50.488                  
  23071988.392 8 121244122.976 8     -2797.336 8        49.973                  
  21739497.905 8 114241810.084 8      1700.167 8        52.797                  
  20514665.958 9 107805293.638 9     -1425.804 9        57.469                  
  25192658.360 7 132389755.677 7     -1035.793 7        47.047                  
  23564122.853 8 123830290.355 8     -3736.221 8        50.157                  
  21334425.667 8 112113162.546 8      -834.717 8        52.468                  
  20424702.057 9 107332519.674 9       795.683 9        54.589                  
 02  5 18 00 02 56.0000000  0  8G01G23G21G27G30G16G10G08                        
  23678386.338 8 124430751.108 8      3298.779 8        48.587                  
  23072518.870 8 121246915.684 8     -2791.458 8        48.951                  
  21739175.816 8 114240113.779 8      1695.260 8        53.756                  
  20514940.015 9 107806719.024 9     -1425.494 9        57.690                  
  25192865.605 8 132390794.739 8     -1038.076 8        48.006                  
  23564833.933 8 123834030.422 8     -3740.798 8        50.851                  
  21334583.843 8 112113995.622 8      -831.727 8        51.452                  
  20424551.171 9 107331723.714 9       795.436 9        56.244                  
 02  5 18 00 02 57.0000000  0  8G01G23G21G27G30G16G10G08                        
  23677758.706 8 124427452.479 8      3298.199 8        49.422                  
  23073052.725 8 121249708.103 8     -2792.203 8        50.122                  
  21738851.815 9 114238418.514 9      1694.806 9        54.951                  
  20515210.552 9 107808144.493 9     -1425.825 9        54.165                  
  25193059.216 7 132391835.353 7     -1041.593 7        46.920                  
  23565544.512 8 123837770.557 8     -3739.389 8        48.605                  
  21334741.913 8 112114828.705 8      -833.249 8        52.528                  
  20424400.088 9 107330928.504 9       794.905 9        56.505                  
 02  5 18 00 02 58.0000000  0  8G01G23G21G27G30G16G10G08                        
  23677129.806 8 124424154.396 8      3300.683 8        48.374                  
  23073581.755 8 121252501.492 8     -2798.486 8        49.295                  
  21738526.474 9 114236724.032 9      1696.358 9        54.131                  
  20515477.033 8 107809569.784 8     -1426.353 8        53.260                  
  25193252.612 7 132392878.433 7     -1044.833 7        47.794                  
  23566256.539 8 123841509.074 8     -3735.490 8        49.232                  
  21334900.572 9 112115662.160 9      -834.669 9        54.425                  
  20424249.399 9 107330134.259 9       794.518 9        56.072                  
 02  5 18 00 02 59.0000000  0  8G01G23G21G27G30G16G10G08                        
  23676499.584 8 124420843.947 8      3319.657 8        48.928                  
  23074117.754 8 121255309.998 8     -2822.028 8        50.091                  
  21738200.936 8 114235021.861 8      1708.510 8        51.285                  
  20515746.587 8 107810996.016 8     -1425.982 8        51.380                  
  25193460.322 8 132393921.893 8     -1044.264 8        48.029                  
  23566966.118 7 123845235.174 7     -3718.564 7        47.928                  
  21335060.500 9 112116503.649 9      -847.304 9        54.566                  
  20424098.388 9 107329339.860 9       794.414 9        57.350                  
 02  5 18 00 03  0.0000000  0  8G01G23G21G27G30G16G10G08                        
  23675866.109 8 124417511.796 8      3342.558 8        49.122                  
  23074656.827 8 121258143.683 8     -2846.777 8        52.017                  
  21737875.827 8 114233305.842 8      1725.263 8        51.668                  
  20516021.806 8 107812424.097 8     -1429.342 8        52.997                  
  25193655.612 7 132394963.914 7     -1041.918 7        47.704                  
  23567670.765 8 123848941.366 8     -3696.081 8        49.876                  
  21335222.518 9 112117358.741 9      -862.774 9        54.489                  
  20423947.448 9 107328544.390 9       796.860 9        55.392                  
 02  5 18 00 03  1.0000000  0  8G01G23G21G27G30G16G10G08                        
  23675229.025 8 124414158.353 8      3357.656 8        48.559                  
  23075200.135 8 121261000.399 8     -2861.854 8        51.538                  
  21737550.074 8 114231575.853 8      1731.377 8        53.482                  
  20516297.329 9 107813855.033 9     -1430.475 9        55.704                  
  25193846.811 8 132396001.435 8     -1039.784 8        49.316                  
  23568372.357 8 123852631.424 8     -3686.926 8        50.679                  
  21335388.968 9 112118227.177 9      -870.149 9        54.669                  
  20423795.651 9 107327747.167 9       796.306 9        57.387                  
 02  5 18 00 03  2.0000000  0  8G01G23G21G27G30G16G10G08                        
  23674590.672 8 124410806.572 8      3346.837 8        49.248                  
  23075748.714 8 121263863.433 8     -2866.524 8        51.332                  
  21737222.535 8 114229849.013 8      1722.573 8        53.679                  
  20516569.635 9 107815281.584 9     -1422.432 9        57.500                  
  25194055.521 8 132397053.676 8     -1064.554 8        48.631                  
  23569073.108 8 123856307.258 8     -3667.290 8        49.726                  
  21335554.399 9 112119095.394 9      -866.694 9        55.107                  
  20423645.158 9 107326953.926 9       790.065 9        58.566                  
 02  5 18 00 03  3.0000000  0  8G01G23G21G27G30G16G10G08                        
  23673952.980 8 124407460.926 8      3340.802 8        48.291                  
  23076289.913 8 121266733.483 8     -2877.733 8        48.566                  
  21736893.138 9 114228129.576 9      1716.021 9        54.798                  
  20516834.900 9 107816699.926 9     -1414.894 9        57.634                  
  25194257.745 8 132398131.510 8     -1091.559 8        49.358                  
  23569767.516 8 123859961.051 8     -3642.962 8        50.593                  
  21335721.600 9 112119960.792 9      -864.216 9        56.351                  
  20423495.398 9 107326167.514 9       783.837 9        58.625                  
 02  5 18 00 03  4.0000000  0  8G01G23G21G27G30G16G10G08                        
  23673318.308 8 124404121.323 8      3341.240 8        48.292                  
  23076837.062 8 121269608.692 8     -2877.297 8        48.778                  
  21736564.276 8 114226417.045 8      1709.501 8        53.185                  
  20517100.684 9 107818111.285 9     -1410.496 9        57.439                  
  25194462.810 7 132399231.432 7     -1103.968 7        47.186                  
  23570459.226 8 123863596.692 8     -3632.977 8        51.659                  
  21335886.084 9 112120823.382 9      -861.485 9        56.234                  
  20423346.727 9 107325387.073 9       778.552 9        57.623                  
 02  5 18 00 03  5.0000000  0  8G01G23G21G27G30G16G10G08                        
  23672684.476 7 124400787.031 7      3329.147 7        47.879                  
  23077385.034 8 121272481.072 8     -2868.332 8        49.795                  
  21736238.774 8 114224708.779 8      1705.740 8        52.504                  
  20517371.918 9 107819521.160 9     -1409.377 9        57.950                  
  25194680.401 8 132400337.085 8     -1109.164 8        48.023                  
  23571152.330 8 123867231.838 8     -3640.419 8        50.970                  
  21336049.979 9 112121683.535 9      -857.985 9        56.497                  
  20423198.129 9 107324608.587 9       778.856 9        56.560                  
 02  5 18 00 03  6.0000000  0  8G01G23G21G27G30G16G10G08                        
  23672051.037 8 124397458.548 8      3327.692 8        48.095                  
  23077930.522 8 121275347.793 8     -2868.011 8        49.309                  
  21735917.167 8 114223004.536 8      1704.255 8        53.268                  
  20517644.045 9 107820930.931 9     -1410.547 9        57.402                  
  25194880.784 7 132401444.357 7     -1106.577 7        46.291                  
  23571843.468 8 123870871.677 8     -3638.451 8        50.019                  
  21336211.765 9 112122540.973 9      -857.867 9        55.676                  
  20423049.941 9 107323831.081 9       777.240 9        57.926                  
 02  5 18 00 03  7.0000000  0  8G01G23G21G27G30G16G10G08                        
  23671415.185 8 124394127.793 8      3333.964 8        49.312                  
  23078477.367 8 121278217.553 8     -2873.241 8        50.136                  
  21735595.078 9 114221298.996 9      1706.552 9        54.269                  
  20517912.760 9 107822341.366 9     -1410.653 9        57.846                  
  25195100.591 7 132402551.728 7     -1105.691 7        47.034                  
  23572536.714 8 123874509.646 8     -3636.237 8        50.786                  
  21336373.676 9 112123400.474 9      -860.282 9        54.849                  
  20422901.610 9 107323053.834 9       777.970 9        56.941                  
 02  5 18 00 03  8.0000000  0  8G01G23G21G27G30G16G10G08                        
  23670781.764 8 124390794.971 8      3333.134 8        48.553                  
  23079022.819 8 121281090.140 8     -2873.964 8        50.153                  
  21735271.238 9 114219592.289 9      1706.555 9        54.057                  
  20518175.953 9 107823752.471 9     -1412.161 9        55.653                  
  25195309.283 7 132403659.194 7     -1107.630 7        46.874                  
  23573229.086 8 123878145.995 8     -3634.377 8        50.453                  
  21336537.088 9 112124261.939 9      -862.310 9        56.609                  
  20422753.190 9 107322276.817 9       778.087 9        55.636                  
 02  5 18 00 03  9.0000000  0  8G01G23G21G27G30G16G10G08                        
  23670148.665 7 124387459.821 7      3337.288 7        47.851                  
  23079569.218 8 121283965.718 8     -2877.848 8        50.315                  
  21734943.502 8 114217884.196 8      1710.658 8        53.263                  
  20518442.576 9 107825164.314 9     -1411.476 9        55.805                  
  25195515.206 7 132404766.592 7     -1109.634 7        47.080                  
  23573918.544 8 123881780.626 8     -3632.011 8        48.878                  
  21336701.448 9 112125125.502 9      -865.886 9        55.690                  
  20422604.931 9 107321500.005 9       776.515 9        55.571                  
 02  5 18 00 03 10.0000000  0  8G01G23G21G27G30G16G10G08                        
  23669513.242 7 124384122.513 7      3336.511 7        48.000                  
  23080118.280 8 121286844.127 8     -2877.067 8        50.153                  
  21734614.766 8 114216174.860 8      1709.297 8        52.408                  
  20518715.937 9 107826576.908 9     -1413.389 9        56.084                  
  25195733.583 7 132405873.893 7     -1109.751 7        45.786                  
  23574611.951 8 123885413.718 8     -3633.621 8        50.369                  
  21336865.593 9 112125991.105 9      -866.036 9        55.382                  
  20422456.528 9 107320723.378 9       776.447 9        55.006                  
 02  5 18 00 03 11.0000000  0  8G01G23G21G27G30G16G10G08                        
  23668876.891 8 124380788.266 8      3333.057 8        49.370                  
  23080665.626 8 121289719.938 8     -2872.613 8        49.410                  
  21734289.943 8 114214467.761 8      1704.313 8        50.997                  
  20518987.724 9 107827989.598 9     -1413.061 9        56.302                  
  25195935.807 7 132406982.416 7     -1105.975 7        46.072                  
  23575302.339 8 123889049.103 8     -3638.009 8        50.341                  
  21337030.756 9 112126855.623 9      -863.129 9        55.874                  
  20422308.466 9 107319947.527 9       775.694 9        56.047                  
 02  5 18 00 03 12.0000000  0  8G01G23G21G27G30G16G10G08                        
  23668243.255 8 124377459.071 8      3327.300 8        48.070                  
  23081210.238 8 121292590.870 8     -2871.744 8        50.347                  
  21733968.247 8 114212764.173 8      1702.604 8        52.468                  
  20519255.367 9 107829402.239 9     -1412.891 9        55.888                  
  25196155.918 7 132408092.508 7     -1110.506 7        47.336                  
  23575994.388 8 123892688.496 8     -3638.022 8        49.127                  
  21337195.598 9 112127717.828 9      -862.883 9        55.181                  
  20422160.617 9 107319172.597 9       774.180 9        57.934                  
 02  5 18 00 03 13.0000000  0  8G01G23G21G27G30G16G10G08                        
  23667610.406 8 124374130.024 8      3333.131 8        48.028                  
  23081757.262 8 121295461.854 8     -2872.926 8        48.536                  
  21733647.194 8 114211060.771 8      1705.968 8        52.861                  
  20519519.453 9 107830815.566 9     -1415.579 9        55.334                  
  25196362.787 7 132409202.423 7     -1104.878 7        47.123                  
  23576688.796 7 123896328.775 7     -3641.357 7        47.639                  
  21337362.083 9 112128580.656 9      -864.532 9        55.530                  
  20422013.073 9 107318397.960 9       775.257 9        57.284                  
 02  5 18 00 03 14.0000000  0  8G01G23G21G27G30G16G10G08                        
  23666975.055 8 124370789.717 8      3350.493 8        48.775                  
  23082304.983 8 121298337.413 8     -2879.130 8        49.302                  
  21733321.388 9 114209348.165 9      1718.187 9        54.898                  
  20519788.167 9 107832235.537 9     -1423.865 9        57.066                  
  25196568.585 8 132410295.693 8     -1083.682 8        48.698                  
  23577381.328 8 123899976.934 8     -3652.387 8        49.397                  
  21337527.711 9 112129450.846 9      -874.550 9        54.920                  
  20421864.545 9 107317619.083 9       780.539 9        55.434                  
 02  5 18 00 03 15.0000000  0  8G01G23G21G27G30G16G10G08                        
  23666337.166 8 124367439.208 8      3348.372 8        49.127                  
  23082852.419 8 121301220.836 8     -2888.253 8        49.445                  
  21732991.454 8 114207628.114 8      1719.430 8        52.602                  
  20520063.600 9 107833659.248 9     -1421.141 9        56.928                  
  25196782.066 7 132411380.664 7     -1091.215 7        47.880                  
  23578076.487 8 123903624.550 8     -3635.353 8        50.254                  
  21337694.394 9 112130327.782 9      -876.580 9        56.687                  
  20421715.625 9 107316838.063 9       779.197 9        58.220                  
 02  5 18 00 03 16.0000000  0  8G01G23G21G27G30G16G10G08                        
  23665699.778 8 124364089.925 8      3348.570 8        48.476                  
  23083401.480 8 121304112.609 8     -2895.606 8        48.717                  
  21732661.485 8 114205911.271 8      1715.729 8        53.123                  
  20520336.550 9 107835077.687 9     -1417.573 9        56.527                  
  25196982.467 7 132412482.926 7     -1109.991 7        45.520                  
  23578767.643 8 123907254.458 8     -3624.260 8        50.752                  
  21337861.969 9 112131204.853 9      -877.748 9        55.493                  
  20421567.759 9 107316061.590 9       775.615 9        58.419                  
 02  5 18 00 03 17.0000000  0  8G01G23G21G27G30G16G10G08                        
  23665064.052 7 124360740.206 7      3354.853 7        47.241                  
  23083955.795 8 121307007.235 8     -2894.008 8        50.107                  
  21732335.500 9 114204194.753 9      1715.905 9        54.331                  
  20520605.032 9 107836495.526 9     -1418.379 9        57.225                  
  25197201.112 7 132413588.817 7     -1102.852 7        44.687                  
  23579457.673 8 123910880.363 8     -3623.757 8        48.753                  
  21338025.971 9 112132082.926 9      -878.538 9        57.175                  
  20421419.857 9 107315286.289 9       775.122 9        59.993                  
 02  5 18 00 03 18.0000000  0  8G01G23G21G27G30G16G10G08                        
  23664426.825 7 124357390.269 7      3346.615 7        47.093                  
  23084504.213 8 121309902.595 8     -2896.665 8        49.669                  
  21732011.910 8 114202478.293 8      1716.639 8        53.719                  
  20520870.172 9 107837913.903 9     -1418.526 9        55.359                  
  25197409.001 7 132414695.037 7     -1102.788 7        43.983                  
  23580147.989 8 123914506.236 8     -3628.963 8        48.939                  
  21338192.600 9 112132961.867 9      -880.028 9        55.418                  
  20421271.901 9 107314511.404 9       773.963 9        55.807                  
 02  5 18 00 03 19.0000000  0  8G01G23G21G27G30G16G10G08                        
  23663787.775 7 124354040.167 7      3351.382 7        46.696                  
  23085057.724 8 121312798.664 8     -2897.507 8        51.193                  
  21731686.944 9 114200761.905 9      1716.761 9        54.340                  
  20521139.083 9 107839332.792 9     -1419.318 9        57.286                  
  25197617.175 7 132415801.641 7     -1108.689 7        44.461                  
  23580837.019 8 123918132.090 8     -3623.734 8        50.968                  
  21338360.122 9 112133841.620 9      -880.054 9        54.306                  
  20421124.053 9 107313736.926 9       774.167 9        57.979                  
 02  5 18 00 03 20.0000000  0  8G01G23G21G27G30G16G10G08                        
  23663148.975 7 124350688.432 7      3352.661 7        47.266                  
  23085608.662 8 121315695.914 8     -2900.500 8        51.041                  
  21731359.494 9 114199044.343 9      1721.112 9        54.053                  
  20521413.319 9 107840753.031 9     -1423.208 9        55.388                  
  25197833.104 7 132416906.258 7     -1098.918 7        43.740                  
  23581527.478 8 123921759.058 8     -3631.972 8        50.331                  
  21338527.447 9 112134723.057 9      -884.492 9        54.627                  
  20420976.330 9 107312962.195 9       776.542 9        56.993                  
 02  5 18 00 03 21.0000000  0  8G01G23G21G27G30G16G10G08                        
  23662511.355 8 124347327.687 8      3367.058 8        48.825                  
  23086159.224 8 121318593.185 8     -2897.284 8        50.869                  
  21731027.273 8 114197318.513 8      1731.845 8        51.978                  
  20521687.948 9 107842180.992 9     -1432.583 9        55.172                  
  25198031.021 7 132417990.836 7     -1071.512 7        45.564                  
  23582219.724 8 123925399.991 8     -3651.177 8        50.454                  
  21338698.132 8 112135610.478 8      -890.528 8        53.744                  
  20420827.481 9 107312182.564 9       781.075 9        54.678                  
 02  5 18 00 03 22.0000000  0  8G01G23G21G27G30G16G10G08                        
  23661869.124 8 124343954.462 8      3377.721 8        48.573                  
  23086706.678 8 121321490.837 8     -2898.898 8        49.679                  
  21730695.642 8 114195581.341 8      1741.582 8        52.654                  
  20521961.719 9 107843619.156 9     -1442.409 9        56.580                  
  25198237.891 7 132419048.560 7     -1046.198 7        45.978                  
  23582915.954 8 123929059.123 8     -3667.842 8        51.825                  
  21338871.283 8 112136505.881 8      -899.089 8        52.675                  
  20420677.882 9 107311396.237 9       790.199 9        55.904                  
 02  5 18 00 03 23.0000000  0  8G01G23G21G27G30G16G10G08                        
  23661223.660 8 124340572.560 8      3388.243 8        48.766                  
  23087260.528 8 121324388.453 8     -2906.219 8        50.959                  
  21730366.191 8 114193836.232 8      1750.665 8        53.187                  
  20522232.667 9 107845064.841 9     -1447.473 9        58.156                  
  25198437.792 8 132420086.865 8     -1035.151 8        49.217                  
  23583615.973 8 123932731.886 8     -3668.049 8        50.734                  
  21339043.487 9 112137407.010 9      -906.324 9        56.246                  
  20420527.585 9 107310605.201 9       791.567 9        57.809                  
 02  5 18 00 03 24.0000000  0  8G01G23G21G27G30G16G10G08                        
  23660577.158 7 124337169.657 7      3417.253 7        46.321                  
  23087819.275 8 121327306.050 8     -2930.109 8        50.877                  
  21730034.649 8 114192076.688 8      1768.727 8        52.761                  
  20522506.242 9 107846515.058 9     -1452.519 9        57.834                  
  25198625.166 7 132421115.578 7     -1021.385 7        46.410                  
  23584313.008 8 123936394.513 8     -3659.324 8        50.222                  
  21339214.368 9 112138321.362 9      -922.104 9        55.471                  
  20420376.538 9 107309811.196 9       795.325 9        56.854                  
 02  5 18 00 03 25.0000000  0  8G01G23G21G27G30G16G10G08                        
  23659925.475 7 124333740.413 7      3440.059 7        47.333                  
  23088376.252 8 121330247.771 8     -2950.405 8        48.931                  
  21729693.333 8 114190298.825 8      1784.824 8        52.594                  
  20522783.105 9 107847971.379 9     -1459.422 9        57.505                  
  25198821.029 7 132422130.650 7     -1008.726 7        45.794                  
  23585006.541 8 123940046.073 8     -3648.489 8        49.696                  
  21339389.342 9 112139252.123 9      -938.268 9        54.487                  
  20420225.081 9 107309013.006 9       800.353 9        56.084                  
 02  5 18 00 03 26.0000000  0  8G01G23G21G27G30G16G10G08                        
  23659268.342 8 124330293.257 8      3451.341 8        49.014                  
  23088941.950 8 121333206.279 8     -2960.280 8        50.244                  
  21729348.872 8 114188508.597 8      1792.115 8        53.012                  
  20523064.613 9 107849431.905 9     -1462.096 9        55.579                  
  25199021.019 7 132423136.884 7     -1004.014 7        42.359                  
  23585701.556 8 123943689.741 8     -3643.010 8        50.032                  
  21339568.157 9 112140194.273 9      -943.940 9        54.043                  
  20420073.444 9 107308212.195 9       802.094 9        56.238                  
 02  5 18 00 03 27.0000000  0  8G01G23G21G27G30G16G10G08                        
  23658613.674 8 124326844.806 8      3449.496 8        49.542                  
  23089503.680 8 121336166.152 8     -2957.826 8        50.918                  
  21729011.808 9 114186717.594 9      1790.834 9        54.340                  
  20523345.300 9 107850893.399 9     -1462.478 9        57.007                  
  25199206.535 7 132424142.253 7     -1005.962 7        43.238                  
  23586394.088 8 123947333.658 8     -3643.905 8        49.789                  
  21339750.457 9 112141137.920 9      -945.215 9        56.530                  
  20419921.039 9 107307411.486 9       800.256 9        57.716                  
 02  5 18 00 03 28.0000000  0  8G01G23G21G27G30G16G10G08                        
  23657957.238 8 124323396.896 8      3443.224 8        49.088                  
  23090066.126 8 121339126.313 8     -2958.650 8        51.378                  
  21728674.316 9 114184927.202 9      1789.116 9        54.365                  
  20523624.557 9 107852355.189 9     -1460.433 9        56.629                  
  25199393.481 7 132425148.625 7     -1009.107 7        44.892                  
  23587087.478 8 123950977.485 8     -3645.727 8        49.838                  
  21339931.220 9 112142081.971 9      -943.294 9        56.303                  
  20419769.117 9 107306611.415 9       799.730 9        57.015                  
 02  5 18 00 03 29.0000000  0  8G01G23G21G27G30G16G10G08                        
  23657301.927 8 124319962.078 8      3424.191 8        48.489                  
  23090626.623 8 121342075.209 8     -2938.318 8        51.928                  
  21728330.820 8 114183146.193 8      1772.792 8        53.992                  
  20523900.616 9 107853814.751 9     -1457.219 9        58.109                  
  25199591.648 7 132426162.283 7     -1021.680 7        47.177                  
  23587783.012 8 123954627.116 8     -3654.463 8        50.172                  
  21340109.821 9 112143018.950 9      -930.507 9        56.250                  
  20419617.820 9 107305814.054 9       795.053 9        55.868                  
 02  5 18 00 03 30.0000000  0  8G01G23G21G27G30G16G10G08                        
  23656655.015 8 124316553.267 8      3397.493 8        48.841                  
  23091192.982 8 121345001.254 8     -2915.689 8        50.000                  
  21727994.096 8 114181383.649 8      1752.577 8        52.629                  
  20524173.636 9 107855269.355 9     -1451.909 9        56.208                  
  25199789.619 7 132427190.161 7     -1035.306 7        46.892                  
  23588477.920 8 123958287.986 8     -3668.427 8        50.647                  
  21340279.451 9 112143941.177 9      -915.035 9        57.082                  
  20419467.148 9 107305021.681 9       790.039 9        56.410                  
 02  5 18 00 03 31.0000000  0  8G01G23G21G27G30G16G10G08                        
  23656010.962 8 124313169.775 8      3377.438 8        49.143                  
  23091737.183 8 121347904.169 8     -2897.632 8        50.383                  
  21727665.235 8 114179638.847 8      1740.238 8        53.643                  
  20524447.622 9 107856719.715 9     -1448.731 9        56.871                  
  25199977.905 8 132428230.226 8     -1046.132 8        48.320                  
  23589177.760 8 123961961.738 8     -3675.998 8        49.673                  
  21340454.872 9 112144848.961 9      -903.656 9        56.481                  
  20419317.406 9 107304233.742 9       785.932 9        58.294                  
 02  5 18 00 03 32.0000000  0  8G01G23G21G27G30G16G10G08                        
  23655367.909 7 124309798.253 7      3360.767 7        47.758                  
  23092284.958 8 121350801.460 8     -2900.018 8        49.263                  
  21727337.570 8 114177903.748 8      1728.620 8        53.621                  
  20524724.092 9 107858165.148 9     -1440.559 9        55.593                  
  25200185.686 8 132429285.428 8     -1070.477 8        48.831                  
  23589876.886 8 123965631.224 8     -3663.483 8        51.331                  
  21340627.183 9 112145750.434 9      -898.899 9        56.652                  
  20419168.181 9 107303450.325 9       779.398 9        56.145                  
 02  5 18 00 03 33.0000000  0  8G01G23G21G27G30G16G10G08                        
  23654729.824 8 124306442.091 8      3349.195 8        48.615                  
  23092838.558 8 121353696.405 8     -2891.793 8        50.019                  
  21727008.762 9 114176182.268 9      1715.524 9        54.535                  
  20525001.383 9 107859601.051 9     -1432.394 9        55.075                  
  25200393.842 7 132430369.044 7     -1094.367 7        47.168                  
  23590569.203 8 123969284.871 8     -3648.336 8        49.405                  
  21340798.547 9 112146643.646 9      -888.198 9        55.599                  
  20419020.208 9 107302674.772 9       772.313 9        56.789                  
 02  5 18 00 03 34.0000000  0  8G01G23G21G27G30G16G10G08                        
  23654091.739 8 124303097.549 8      3340.903 8        48.063                  
  23093389.406 8 121356585.160 8     -2885.487 8        48.912                  
  21726679.508 9 114174470.010 9      1711.573 9        54.910                  
  20525275.816 9 107861032.724 9     -1433.841 9        56.353                  
  25200595.869 7 132431465.904 7     -1094.750 7        45.040                  
  23591267.400 8 123972936.044 8     -3658.821 8        49.047                  
  21340968.195 9 112147530.745 9      -887.110 9        56.883                  
  20418872.806 9 107301903.244 9       772.817 9        56.330                  
 02  5 18 00 03 35.0000000  0  8G01G23G21G27G30G16G10G08                        
  23653459.194 8 124299757.823 8      3332.612 8        49.927                  
  23093937.092 8 121359466.221 8     -2878.854 8        48.472                  
  21726352.916 8 114172760.380 8      1704.215 8        53.729                  
  20525546.442 9 107862466.316 9     -1431.028 9        56.248                  
  25200812.460 7 132432558.651 7     -1099.392 7        47.766                  
  23591962.290 8 123976597.411 8     -3660.889 8        51.398                  
  21341136.057 9 112148415.608 9      -881.920 9        55.239                  
  20418725.387 9 107301131.297 9       770.985 9        57.723                  
 02  5 18 00 03 36.0000000  0  8G01G23G21G27G30G16G10G08                        
  23652824.861 8 124296434.831 8      3318.034 8        49.009                  
  23094485.599 8 121362339.130 8     -2870.956 8        50.379                  
  21726032.006 8 114171064.204 8      1689.804 8        52.265                  
  20525813.530 9 107863892.884 9     -1422.862 9        54.692                  
  25201016.953 7 132433672.223 7     -1122.112 7        46.587                  
  23592658.092 8 123980252.984 8     -3653.848 8        51.019                  
  21341303.382 8 112149291.313 8      -872.328 8        53.284                  
  20418579.111 9 107300365.436 9       763.451 9        56.424                  
 02  5 18 00 03 37.0000000  0  8G01G23G21G27G30G16G10G08                        
  23652194.818 7 124293119.498 7      3314.794 7        47.662                  
  23095031.891 8 121365208.859 8     -2871.058 8        52.513                  
  21725712.955 8 114169374.387 8      1689.929 8        52.353                  
  20526083.049 9 107865316.387 9     -1423.711 9        55.393                  
  25201232.310 7 132434796.006 7     -1124.283 7        47.564                  
  23593354.323 8 123983905.427 8     -3651.342 8        49.250                  
  21341467.706 8 112150163.232 8      -871.788 8        53.994                  
  20418433.086 9 107299602.686 9       762.815 9        54.788                  
 02  5 18 00 03 38.0000000  0  8G01G23G21G27G30G16G10G08                        
  23651564.631 7 124289802.018 7      3322.232 7        47.078                  
  23095573.948 8 121368080.999 8     -2874.056 8        51.514                  
  21725393.867 8 114167683.190 8      1696.300 8        52.864                  
  20526358.643 9 107866740.872 9     -1427.255 9        55.657                  
  25201448.704 7 132435918.935 7     -1117.855 7        47.472                  
  23594048.391 8 123987557.178 8     -3653.227 8        48.960                  
  21341631.529 9 112151037.185 9      -877.748 9        54.995                  
  20418287.078 9 107298839.970 9       765.206 9        56.823                  
 02  5 18 00 03 39.0000000  0  8G01G23G21G27G30G16G10G08                        
  23650932.836 8 124286469.923 8      3342.172 8        49.671                  
  23096126.333 8 121370960.558 8     -2885.513 8        52.025                  
  21725069.831 8 114165980.428 8      1711.076 8        52.548                  
  20526634.076 9 107868172.803 9     -1437.455 9        55.483                  
  25201653.090 7 132437023.234 7     -1094.487 7        46.346                  
  23594743.514 8 123991215.629 8     -3662.597 8        48.612                  
  21341800.427 9 112151920.407 9      -889.633 9        56.873                  
  20418140.319 9 107298072.440 9       770.453 9        56.002                  
 02  5 18 00 03 40.0000000  0  8G01G23G21G27G30G16G10G08                        
  23650291.320 8 124283118.103 8      3363.199 8        48.147                  
  23096674.733 8 121373849.362 8     -2892.990 8        49.966                  
  21724738.432 8 114164261.779 8      1726.300 8        53.261                  
  20526908.258 9 107869615.009 9     -1447.936 9        57.033                  
  25201867.715 7 132438101.190 7     -1062.614 7        47.092                  
  23595444.159 8 123994884.226 8     -3676.031 8        48.477                  
  21341969.664 9 112152815.945 9      -902.204 9        55.105                  
  20417992.864 9 107297298.055 9       778.496 9        56.081                  
 02  5 18 00 03 41.0000000  0  8G01G23G21G27G30G16G10G08                        
  23649649.983 7 124279748.684 7      3374.170 7        47.593                  
  23097225.028 8 121376744.888 8     -2896.746 8        49.654                  
  21724406.264 8 114162528.647 8      1737.737 8        53.380                  
  20527180.850 9 107871067.450 9     -1454.871 9        57.696                  
  25202060.236 7 132439152.783 7     -1043.882 7        47.403                  
  23596142.927 8 123998565.153 8     -3683.267 8        50.411                  
  21342144.977 9 112153722.492 9      -909.437 9        55.170                  
  20417843.980 9 107296516.940 9       782.360 9        56.196                  
 02  5 18 00 03 42.0000000  0  8G01G23G21G27G30G16G10G08                        
  23649006.894 7 124276362.940 7      3399.313 7        46.856                  
  23097781.451 8 121379653.337 8     -2920.240 8        50.095                  
  21724075.759 8 114160783.729 8      1754.605 8        51.599                  
  20527455.926 9 107872525.241 9     -1461.298 9        55.945                  
  25202258.010 7 132440192.071 7     -1029.462 7        45.509                  
  23596842.678 8 124002243.807 8     -3673.564 8        49.614                  
  21342321.363 9 112154639.443 9      -925.627 9        55.038                  
  20417695.524 9 107295732.455 9       786.272 9        55.096                  
 02  5 18 00 03 43.0000000  0  8G01G23G21G27G30G16G10G08                        
  23648357.266 7 124272950.122 7      3425.287 7        47.256                  
  23098339.876 8 121382585.183 8     -2940.629 8        50.338                  
  21723744.146 8 114159019.630 8      1774.625 8        52.474                  
  20527734.218 9 107873990.203 9     -1468.003 9        54.907                  
  25202459.716 7 132441214.624 7     -1013.504 7        43.790                  
  23597542.214 8 124005914.045 8     -3669.112 8        49.632                  
  21342499.052 9 112155573.220 9      -941.296 9        55.528                  
  20417544.316 9 107294943.091 9       791.812 9        56.601                  
 02  5 18 00 03 44.0000000  0  8G01G23G21G27G30G16G10G08                        
  23647702.509 8 124269512.416 8      3447.432 8        50.012                  
  23098898.033 8 121385539.021 8     -2961.876 8        50.503                  
  21723403.115 8 114157238.079 8      1789.019 8        53.510                  
  20528016.674 9 107875461.529 9     -1473.549 9        56.730                  
  25202648.681 7 132442222.675 7     -1001.736 7        45.448                  
  23598237.945 8 124009575.653 8     -3657.689 8        49.998                  
  21342676.474 9 112156522.560 9      -954.613 9        55.292                  
  20417393.734 9 107294149.469 9       794.939 9        57.105                  
 02  5 18 00 03 45.0000000  0  8G01G23G21G27G30G16G10G08                        
  23647047.788 8 124266064.735 8      3447.053 8        48.784                  
  23099464.499 8 121388504.693 8     -2965.957 8        51.163                  
  21723057.403 9 114155450.265 9      1787.481 9        54.422                  
  20528299.630 9 107876934.025 9     -1472.528 9        56.716                  
  25202833.411 7 132443230.011 7     -1008.173 7        47.983                  
  23598932.531 8 124013228.252 8     -3648.957 8        51.892                  
  21342857.165 9 112157478.662 9      -954.509 9        55.346                  
  20417241.740 9 107293355.559 9       792.800 9        56.932                  
 02  5 18 00 03 46.0000000  0  8G01G23G21G27G30G16G10G08                        
  23646390.387 8 124262617.726 8      3443.556 8        48.929                  
  23100029.017 8 121391471.188 8     -2964.570 8        51.290                  
  21722722.163 9 114153663.329 9      1786.907 9        56.002                  
  20528581.460 9 107878406.345 9     -1473.545 9        57.248                  
  25203031.614 8 132444239.672 8     -1005.045 8        48.653                  
  23599629.441 8 124016879.433 8     -3654.007 8        52.005                  
  21343040.930 9 112158435.119 9      -957.913 9        55.459                  
  20417092.087 9 107292562.588 9       792.824 9        54.528                  
 02  5 18 00 03 47.0000000  0  8G01G23G21G27G30G16G10G08                        
  23645734.344 7 124259169.489 7      3451.208 7        47.924                  
  23100591.909 8 121394437.277 8     -2968.374 8        52.209                  
  21722385.278 9 114151875.251 9      1787.467 9        55.498                  
  20528862.361 9 107879880.711 9     -1474.927 9        57.517                  
  25203226.297 7 132445245.403 7     -1004.803 7        47.343                  
  23600323.099 8 124020534.427 8     -3658.243 8        50.970                  
  21343225.106 9 112159392.962 9      -958.338 9        55.989                  
  20416940.754 9 107291768.988 9       794.571 9        56.158                  
 02  5 18 00 03 48.0000000  0  8G01G23G21G27G30G16G10G08                        
  23645078.497 7 124255721.018 7      3445.664 7        47.533                  
  23101155.194 8 121397403.373 8     -2966.975 8        50.463                  
  21722040.477 8 114150087.015 8      1789.014 8        53.661                  
  20529140.171 9 107881356.140 9     -1474.686 9        56.735                  
  25203410.705 8 132446250.076 8     -1004.287 8        48.628                  
  23601019.955 8 124024190.932 8     -3654.863 8        50.533                  
  21343407.924 9 112160351.646 9      -959.543 9        54.667                  
  20416790.351 9 107290975.510 9       793.014 9        55.897                  
 02  5 18 00 03 49.0000000  0  8G01G23G21G27G30G16G10G08                        
  23644421.489 8 124252272.707 8      3447.279 8        49.616                  
  23101720.141 8 121400369.888 8     -2967.586 8        49.323                  
  21721699.751 8 114148299.100 8      1786.939 8        53.703                  
  20529418.373 9 107882832.000 9     -1476.965 9        58.242                  
  25203600.903 8 132447255.261 8     -1006.050 8        48.938                  
  23601715.828 8 124027847.602 8     -3654.523 8        50.080                  
  21343588.044 9 112161310.956 9      -958.511 9        55.187                  
  20416638.893 9 107290182.484 9       792.383 9        56.103                  
 02  5 18 00 03 50.0000000  0  8G01G23G21G27G30G16G10G08                        
  23643766.589 8 124248824.783 8      3447.660 8        48.542                  
  23102287.912 8 121403336.943 8     -2965.868 8        50.175                  
  21721364.117 8 114146511.747 8      1788.248 8        53.885                  
  20529697.845 9 107884308.062 9     -1476.492 9        59.294                  
  25203801.286 8 132448261.686 8     -1003.797 8        48.987                  
  23602410.201 8 124031503.778 8     -3656.522 8        49.707                  
  21343768.503 9 112162270.794 9      -960.702 9        55.721                  
  20416488.275 9 107289390.157 9       792.518 9        57.446                  
 02  5 18 00 03 51.0000000  0  8G01G23G21G27G30G16G10G08                        
  23643109.992 8 124245377.226 8      3448.627 8        48.974                  
  23102851.286 8 121406304.499 8     -2966.754 8        50.800                  
  21721023.390 8 114144724.921 8      1787.749 8        53.848                  
  20529978.746 9 107885784.396 9     -1476.948 9        57.040                  
  25203991.020 8 132449269.255 8     -1008.339 8        49.639                  
  23603107.486 8 124035159.564 8     -3654.057 8        50.259                  
  21343955.413 8 112163231.109 8      -961.899 8        53.394                  
  20416338.157 9 107288598.457 9       791.690 9        54.876                  
 02  5 18 00 03 52.0000000  0  8G01G23G21G27G30G16G10G08                        
  23642453.484 8 124241930.472 8      3445.306 8        49.655                  
  23103412.910 8 121409272.874 8     -2970.349 8        52.630                  
  21720675.999 9 114142939.073 9      1784.264 9        55.082                  
  20530262.560 9 107887260.445 9     -1475.220 9        57.590                  
  25204174.231 8 132450279.455 8     -1013.327 8        51.467                  
  23603802.412 8 124038813.771 8     -3654.135 8        49.785                  
  21344139.518 9 112164191.720 9      -959.609 9        55.874                  
  20416189.791 9 107287807.786 9       789.738 9        57.016                  
 02  5 18 00 03 53.0000000  0  8G01G23G21G27G30G16G10G08                        
  23641799.174 8 124238485.380 8      3444.949 8        49.715                  
  23103979.608 8 121412242.326 8     -2969.089 8        50.645                  
  21720340.990 9 114141155.068 9      1783.446 9        54.553                  
  20530545.641 9 107888735.411 9     -1475.123 9        57.230                  
  25204371.594 8 132451294.597 8     -1017.711 8        50.679                  
  23604496.016 8 124042464.629 8     -3648.452 8        50.830                  
  21344320.049 9 112165152.116 9      -959.529 9        56.207                  
  20416036.492 9 107287018.717 9       789.237 9        57.015                  
 02  5 18 00 03 54.0000000  0  8G01G23G21G27G30G16G10G08                        
  23641142.612 8 124235040.973 8      3441.129 8        49.383                  
  23104546.449 8 121415212.343 8     -2970.227 8        50.368                  
  21720005.892 9 114139371.915 9      1781.900 9        54.619                  
  20530827.721 9 107890210.327 9     -1474.299 9        57.755                  
  25204571.352 8 132452311.642 8     -1016.808 8        49.387                  
  23605192.390 8 124046114.553 8     -3647.381 8        49.856                  
  21344501.062 9 112166112.852 9      -961.670 9        56.814                  
  20415887.036 9 107286230.488 9       788.926 9        58.340                  
 02  5 18 00 03 55.0000000  0  8G01G23G21G27G30G16G10G08                        
  23640487.427 8 124231596.878 8      3448.289 8        50.495                  
  23105111.753 8 121418182.773 8     -2968.458 8        50.288                  
  21719664.326 8 114137589.221 8      1780.670 8        53.757                  
  20531108.533 9 107891685.602 9     -1475.363 9        57.621                  
  25204760.281 8 132453329.546 8     -1016.762 8        48.081                  
  23605885.958 8 124049764.402 8     -3649.751 8        50.009                  
  21344684.702 9 112167074.119 9      -961.749 9        57.516                  
  20415738.222 9 107285442.863 9       786.848 9        57.655                  
 02  5 18 00 03 56.0000000  0  8G01G23G21G27G30G16G10G08                        
  23639833.117 8 124228153.022 8      3438.951 8        48.070                  
  23105676.647 8 121421153.639 8     -2970.653 8        51.405                  
  21719322.885 9 114135806.896 9      1783.081 9        55.020                  
  20531386.414 9 107893161.295 9     -1476.626 9        57.131                  
  25204950.961 7 132454348.092 7     -1018.905 7        46.785                  
  23606580.312 8 124053414.266 8     -3647.160 8        49.178                  
  21344869.432 9 112168035.945 9      -962.009 9        57.609                  
  20415586.961 9 107284655.773 9       787.379 9        58.501                  
 02  5 18 00 03 57.0000000  0  8G01G23G21G27G30G16G10G08                        
  23639176.377 8 124224709.199 8      3441.799 8        48.029                  
  23106241.237 8 121424124.793 8     -2970.933 8        50.987                  
  21718982.355 9 114134024.747 9      1783.285 9        55.086                  
  20531664.706 9 107894637.618 9     -1477.002 9        58.415                  
  25205153.203 7 132455366.775 7     -1017.756 7        47.017                  
  23607276.222 8 124057064.631 8     -3648.862 8        48.620                  
  21345053.161 9 112168998.492 9      -962.852 9        55.949                  
  20415440.614 9 107283869.030 9       786.857 9        58.929                  
 02  5 18 00 03 58.0000000  0  8G01G23G21G27G30G16G10G08                        
  23638522.138 8 124221264.702 8      3444.702 8        48.622                  
  23106807.828 8 121427096.038 8     -2969.943 8        52.144                  
  21718648.544 9 114132242.074 9      1783.466 9        54.327                  
  20531944.589 9 107896115.230 9     -1479.047 9        57.329                  
  25205344.116 7 132456383.582 7     -1019.056 7        45.981                  
  23607969.861 8 124060716.982 8     -3654.954 8        48.813                  
  21345233.942 9 112169962.155 9      -964.826 9        55.115                  
  20415288.638 9 107283082.179 9       787.172 9        59.372                  
 02  5 18 00 03 59.0000000  0  8G01G23G21G27G30G16G10G08                        
  23637865.577 8 124217818.613 8      3445.244 8        51.022                  
  23107374.419 8 121430066.703 8     -2971.629 8        51.509                  
  21718307.996 9 114130457.906 9      1783.750 9        55.417                  
  20532226.330 9 107897595.295 9     -1480.053 9        56.779                  
  25205528.238 7 132457395.381 7     -1009.036 7        46.156                  
  23608666.449 8 124064373.952 8     -3657.618 8        49.611                  
  21345416.474 9 112170927.403 9      -966.144 9        56.995                  
  20415139.985 9 107282294.432 9       787.868 9        58.419                  
 02  5 18 00 04  0.0000000  0  8G01G23G21G27G30G16G10G08                        
  23637209.355 8 124214372.201 8      3445.989 8        49.728                  
  23107938.740 8 121433037.345 8     -2970.459 8        51.938                  
  21717963.213 8 114128673.458 8      1783.355 8        52.814                  
  20532511.108 8 107899076.495 8     -1480.524 8        52.504                  
  25205726.155 7 132458405.847 7     -1009.189 7        45.019                  
  23609363.002 8 124068032.652 8     -3658.726 8        50.664                  
  21345602.901 9 112171893.539 9      -966.358 9        54.873                  
  20414989.475 9 107281506.730 9       787.032 9        55.854                  
 02  5 18 00 04  1.0000000  0  8G01G23G21G27G30G16G10G08                        
  23636554.741 8 124210925.954 8      3446.018 8        51.189                  
  23108502.740 8 121436008.357 8     -2970.291 8        49.518                  
  21717626.560 8 114126889.325 8      1783.522 8        53.952                  
  20532795.386 8 107900558.159 8     -1481.967 8        53.757                  
  25205920.963 7 132459416.734 7     -1004.948 7        44.575                  
  23610057.732 8 124071691.552 8     -3657.646 8        51.140                  
  21345788.793 9 112172860.300 9      -966.750 9        55.154                  
  20414838.803 9 107280719.509 9       787.194 9        56.172                  
 02  5 18 00 04  2.0000000  0  8G01G23G21G27G30G16G10G08                        
  23635897.482 8 124207480.321 8      3444.471 8        49.229                  
  23109069.420 8 121438980.101 8     -2972.893 8        50.539                  
  21717288.747 9 114125105.974 9      1781.821 9        54.473                  
  20533078.736 8 107902039.763 8     -1481.000 8        53.891                  
  25206108.535 7 132460429.656 7     -1015.287 7        45.450                  
  23610755.034 8 124075349.333 8     -3654.478 8        49.991                  
  21345969.556 8 112173827.433 8      -967.484 8        53.097                  
  20414688.185 9 107279933.157 9       785.971 9        57.814                  
 02  5 18 00 04  3.0000000  0  8G01G23G21G27G30G16G10G08                        
  23635242.708 8 124204035.679 8      3442.592 8        49.153                  
  23109634.028 8 121441952.775 8     -2971.704 8        49.171                  
  21716947.859 9 114123323.868 9      1781.283 9        55.264                  
  20533360.887 8 107903520.842 8     -1480.595 8        53.690                  
  25206301.967 7 132461445.901 7     -1015.105 7        45.643                  
  23611450.801 8 124079004.939 8     -3654.119 8        50.331                  
  21346152.999 9 112174794.719 9      -966.682 9        55.544                  
  20414540.176 9 107279147.983 9       784.650 9        57.603                  
 02  5 18 00 04  4.0000000  0  8G01G23G21G27G30G16G10G08                        
  23634588.094 7 124200591.593 7      3443.835 7        46.560                  
  23110199.225 8 121444926.030 8     -2974.628 8        51.231                  
  21716605.793 9 114121542.455 9      1780.887 9        54.561                  
  20533640.573 9 107905002.007 9     -1482.662 9        54.364                  
  25206503.315 7 132462463.735 7     -1017.890 7        44.467                  
  23612145.423 8 124082659.811 8     -3655.946 8        49.300                  
  21346337.872 8 112175762.427 8      -967.470 8        53.536                  
  20414390.684 9 107278363.573 9       783.257 9        54.937                  
 02  5 18 00 04  5.0000000  0  8G01G23G21G27G30G16G10G08                        
  23633932.551 7 124197151.477 7      3430.384 7        46.708                  
  23110760.277 8 121447896.842 8     -2965.162 8        49.674                  
  21716271.946 8 114119764.177 8      1771.090 8        52.972                  
  20533919.348 9 107906482.477 9     -1478.868 9        54.764                  
  25206698.605 7 132463485.170 7     -1028.294 7        45.669                  
  23612842.297 8 124086315.283 8     -3658.657 8        50.456                  
  21346524.568 8 112176728.492 8      -961.126 8        51.513                  
  20414241.048 8 107277580.523 8       779.601 8        53.920                  
 02  5 18 00 04  6.0000000  0  8G01G23G21G27G30G16G10G08                        
  23633282.458 7 124193733.662 7      3407.052 7        47.204                  
  23111326.010 8 121450848.692 8     -2941.387 8        51.010                  
  21715938.438 9 114118001.828 9      1754.529 9        54.753                  
  20534198.605 9 107907958.324 9     -1472.949 9        56.289                  
  25206885.801 7 132464520.083 7     -1047.276 7        45.241                  
  23613538.599 8 124089979.156 8     -3668.599 8        49.127                  
  21346705.599 9 112177681.914 9      -945.759 9        54.139                  
  20414093.415 9 107276802.065 9       775.088 9        56.978                  
 02  5 18 00 04  7.0000000  0  8G01G23G21G27G30G16G10G08                        
  23632636.582 7 124190342.737 7      3379.596 7        47.654                  
  23111885.078 8 121453777.468 8     -2919.995 8        50.248                  
  21715604.627 8 114116258.622 8      1734.552 8        52.489                  
  20534478.237 9 107909428.606 9     -1468.654 9        55.514                  
  25207093.386 7 132465570.850 7     -1054.901 7        46.028                  
  23614237.778 8 124093653.471 8     -3679.693 8        49.201                  
  21346881.412 9 112178619.975 9      -931.457 9        55.332                  
  20413945.638 9 107276028.942 9       771.111 9        56.114                  
 02  5 18 00 04  8.0000000  0  8G01G23G21G27G30G16G10G08                        
  23631994.548 8 124186966.866 8      3373.394 8        49.571                  
  23112438.839 8 121456695.199 8     -2919.516 8        49.792                  
  21715271.941 9 114114526.622 9      1730.955 9        54.415                  
  20534759.978 9 107910894.935 9     -1462.841 9        56.942                  
  25207294.502 7 132466633.720 7     -1072.726 7        45.578                  
  23614937.762 8 124097330.220 8     -3668.460 8        50.497                  
  21347057.154 9 112179549.787 9      -930.611 9        57.015                  
  20413798.826 9 107275259.686 9       767.344 9        56.951                  
 02  5 18 00 04  9.0000000  0  8G01G23G21G27G30G16G10G08                        
  23631353.015 8 124183596.164 8      3367.511 8        48.017                  
  23112994.887 7 121459619.843 7     -2929.242 7        47.605                  
  21714945.528 8 114112801.061 8      1721.972 8        53.745                  
  20535040.254 9 107912353.808 9     -1455.865 9        56.985                  
  25207495.600 7 132467719.402 7     -1096.493 7        44.262                  
  23615634.010 8 124100986.779 8     -3647.531 8        50.217                  
  21347235.719 9 112180477.566 9      -926.143 9        54.819                  
  20413652.264 9 107274496.354 9       759.673 9        56.650                  
 02  5 18 00 04 10.0000000  0  8G01G23G21G27G30G16G10G08                        
  23630714.358 8 124180232.895 8      3357.198 8        48.652                  
  23113554.081 8 121462550.031 8     -2933.752 8        48.486                  
  21714620.222 8 114111083.677 8      1714.566 8        52.281                  
  20535318.010 9 107913804.298 9     -1446.588 9        55.699                  
  25207712.905 7 132468830.279 7     -1119.627 7        44.137                  
  23616324.666 8 124104622.782 8     -3627.630 8        50.205                  
  21347412.891 9 112181401.993 9      -922.773 9        55.354                  
  20413507.561 9 107273739.601 9       753.411 9        57.449                  
 02  5 18 00 04 11.0000000  0  8G01G23G21G27G30G16G10G08                        
  23630075.254 8 124176875.277 8      3355.920 8        48.679                  
  23114113.810 8 121465481.005 8     -2931.081 8        50.337                  
  21714296.221 8 114109371.739 8      1708.850 8        52.038                  
  20535591.227 9 107915250.739 9     -1446.082 9        55.226                  
  25207918.452 7 132469954.074 7     -1127.957 7        44.663                  
  23617015.715 8 124108250.412 8     -3629.534 8        50.691                  
  21347589.687 9 112182323.954 9      -920.880 9        54.863                  
  20413363.662 9 107272986.495 9       751.678 9        57.930                  
 02  5 18 00 04 12.0000000  0  8G01G23G21G27G30G16G10G08                        
  23629434.972 7 124173519.951 7      3354.721 7        47.330                  
  23114669.536 8 121468410.025 8     -2925.804 8        51.161                  
  21713969.325 8 114107661.450 8      1710.087 8        52.876                  
  20535862.854 9 107916697.455 9     -1448.120 9        56.002                  
  25208140.314 7 132471078.719 7     -1122.788 7        45.190                  
  23617705.798 8 124111879.994 8     -3631.351 8        51.021                  
  21347763.606 8 112183245.243 8      -922.567 8        53.873                  
  20413221.120 9 107272234.006 9       753.481 9        56.927                  
 02  5 18 00 04 13.0000000  0  8G01G23G21G27G30G16G10G08                        
  23628797.012 7 124170159.772 7      3362.986 7        47.425                  
  23115225.067 8 121471335.673 8     -2923.795 8        52.182                  
  21713639.660 9 114105946.002 9      1718.892 9        54.976                  
  20536137.751 9 107918150.869 9     -1458.470 9        55.780                  
  25208349.739 7 132472186.456 7     -1098.293 7        45.874                  
  23618399.778 8 124115524.509 8     -3653.189 8        49.640                  
  21347937.454 8 112184169.868 8      -927.652 8        52.880                  
  20413078.508 9 107271477.695 9       759.654 9        57.256                  
 02  5 18 00 04 14.0000000  0  8G01G23G21G27G30G16G10G08                        
  23628156.389 7 124166792.216 7      3372.571 7        47.916                  
  23115783.152 8 121474258.400 8     -2926.348 8        50.486                  
  21713310.870 9 114104223.139 9      1726.542 9        55.152                  
  20536417.009 9 107919612.668 9     -1464.229 9        55.767                  
  25208552.802 7 132473272.700 7     -1081.260 7        46.460                  
  23619097.670 8 124119186.513 8     -3664.937 8        49.595                  
  21348112.838 8 112185099.299 8      -934.195 8        51.492                  
  20412935.216 9 107270716.343 9       762.444 9        55.579                  
 02  5 18 00 04 15.0000000  0  8G01G23G21G27G30G16G10G08                        
  23627512.551 7 124163413.310 7      3385.443 7        47.943                  
  23116342.095 8 121477194.014 8     -2945.733 8        50.538                  
  21712983.867 8 114102493.029 8      1734.688 8        53.264                  
  20536698.946 9 107921076.056 9     -1462.481 9        57.138                  
  25208766.659 7 132474356.985 7     -1087.842 7        47.144                  
  23619791.721 8 124122839.461 8     -3643.267 8        49.639                  
  21348293.565 9 112186036.340 9      -941.407 9        54.747                  
  20412791.388 9 107269954.373 9       762.252 9        55.750                  
 02  5 18 00 04 16.0000000  0  8G01G23G21G27G30G16G10G08                        
  23626866.085 8 124160019.700 8      3402.167 8        48.992                  
  23116899.984 8 121480151.009 8     -2964.378 8        51.725                  
  21712656.185 9 114100754.664 9      1740.967 9        55.297                  
  20536979.329 9 107922538.351 9     -1462.463 9        58.916                  
  25208965.559 8 132475447.206 8     -1089.346 8        48.072                  
  23620483.288 8 124126470.710 8     -3626.447 8        50.477                  
  21348476.222 9 112186983.229 9      -950.879 9        56.088                  
  20412645.881 9 107269193.458 9       760.315 9        58.543                  
 02  5 18 00 04 17.0000000  0  8G01G23G21G27G30G16G10G08                        
  23626220.960 8 124156619.122 8      3403.983 8        48.845                  
  23117467.611 8 121483116.593 8     -2966.134 8        49.783                  
  21712324.357 9 114099012.017 9      1743.884 9        54.771                  
  20537258.211 9 107924001.536 9     -1462.928 9        57.336                  
  25209176.753 7 132476537.164 7     -1090.032 7        46.385                  
  23621172.032 8 124130095.549 8     -3625.960 8        50.445                  
  21348656.128 8 112187935.101 8      -952.564 8        53.693                  
  20412503.500 9 107268432.484 9       760.793 9        57.325                  
 02  5 18 00 04 18.0000000  0  8G01G23G21G27G30G16G10G08                        
  23625571.796 8 124153215.939 8      3402.705 8        48.645                  
  23118031.808 8 121486084.152 8     -2967.687 8        50.272                  
  21711987.311 8 114097267.547 8      1745.499 8        52.829                  
  20537534.287 9 107925466.334 9     -1466.902 9        54.885                  
  25209385.231 7 132477624.605 7     -1090.100 7        47.028                  
  23621861.704 8 124133721.111 8     -3629.149 8        49.568                  
  21348835.443 8 112188889.216 8      -953.061 8        52.976                  
  20412359.976 9 107267671.142 9       760.588 9        56.736                  
 02  5 18 00 04 19.0000000  0  8G01G23G21G27G30G16G10G08                        
  23624923.776 8 124149813.479 8      3399.988 8        48.361                  
  23118595.379 8 121489048.913 8     -2959.149 8        49.443                  
  21711655.626 8 114095523.109 8      1742.436 8        53.179                  
  20537810.328 9 107926933.170 9     -1469.181 9        54.722                  
  25209584.703 8 132478707.999 8     -1077.315 8        48.397                  
  23622555.040 8 124137352.601 8     -3641.189 8        49.188                  
  21349016.832 8 112189843.555 8      -952.857 8        53.193                  
  20412215.291 9 107266909.217 9       762.217 9        55.288                  
 02  5 18 00 04 20.0000000  0  8G01G23G21G27G30G16G10G08                        
  23624278.186 8 124146415.913 8      3397.694 8        48.798                  
  23119155.340 8 121492001.929 8     -2957.877 8        50.752                  
  21711326.747 9 114093780.396 9      1744.559 9        54.368                  
  20538088.834 9 107928404.390 9     -1473.487 9        55.485                  
  25209799.435 7 132479780.438 7     -1068.517 7        46.498                  
  23623247.215 8 124141002.372 8     -3652.275 8        50.171                  
  21349200.436 9 112190795.389 9      -954.388 9        54.100                  
  20412071.177 9 107266145.334 9       764.808 9        57.418                  
 02  5 18 00 04 21.0000000  0  8G01G23G21G27G30G16G10G08                        
  23623629.272 8 124143004.764 8      3417.542 8        49.182                  
  23119720.591 7 121494968.399 7     -2975.750 7        47.646                  
  21710994.901 8 114092028.540 8      1757.731 8        53.872                  
  20538369.753 9 107929878.580 9     -1474.663 9        56.664                  
  25209999.282 7 132480847.214 7     -1066.477 7        46.020                  
  23623942.588 8 124144644.978 8     -3633.107 8        50.832                  
  21349383.147 9 112191756.166 9      -967.375 9        54.261                  
  20411925.991 9 107265379.857 9       766.004 9        56.762                  
 02  5 18 00 04 22.0000000  0  8G01G23G21G27G30G16G10G08                        
  23622977.339 8 124139581.827 8      3423.757 8        48.184                  
  23120291.381 8 121497947.104 8     -2980.045 8        49.271                  
  21710658.767 9 114090268.896 9      1761.565 9        54.724                  
  20538654.032 9 107931355.130 9     -1477.103 9        57.407                  
  25210195.269 7 132481909.908 7     -1056.864 7        45.802                  
  23624632.815 8 124148280.463 8     -3638.528 8        51.013                  
  21349565.607 8 112192724.789 8      -970.501 8        53.045                  
  20411781.181 9 107264613.244 9       767.981 9        58.390                  
 02  5 18 00 04 23.0000000  0  8G01G23G21G27G30G16G10G08                        
  23622326.656 8 124136153.594 8      3430.594 8        49.769                  
  23120856.900 8 121500927.874 8     -2982.578 8        50.707                  
  21710321.275 9 114088504.983 9      1766.001 9        54.110                  
  20538938.024 9 107932835.387 9     -1481.360 9        54.332                  
  25210405.570 7 132482964.301 7     -1051.408 7        45.392                  
  23625325.650 8 124151920.482 8     -3641.370 8        49.730                  
  21349749.819 9 112193697.188 9      -974.114 9        54.074                  
  20411634.959 9 107263844.796 9       769.254 9        55.334                  
 02  5 18 00 04 24.0000000  0  8G01G23G21G27G30G16G10G08                        
  23621673.704 8 124132728.377 8      3416.648 8        50.565                  
  23121422.401 8 121503902.550 8     -2965.676 8        50.433                  
  21709985.194 8 114086742.424 8      1757.268 8        53.886                  
  20539221.212 9 107934317.908 9     -1482.418 9        56.832                  
  25210599.342 7 132484013.864 7     -1047.207 7        45.343                  
  23626021.506 8 124155569.794 8     -3657.607 8        48.784                  
  21349934.746 9 112194668.373 9      -966.393 9        55.689                  
  20411489.773 9 107263075.737 9       767.913 9        55.420                  
 02  5 18 00 04 25.0000000  0  8G01G23G21G27G30G16G10G08                        
  23621022.539 8 124129311.271 8      3423.240 8        48.239                  
  23121983.882 8 121506865.150 8     -2969.270 8        50.834                  
  21709654.921 8 114084984.473 8      1763.756 8        53.379                  
  20539503.900 9 107935802.507 9     -1486.369 9        56.844                  
  25210794.525 7 132485058.871 7     -1039.539 7        45.414                  
  23626716.307 8 124159233.417 8     -3664.351 8        49.869                  
  21350121.745 9 112195635.175 9      -971.886 9        54.631                  
  20411343.997 9 107262306.325 9       772.201 9        55.344                  
 02  5 18 00 04 26.0000000  0  8G01G23G21G27G30G16G10G08                        
  23620370.481 8 124125876.539 8      3439.903 8        49.598                  
  23122555.172 8 121509842.533 8     -2981.857 8        49.764                  
  21709322.486 8 114083214.021 8      1774.177 8        52.864                  
  20539784.837 9 107937292.420 9     -1491.464 9        55.680                  
  25210999.465 7 132486091.820 7     -1029.526 7        45.441                  
  23627413.163 8 124162892.912 8     -3659.723 8        48.913                  
  21350306.386 9 112196613.241 9      -983.238 9        55.668                  
  20411194.863 9 107261533.711 9       773.561 9        57.191                  
 02  5 18 00 04 27.0000000  0  8G01G23G21G27G30G16G10G08                        
  23619714.223 8 124122434.632 8      3444.035 8        50.824                  
  23123121.191 8 121512823.040 8     -2978.582 8        50.932                  
  21708978.597 9 114081437.813 9      1776.095 9        54.748                  
  20540066.864 9 107938786.828 9     -1496.195 9        54.487                  
  25211191.450 7 132487114.387 7     -1018.085 7        45.185                  
  23628111.985 8 124166557.358 8     -3669.200 8        49.081                  
  21350492.241 9 112197596.192 9      -983.520 9        55.989                  
  20411047.729 9 107260758.685 9       775.764 9        58.322                  
 02  5 18 00 04 28.0000000  0  8G01G23G21G27G30G16G10G08                        
  23619059.377 8 124118991.091 8      3445.507 8        49.576                  
  23123688.408 8 121515800.971 8     -2975.145 8        50.675                  
  21708638.692 8 114079659.582 8      1778.295 8        53.437                  
  20540350.445 9 107940284.921 9     -1500.177 9        56.427                  
  25211376.662 7 132488128.468 7     -1009.593 7        47.058                  
  23628809.627 8 124170230.497 8     -3678.358 8        50.122                  
  21350680.045 9 112198580.658 9      -984.661 9        54.792                  
  20410901.310 9 107259981.999 9       776.599 9        57.516                  
 02  5 18 00 04 29.0000000  0  8G01G23G21G27G30G16G10G08                        
  23618404.281 8 124115547.134 8      3445.657 8        49.413                  
  23124253.015 8 121518774.634 8     -2971.728 8        50.766                  
  21708304.988 9 114077880.014 9      1779.390 9        55.856                  
  20540635.545 9 107941786.872 9     -1502.746 9        56.336                  
  25211573.865 7 132489133.615 7     -1003.702 7        47.990                  
  23629510.540 8 124173914.072 8     -3685.092 8        49.800                  
  21350869.653 9 112199565.862 9      -985.160 9        55.141                  
  20410752.658 9 107259203.576 9       778.229 9        55.744                  
 02  5 18 00 04 30.0000000  0  8G01G23G21G27G30G16G10G08                        
  23617748.291 7 124112103.652 7      3441.906 7        47.991                  
  23124817.837 8 121521745.935 8     -2972.163 8        49.793                  
  21707964.351 8 114076100.348 8      1781.990 8        53.845                  
  20540921.843 9 107943290.817 9     -1504.945 9        55.423                  
  25211768.744 7 132490134.974 7      -998.581 7        46.957                  
  23630213.793 7 124177602.979 7     -3691.739 7        47.804                  
  21351056.492 9 112200551.415 9      -985.387 9        55.155                  
  20410604.256 9 107258424.663 9       778.840 9        59.049                  
 02  5 18 00 04 31.0000000  0  8G01G23G21G27G30G16G10G08                        
  23617093.141 8 124108660.858 8      3440.227 8        49.448                  
  23125382.391 8 121524715.128 8     -2968.072 8        51.124                  
  21707623.178 8 114074320.900 8      1779.298 8        53.647                  
  20541210.410 9 107944796.395 9     -1507.232 9        56.032                  
  25211952.384 7 132491133.612 7      -998.461 7        46.333                  
  23630914.938 8 124181296.373 8     -3697.767 8        50.480                  
  21351242.008 9 112201537.167 9      -985.560 9        55.114                  
  20410454.352 9 107257645.535 9       779.785 9        58.848                  
 02  5 18 00 04 32.0000000  0  8G01G23G21G27G30G16G10G08                        
  23616440.332 8 124105219.702 8      3442.336 8        48.949                  
  23125948.053 8 121527680.014 8     -2961.294 8        48.990                  
  21707284.667 9 114072542.009 9      1778.634 9        54.411                  
  20541499.316 9 107946304.201 9     -1509.245 9        56.465                  
  25212139.491 7 132492127.664 7      -990.384 7        44.797                  
  23631619.692 8 124184997.352 8     -3701.788 8        48.070                  
  21351430.597 9 112202522.494 9      -984.592 9        55.380                  
  20410307.183 9 107256865.813 9       780.036 9        58.446                  
 02  5 18 00 04 33.0000000  0  8G01G23G21G27G30G16G10G08                        
  23615784.146 8 124101781.048 8      3438.872 8        48.871                  
  23126510.462 8 121530639.854 8     -2956.339 8        50.737                  
  21706948.461 9 114070764.256 9      1778.179 9        55.348                  
  20541787.990 9 107947814.094 9     -1511.050 9        57.279                  
  25212334.799 7 132493117.650 7      -985.934 7        45.430                  
  23632326.465 8 124188706.289 8     -3713.630 8        48.773                  
  21351619.509 9 112203506.880 9      -982.954 9        54.089                  
  20410159.603 9 107256085.609 9       781.188 9        58.425                  
 02  5 18 00 04 34.0000000  0  8G01G23G21G27G30G16G10G08                        
  23615131.194 8 124098345.276 8      3435.964 8        49.785                  
  23127072.247 8 121533594.714 8     -2952.909 8        50.828                  
  21706607.699 9 114068988.027 9      1774.937 9        56.996                  
  20542076.718 9 107949325.727 9     -1512.412 9        58.924                  
  25212516.616 7 132494104.418 7      -984.438 7        45.582                  
  23633033.239 8 124192422.423 8     -3716.513 8        49.419                  
  21351806.526 8 112204490.128 8      -982.429 8        52.857                  
  20410010.486 9 107255305.182 9       780.448 9        59.779                  
 02  5 18 00 04 35.0000000  0  8G01G23G21G27G30G16G10G08                        
  23614477.152 8 124094912.240 8      3430.762 8        48.201                  
  23127635.032 8 121536545.486 8     -2949.291 8        51.560                  
  21706269.009 9 114067213.398 9      1774.109 9        55.511                  
  20542365.088 9 107950838.601 9     -1514.620 9        57.077                  
  25212702.651 7 132495089.393 7      -984.184 7        45.192                  
  23633740.620 8 124196144.137 8     -3723.323 8        51.704                  
  21351991.059 8 112205472.350 8      -982.121 8        52.264                  
  20409861.119 9 107254524.843 9       779.577 9        59.899                  
 02  5 18 00 04 36.0000000  0  8G01G23G21G27G30G16G10G08                        
  23613824.897 7 124091482.848 7      3425.335 7        47.710                  
  23128195.690 8 121539491.153 8     -2939.798 8        49.146                  
  21705932.714 9 114065440.936 9      1770.516 9        55.563                  
  20542653.172 9 107952352.701 9     -1513.877 9        57.233                  
  25212888.810 7 132496072.632 7      -981.585 7        45.670                  
  23634450.967 8 124199872.293 8     -3734.085 8        50.166                  
  21352178.595 8 112206452.949 8      -978.721 8        52.083                  
  20409711.894 9 107253744.646 9       779.025 9        56.412                  
 02  5 18 00 04 37.0000000  0  8G01G23G21G27G30G16G10G08                        
  23613174.464 8 124088061.810 8      3411.272 8        48.945                  
  23128753.775 7 121542428.137 7     -2934.554 7        47.801                  
  21705600.637 8 114063674.067 8      1760.449 8        53.216                  
  20542940.042 9 107953866.582 9     -1510.814 9        55.495                  
  25213084.655 7 132497057.818 7      -995.015 7        45.291                  
  23635162.172 8 124203607.551 8     -3732.315 8        50.414                  
  21352365.987 8 112207429.151 8      -970.530 8        52.181                  
  20409563.599 9 107252965.690 9       777.268 9        55.870                  
 02  5 18 00 04 38.0000000  0  8G01G23G21G27G30G16G10G08                        
  23612525.551 8 124084657.999 8      3400.328 8        48.451                  
  23129308.894 8 121545353.799 8     -2921.722 8        51.000                  
  21705263.627 8 114061920.350 8      1751.475 8        52.876                  
  20543224.945 9 107955374.979 9     -1507.843 9        55.674                  
  25213274.692 7 132498059.365 7     -1005.306 7        45.251                  
  23635872.055 8 124207342.705 8     -3738.625 8        49.544                  
  21352549.448 8 112208395.813 8      -964.480 8        52.367                  
  20409415.876 9 107252191.634 9       773.142 9        57.614                  
 02  5 18 00 04 39.0000000  0  8G01G23G21G27G30G16G10G08                        
  23611879.067 7 124081260.378 7      3396.124 7        47.523                  
  23129868.105 8 121548273.532 8     -2918.519 8        50.461                  
  21704928.886 9 114060170.925 9      1748.523 9        54.210                  
  20543510.117 9 107956883.083 9     -1507.597 9        56.746                  
  25213458.046 7 132499063.168 7     -1009.116 7        45.368                  
  23636583.135 8 124211082.362 8     -3744.744 8        48.434                  
  21352731.105 8 112209359.372 8      -962.568 8        51.304                  
  20409267.045 9 107251418.768 9       772.712 9        57.527                  
 02  5 18 00 04 40.0000000  0  8G01G23G21G27G30G16G10G08                        
  23611235.086 8 124077865.680 8      3392.207 8        49.070                  
  23130422.277 8 121551190.447 8     -2917.823 8        51.263                  
  21704596.219 9 114058423.545 9      1746.992 9        54.133                  
  20543795.843 9 107958391.557 9     -1508.593 9        57.989                  
  25213653.283 7 132500067.716 7     -1006.923 7        46.197                  
  23637296.448 8 124214824.841 8     -3742.983 8        49.818                  
  21352912.243 8 112210321.841 8      -962.072 8        50.197                  
  20409120.394 9 107250646.602 9       771.720 9        57.157                  
 02  5 18 00 04 41.0000000  0  8G01G23G21G27G30G16G10G08                        
  23610588.459 8 124074475.943 8      3384.026 8        49.059                  
  23130975.395 8 121554103.101 8     -2908.726 8        51.869                  
  21704269.198 8 114056679.752 8      1741.738 8        53.524                  
  20544082.265 9 107959899.651 9     -1508.031 9        56.877                  
  25213851.450 7 132501074.892 7     -1013.805 7        44.290                  
  23638009.494 8 124218570.086 8     -3745.713 8        48.996                  
  21353098.456 8 112211282.003 8      -957.928 8        50.572                  
  20408974.190 9 107249875.629 9       769.860 9        58.929                  
 02  5 18 00 04 42.0000000  0  8G01G23G21G27G30G16G10G08                        
  23609943.423 8 124071090.711 8      3387.784 8        48.167                  
  23131529.835 8 121557008.187 8     -2901.161 8        51.144                  
  21703938.138 8 114054938.353 8      1742.968 8        53.643                  
  20544369.689 9 107961409.823 9     -1514.708 9        59.053                  
  25214037.395 7 132502077.957 7      -995.908 7        43.549                  
  23638723.468 8 124222325.521 8     -3764.639 8        49.774                  
  21353281.989 9 112212239.942 9      -958.369 9        54.158                  
  20408826.502 9 107249104.280 9       773.858 9        57.753                  
 02  5 18 00 04 43.0000000  0  8G01G23G21G27G30G16G10G08                        
  23609300.657 8 124067707.116 8      3378.808 8        49.117                  
  23132080.737 8 121559904.530 8     -2891.370 8        49.303                  
  21703603.201 8 114053196.410 8      1738.702 8        52.412                  
  20544659.864 9 107962925.027 9     -1514.562 9        57.391                  
  25214220.124 7 132503068.722 7      -995.884 7        45.691                  
  23639441.070 8 124226097.464 8     -3775.099 8        50.393                  
  21353461.644 8 112213197.202 8      -954.481 8        53.821                  
  20408678.493 9 107248330.545 9       772.000 9        56.887                  
 02  5 18 00 04 44.0000000  0  8G01G23G21G27G30G16G10G08                        
  23608659.284 8 124064331.762 8      3374.251 8        48.584                  
  23132627.994 8 121562793.238 8     -2886.611 8        51.001                  
  21703270.945 8 114051460.245 8      1733.141 8        53.506                  
  20544950.075 9 107964439.451 9     -1514.168 9        56.669                  
  25214411.751 7 132504063.139 7      -994.416 7        47.432                  
  23640159.387 8 124229874.516 8     -3779.284 8        49.305                  
  21353642.497 8 112214150.167 8      -953.053 8        53.536                  
  20408530.841 9 107247558.428 9       771.202 9        57.655                  
 02  5 18 00 04 45.0000000  0  8G01G23G21G27G30G16G10G08                        
  23608016.732 8 124060961.573 8      3368.032 8        48.100                  
  23133178.717 8 121565677.776 8     -2882.388 8        49.133                  
  21702943.423 8 114049727.847 8      1731.089 8        53.548                  
  20545239.606 9 107965953.300 9     -1512.760 9        56.960                  
  25214609.901 7 132505060.717 7      -996.162 7        47.415                  
  23640879.598 8 124233653.911 8     -3779.548 8        50.181                  
  21353823.563 8 112215100.670 8      -950.401 8        52.638                  
  20408383.601 9 107246787.642 9       769.205 9        55.622                  
 02  5 18 00 04 46.0000000  0  8G01G23G21G27G30G16G10G08                        
  23607376.360 8 124057598.110 8      3358.850 8        48.298                  
  23133726.689 8 121568556.921 8     -2875.715 8        48.404                  
  21702617.528 8 114048000.354 8      1721.002 8        52.250                  
  20545528.352 9 107967466.100 9     -1511.536 9        56.553                  
  25214796.900 7 132506062.746 7     -1005.980 7        46.444                  
  23641599.255 8 124237435.934 8     -3782.268 8        48.614                  
  21354005.917 9 112216047.819 9      -944.048 9        54.584                  
  20408237.093 9 107246018.576 9       767.932 9        56.488                  
 02  5 18 00 04 47.0000000  0  8G01G23G21G27G30G16G10G08                        
  23606739.240 8 124054242.247 8      3353.293 8        51.160                  
  23134272.462 8 121571430.153 8     -2871.207 8        50.165                  
  21702289.239 8 114046278.480 8      1721.674 8        52.623                  
  20545816.847 9 107968977.521 9     -1510.922 9        58.278                  
  25214982.256 8 132507070.169 8     -1009.522 8        48.060                  
  23642318.769 7 124241220.376 7     -3785.107 7        47.812                  
  21354186.465 8 112216991.066 8      -941.419 8        53.046                  
  20408090.298 9 107245251.450 9       766.582 9        55.495                  
 02  5 18 00 04 48.0000000  0  8G01G23G21G27G30G16G10G08                        
  23606100.726 8 124050890.928 8      3350.032 8        49.347                  
  23134820.005 8 121574300.187 8     -2869.246 8        51.795                  
  21701959.090 8 114044560.055 8      1716.548 8        52.210                  
  20546104.270 9 107970488.213 9     -1510.127 9        55.805                  
  25215182.085 7 132508081.256 7     -1013.165 7        46.968                  
  23643038.337 8 124245006.020 8     -3783.113 8        48.735                  
  21354363.226 8 112217932.222 8      -939.865 8        52.911                  
  20407944.130 9 107244485.746 9       764.797 9        56.477                  
 02  5 18 00 04 49.0000000  0  8G01G23G21G27G30G16G10G08                        
  23605463.320 8 124047546.720 8      3335.416 8        49.540                  
  23135364.134 8 121577165.246 8     -2861.455 8        51.014                  
  21701631.623 8 114042846.967 8      1709.994 8        53.035                  
  20546390.425 9 107971997.341 9     -1507.641 9        56.284                  
  25215376.017 7 132509098.204 7     -1019.017 7        46.345                  
  23643759.173 8 124248792.979 8     -3786.634 8        49.234                  
  21354540.469 8 112218869.826 8      -935.360 8        52.551                  
  20407798.140 9 107243722.093 9       762.323 9        58.428                  
 02  5 18 00 04 50.0000000  0  8G01G23G21G27G30G16G10G08                        
  23604828.827 8 124044211.919 8      3331.371 8        50.759                  
  23135907.174 8 121580023.893 8     -2854.228 8        48.782                  
  21701307.407 8 114041141.026 8      1702.340 8        51.695                  
  20546674.721 9 107973503.980 9     -1505.248 9        56.243                  
  25215561.873 7 132510123.521 7     -1029.432 7        45.802                  
  23644480.957 8 124252580.855 8     -3790.961 8        48.214                  
  21354717.658 8 112219802.472 8      -930.693 8        52.465                  
  20407652.650 9 107242961.157 9       759.768 9        56.887                  
 02  5 18 00 04 51.0000000  0  8G01G23G21G27G30G16G10G08                        
  23604197.139 8 124040885.692 8      3323.283 8        48.238                  
  23136452.429 8 121582877.444 8     -2855.300 8        50.065                  
  21700985.354 8 114039441.721 8      1696.241 8        51.527                  
  20546959.053 9 107975007.934 9     -1500.663 9        56.082                  
  25215761.577 7 132511157.694 7     -1042.283 7        47.402                  
  23645202.240 7 124256368.151 7     -3782.889 7        47.595                  
  21354896.723 9 112220730.744 9      -925.920 9        56.210                  
  20407507.447 9 107242202.998 9       756.040 9        57.552                  
 02  5 18 00 04 52.0000000  0  8G01G23G21G27G30G16G10G08                        
  23603564.951 7 124037561.322 7      3328.599 7        47.616                  
  23136995.272 8 121585737.970 8     -2867.970 8        50.199                  
  21700665.909 8 114037745.795 8      1697.933 8        52.881                  
  20547243.206 9 107976506.969 9     -1497.175 9        55.419                  
  25215968.501 7 132512207.512 7     -1056.519 7        46.497                  
  23645919.288 8 124260139.920 8     -3764.209 8        50.037                  
  21355074.395 9 112221658.983 9      -930.931 9        55.127                  
  20407362.868 9 107241448.841 9       752.815 9        57.332                  
 02  5 18 00 04 53.0000000  0  8G01G23G21G27G30G16G10G08                        
  23602929.439 8 124034227.838 8      3334.900 8        48.063                  
  23137542.904 8 121588616.849 8     -2886.359 8        51.419                  
  21700343.284 8 114036046.031 8      1702.622 8        52.723                  
  20547527.234 9 107978002.392 9     -1495.203 9        56.715                  
  25216162.415 8 132513269.654 8     -1067.409 8        49.131                  
  23646631.565 8 124263888.374 8     -3740.111 8        49.276                  
  21355251.263 9 112222593.851 9      -940.941 9        54.688                  
  20407219.005 9 107240697.478 9       750.259 9        57.610                  
 02  5 18 00 04 54.0000000  0  8G01G23G21G27G30G16G10G08                        
  23602292.265 8 124030881.890 8      3354.585 8        48.332                  
  23138096.022 8 121591516.073 8     -2909.978 8        50.238                  
  21700015.852 8 114034339.780 8      1710.429 8        53.330                  
  20547811.870 9 107979495.690 9     -1492.014 9        57.683                  
  25216369.499 8 132514340.302 8     -1073.515 8        48.897                  
  23647341.787 8 124267614.318 8     -3716.624 8        49.139                  
  21355428.648 9 112223537.392 9      -949.122 9        54.854                  
  20407077.661 9 107239947.853 9       749.343 9        56.397                  
 02  5 18 00 04 55.0000000  0  8G01G23G21G27G30G16G10G08                        
  23601654.716 8 124027526.632 8      3356.859 8        48.056                  
  23138650.373 8 121594430.045 8     -2915.565 8        49.759                  
  21699687.277 8 114032628.609 8      1710.534 8        53.542                  
  20548098.972 9 107980987.834 9     -1492.175 9        57.070                  
  25216578.335 7 132515416.501 7     -1077.553 7        45.484                  
  23648047.721 8 124271324.576 8     -3710.880 8        49.705                  
  21355608.250 8 112224487.555 8      -950.093 8        53.467                  
  20406937.193 9 107239199.410 9       748.449 9        54.765                  
 02  5 18 00 04 56.0000000  0  8G01G23G21G27G30G16G10G08                        
  23601016.631 7 124024170.963 7      3355.985 7        47.409                  
  23139202.937 8 121597345.256 8     -2914.977 8        50.033                  
  21699361.328 8 114030917.418 8      1712.030 8        52.605                  
  20548384.554 9 107982480.371 9     -1492.969 9        56.000                  
  25216774.983 7 132516493.473 7     -1079.158 7        46.767                  
  23648753.011 8 124275034.067 8     -3708.726 8        49.990                  
  21355792.783 8 112225438.666 8      -950.348 8        53.285                  
  20406796.617 9 107238451.490 9       746.961 9        57.236                  
 02  5 18 00 04 57.0000000  0  8G01G23G21G27G30G16G10G08                        
  23600376.867 7 124020815.473 7      3354.431 7        47.478                  
  23139760.271 8 121600260.820 8     -2916.980 8        49.705                  
  21699038.720 8 114029206.528 8      1710.505 8        52.379                  
  20548670.048 9 107983973.371 9     -1493.845 9        55.667                  
  25216989.036 7 132517570.968 7     -1075.638 7        44.992                  
  23649459.213 8 124278743.728 8     -3707.184 8        48.498                  
  21355974.904 8 112226390.375 8      -952.301 8        53.247                  
  20406655.470 9 107237704.049 9       747.774 9        57.230                  
 02  5 18 00 04 58.0000000  0  8G01G23G21G27G30G16G10G08                        
  23599738.013 8 124017460.147 8      3358.904 8        49.506                  
  23140314.551 8 121603176.744 8     -2916.151 8        48.744                  
  21698715.827 8 114027495.971 8      1709.970 8        51.731                  
  20548954.719 9 107985466.849 9     -1492.703 9        55.792                  
  25217191.617 7 132518648.970 7     -1081.524 7        45.334                  
  23650165.861 8 124282453.570 8     -3712.001 8        48.139                  
  21356154.506 8 112227342.712 8      -951.450 8        52.837                  
  20406515.108 9 107236957.082 9       746.086 9        54.905                  
 02  5 18 00 04 59.0000000  0  8G01G23G21G27G30G16G10G08                        
  23599101.126 8 124014104.989 8      3355.756 8        48.350                  
  23140868.240 8 121606093.058 8     -2916.091 8        50.827                  
  21698390.271 8 114025785.696 8      1710.433 8        51.012                  
  20549238.122 9 107986960.803 9     -1493.754 9        54.470                  
  25217391.947 7 132519727.474 7     -1076.690 7        45.166                  
  23650871.366 8 124286163.567 8     -3710.688 8        48.476                  
  21356333.965 8 112228295.673 8      -954.096 8        52.781                  
  20406374.461 9 107236210.617 9       745.474 9        54.289                  
