     2.11           OBSERVATION DATA    G                   RINEX VERSION / TYPE
BLANK OR G = GPS,  R = GLONASS,  E = GALILEO,  M = MIXED    COMMENT             
GNSS-SDR            joel                22-APR-25 09:17     PGM / RUN BY / DATE 
GPS OBSERVATION DATA FILE GENERATED BY GNSS-SDR             COMMENT             
GNSS-SDR VERSION 0.0.16                                     COMMENT             
See https://gnss-sdr.org                                    COMMENT             
DEFAULT MARKER NAME                                         MARKER NAME         
joel                CTTC                                    OBSERVER / AGENCY   
GNSS-SDR            Software Receiver   0.0.16              REC # / TYPE / VERS 
Antenna number      Antenna type                            ANT # / TYPE        
        0.0000        0.0000        0.0000                  APPROX POSITION XYZ 
        0.0000        0.0000        0.0000                  ANTENNA: DELTA H/E/N
     1     1                                                WAVELENGTH FACT L1/2
     4    C1    L1    D1    S1                              # / TYPES OF OBSERV 
  2002    05    18    00    00   42.3400000     GPS         TIME OF FIRST OBS   
    18                                                      LEAP SECONDS        
                                                            END OF HEADER       
 02  5 18 00 00 43.0000000  0  6G01G10G21G23G07G08                              
  23763590.557 7 124878512.381 7      3399.696 7        46.684                  
  21313658.681 9 112004045.667 9      -798.336 9        54.379                  
  21783585.538 8 114473525.344 8      1786.636 8        53.259                  
  23001127.174 8 120871744.352 8     -2818.485 8        49.979                  
  24961618.630 7 131174205.514 7     -1906.858 7        45.634                  
  20445704.806 9 107442938.360 9       868.248 9        55.797                  
 02  5 18 00 00 44.0000000  0  6G01G10G21G23G07G08                              
  23762945.610 7 124875115.259 7      3394.652 7        46.771                  
  21313811.211 8 112004844.024 8      -799.530 8        53.914                  
  21783249.386 9 114471738.133 9      1786.415 9        54.226                  
  23001664.817 8 120874563.620 8     -2818.305 8        50.206                  
  24961981.978 7 131176110.041 7     -1909.805 7        46.107                  
  20445541.823 9 107442070.516 9       867.788 9        56.827                  
 02  5 18 00 00 45.0000000  0  6G01G10G21G23G07G08                              
  23762299.002 7 124871718.311 7      3394.041 7        47.508                  
  21313963.044 9 112005643.022 9      -798.033 9        54.606                  
  21782906.712 8 114469951.232 8      1786.910 8        53.224                  
  23002198.993 8 120877383.250 8     -2818.297 8        51.032                  
  24962342.700 7 131178014.923 7     -1904.899 7        46.790                  
  20445380.198 9 107441203.149 9       867.250 9        57.368                  
 02  5 18 00 00 46.0000000  0  6G01G10G21G23G07G08                              
  23761651.178 8 124868321.515 8      3395.470 8        48.417                  
  21314115.253 9 112006442.619 9      -799.383 9        54.143                  
  21782563.537 8 114468164.641 8      1786.830 8        53.634                  
  23002736.511 8 120880203.292 8     -2822.643 8        50.576                  
  24962709.087 7 131179920.164 7     -1905.452 7        45.005                  
  20445215.695 9 107440336.259 9       866.660 9        56.302                  
 02  5 18 00 00 47.0000000  0  6G01G10G21G23G07G08                              
  23761005.713 7 124864924.872 7      3392.839 7        47.628                  
  21314268.462 8 112007242.812 8      -801.047 8        53.804                  
  21782227.296 8 114466378.352 8      1785.611 8        52.245                  
  23003272.582 8 120883023.723 8     -2822.780 8        49.774                  
  24963068.469 7 131181825.745 7     -1907.411 7        45.936                  
  20445048.388 9 107439469.823 9       865.979 9        55.630                  
 02  5 18 00 00 48.0000000  0  7G01G10G21G23G16G07G08                           
  23760360.052 7 124861528.391 7      3396.518 7        47.347                  
  21314420.241 9 112008043.612 9      -801.059 9        56.882                  
  21781887.784 8 114464592.358 8      1785.159 8        52.282                  
  23003811.941 8 120885844.546 8     -2822.509 8        50.776                  
  23474732.958 8 123360551.504 8     -3664.552 8        50.438                  
  24963433.175 7 131183731.683 7     -1905.887 7        46.244                  
  20444880.991 9 107438603.862 9       864.953 9        57.922                  
 02  5 18 00 00 49.0000000  0  7G01G10G21G23G16G07G08                           
  23759712.085 8 124858132.070 8      3396.604 8        49.105                  
  21314573.522 9 112008845.055 9      -802.226 9        57.280                  
  21781545.575 8 114462806.662 8      1785.501 8        53.588                  
  23004345.849 8 120888665.780 8     -2821.147 8        49.430                  
  23475429.671 8 123364216.250 8     -3667.135 8        50.710                  
  24963795.113 7 131185637.983 7     -1907.314 7        46.815                  
  20444713.272 9 107437738.377 9       865.611 9        57.234                  
 02  5 18 00 00 50.0000000  0  7G01G10G21G23G16G07G08                           
  23759066.299 7 124854735.906 7      3396.991 7        47.096                  
  21314726.105 9 112009647.095 9      -801.909 9        56.270                  
  21781204.937 8 114461021.265 8      1787.111 8        53.307                  
  23004883.832 8 120891487.407 8     -2822.127 8        49.601                  
  23476128.386 8 123367881.171 8     -3665.728 8        48.834                  
  24964157.050 7 131187544.626 7     -1905.314 7        47.780                  
  20444545.267 9 107436873.361 9       864.884 9        58.653                  
 02  5 18 00 00 51.0000000  0  7G01G10G21G23G16G07G08                           
  23758421.549 7 124851339.921 7      3393.905 7        47.529                  
  21314878.993 9 112010449.732 9      -802.743 9        54.758                  
  21780869.393 8 114459236.167 8      1783.597 8        53.160                  
  23005422.261 8 120894309.419 8     -2821.813 8        49.857                  
  23476824.831 8 123371546.306 8     -3665.767 8        50.494                  
  24964522.900 7 131189451.629 7     -1906.599 7        47.332                  
  20444381.391 9 107436008.807 9       863.709 9        54.627                  
 02  5 18 00 00 52.0000000  0  7G01G10G21G23G16G07G08                           
  23757774.333 8 124847944.075 8      3397.191 8        48.307                  
  21315031.952 9 112011252.989 9      -804.183 9        54.027                  
  21780530.221 8 114457451.363 8      1784.978 8        51.520                  
  23005957.188 8 120897131.815 8     -2822.245 8        51.387                  
  23477522.170 8 123375211.638 8     -3666.343 8        49.674                  
  24964882.460 7 131191358.991 7     -1911.301 7        46.038                  
  20444219.229 9 107435144.730 9       864.520 9        56.363                  
 02  5 18 00 00 53.0000000  0  7G01G10G21G23G16G07G08                           
  23757127.188 7 124844548.402 7      3393.062 7        47.986                  
  21315184.857 9 112012056.876 9      -805.068 9        55.025                  
  21780186.135 8 114455666.858 8      1784.930 8        51.847                  
  23006496.958 8 120899954.603 8     -2823.608 8        49.659                  
  23478220.813 8 123378877.141 8     -3662.366 8        49.496                  
  24965249.383 7 131193266.699 7     -1908.636 7        46.798                  
  20444056.979 9 107434281.131 9       863.372 9        57.120                  
 02  5 18 00 00 54.0000000  0  7G01G10G21G23G16G07G08                           
  23756482.528 7 124841152.887 7      3394.708 7        46.979                  
  21315338.173 9 112012861.360 9      -805.104 9        54.014                  
  21779846.981 8 114453882.667 8      1783.999 8        53.865                  
  23007032.225 8 120902777.776 8     -2824.016 8        50.440                  
  23478916.847 8 123382542.854 8     -3666.088 8        50.114                  
  24965609.104 7 131195174.759 7     -1906.379 7        46.831                  
  20443895.210 9 107433418.008 9       863.128 9        54.943                  
 02  5 18 00 00 55.0000000  0  7G01G10G21G23G16G07G08                           
  23755836.723 8 124837757.521 8      3394.965 8        48.819                  
  21315491.203 9 112013666.441 9      -805.396 9        54.166                  
  21779511.615 8 114452098.796 8      1782.432 8        53.359                  
  23007570.725 8 120905601.340 8     -2822.362 8        49.871                  
  23479614.704 8 123386208.754 8     -3667.160 8        49.606                  
  24965973.632 7 131197083.174 7     -1908.912 7        47.058                  
  20443734.175 9 107432555.338 9       862.160 9        56.862                  
 02  5 18 00 00 56.0000000  0  7G01G10G21G23G16G07G08                           
  23755189.239 7 124834362.326 7      3392.405 7        46.774                  
  21315644.805 9 112014472.138 9      -806.163 9        54.592                  
  21779171.568 9 114450315.209 9      1782.481 9        54.233                  
  23008107.922 8 120908425.322 8     -2824.765 8        51.899                  
  23480314.079 7 123389874.844 7     -3668.050 7        47.429                  
  24966337.589 7 131198991.942 7     -1904.841 7        46.368                  
  20443571.674 9 107431693.145 9       861.569 9        56.022                  
 02  5 18 00 00 57.0000000  0  7G01G10G21G23G16G07G08                           
  23754544.650 8 124830967.292 8      3395.845 8        48.710                  
  21315798.336 9 112015278.470 9      -806.510 9        55.377                  
  21778828.089 8 114448531.933 8      1784.773 8        51.743                  
  23008644.386 8 120911249.685 8     -2824.401 8        50.931                  
  23481009.506 7 123393541.122 7     -3663.731 7        47.422                  
  24966698.346 7 131200901.067 7     -1912.641 7        45.965                  
  20443405.277 9 107430831.429 9       861.553 9        58.263                  
 02  5 18 00 00 58.0000000  0  7G01G10G21G23G16G07G08                           
  23753898.202 8 124827572.410 8      3397.124 8        48.502                  
  21315952.081 9 112016085.397 9      -806.609 9        55.502                  
  21778490.329 8 114446748.946 8      1783.062 8        51.991                  
  23009182.940 8 120914074.446 8     -2825.137 8        50.079                  
  23481707.827 7 123397207.599 7     -3665.606 7        47.741                  
  24967065.037 7 131202810.535 7     -1911.459 7        45.918                  
  20443239.113 9 107429970.189 9       861.865 9        56.997                  
 02  5 18 00 00 59.0000000  0  7G01G10G21G23G16G07G08                           
  23753251.076 8 124824177.700 8      3395.358 8        49.095                  
  21316105.969 9 112016892.921 9      -807.637 9        56.595                  
  21778154.999 8 114444966.266 8      1782.947 8        50.760                  
  23009718.796 8 120916899.586 8     -2824.323 8        49.961                  
  23482406.274 8 123400874.273 8     -3666.557 8        48.522                  
  24967425.347 7 131204720.368 7     -1910.932 7        44.696                  
  20443072.681 9 107429109.403 9       860.776 9        55.322                  
 02  5 18 00 01  0.0000000  0  7G01G10G21G23G16G07G08                           
  23752605.825 8 124820783.142 8      3397.672 8        49.841                  
  21316259.643 9 112017701.078 9      -807.976 9        57.439                  
  21777813.522 8 114443183.873 8      1780.440 8        52.411                  
  23010258.709 8 120919725.103 8     -2826.586 8        51.590                  
  23483102.755 8 123404541.129 8     -3670.427 8        48.696                  
  24967791.162 7 131206630.536 7     -1908.936 7        46.979                  
  20442905.695 9 107428249.093 9       859.895 9        57.005                  
 02  5 18 00 01  1.0000000  0  7G01G10G21G23G16G07G08                           
  23751959.914 8 124817388.741 8      3396.174 8        50.108                  
  21316414.138 9 112018509.852 9      -808.687 9        55.335                  
  21777470.294 8 114441401.790 8      1782.212 8        53.966                  
  23010795.155 8 120922551.020 8     -2823.882 8        49.271                  
  23483801.148 8 123408208.185 8     -3665.102 8        49.379                  
  24968153.278 7 131208541.075 7     -1912.297 7        47.400                  
  20442740.425 9 107427389.259 9       859.802 9        56.642                  
 02  5 18 00 01  2.0000000  0  7G01G10G21G23G16G07G08                           
  23751313.180 8 124813994.510 8      3395.811 8        49.065                  
  21316567.401 9 112019319.225 9      -810.838 9        54.343                  
  21777134.678 8 114439619.991 8      1782.070 8        50.746                  
  23011333.263 8 120925377.329 8     -2824.887 8        50.194                  
  23484499.755 8 123411875.433 8     -3666.529 8        49.124                  
  24968517.806 7 131210451.945 7     -1912.134 7        45.641                  
  20442578.621 9 107426529.904 9       858.932 9        57.192                  
 02  5 18 00 01  3.0000000  0  7G01G10G21G23G16G07G08                           
  23750667.965 8 124810600.432 8      3396.393 8        48.964                  
  21316721.039 9 112020129.192 9      -810.329 9        55.032                  
  21776798.651 8 114437838.515 8      1781.650 8        51.973                  
  23011872.067 8 120928204.043 8     -2826.686 8        50.885                  
  23485196.004 8 123415542.855 8     -3666.904 8        51.016                  
  24968882.030 7 131212363.184 7     -1910.559 7        44.744                  
  20442416.924 9 107425671.000 9       858.103 9        55.571                  
 02  5 18 00 01  4.0000000  0  7G01G10G21G23G16G07G08                           
  23750023.180 8 124807206.508 8      3390.087 8        49.268                  
  21316875.088 9 112020939.780 9      -810.881 9        54.672                  
  21776456.387 9 114436057.350 9      1780.678 9        54.057                  
  23012407.602 8 120931031.149 8     -2826.596 8        53.064                  
  23485895.362 8 123419210.500 8     -3668.045 8        52.170                  
  24969242.824 7 131214274.774 7     -1910.280 7        45.142                  
  20442255.888 9 107424812.575 9       858.148 9        56.760                  
 02  5 18 00 01  5.0000000  0  7G01G10G21G23G16G07G08                           
  23749375.874 8 124803812.766 8      3389.049 8        48.139                  
  21317028.815 9 112021750.999 9      -812.003 9        56.108                  
  21776115.429 8 114434276.482 8      1779.828 8        53.746                  
  23012947.782 8 120933858.640 8     -2827.707 8        51.189                  
  23486593.469 8 123422878.314 8     -3666.011 8        49.210                  
  24969609.996 7 131216186.713 7     -1912.792 7        45.785                  
  20442094.638 9 107423954.625 9       858.151 9        56.299                  
 02  5 18 00 01  6.0000000  0  7G01G10G21G23G16G07G08                           
  23748729.569 8 124800419.169 8      3392.094 8        48.428                  
  21317182.703 9 112022562.814 9      -812.130 9        56.325                  
  21775779.938 8 114432495.913 8      1779.870 8        52.030                  
  23013485.032 8 120936686.498 8     -2827.004 8        48.880                  
  23487290.468 8 123426546.328 8     -3664.423 8        48.790                  
  24969970.879 7 131218098.992 7     -1910.493 7        46.431                  
  20441934.710 9 107423097.154 9       857.031 9        57.027                  
 02  5 18 00 01  7.0000000  0  7G01G10G21G23G16G07G08                           
  23748085.481 8 124797025.723 8      3392.592 8        49.179                  
  21317336.662 9 112023375.226 9      -813.275 9        54.950                  
  21775443.053 8 114430715.640 8      1779.829 8        52.923                  
  23014023.265 8 120939514.762 8     -2827.344 8        48.925                  
  23487989.665 8 123430214.540 8     -3668.269 8        50.152                  
  24970337.480 7 131220011.640 7     -1914.431 7        46.144                  
  20441772.817 9 107422240.146 9       856.574 9        57.068                  
 02  5 18 00 01  8.0000000  0  7G01G10G21G23G16G07G08                           
  23747438.568 8 124793632.467 8      3393.927 8        48.890                  
  21317491.408 9 112024188.271 9      -813.296 9        57.849                  
  21775100.897 8 114428935.669 8      1778.966 8        52.584                  
  23014562.427 8 120942343.417 8     -2828.543 8        49.933                  
  23488687.432 8 123433882.932 8     -3666.720 8        50.797                  
  24970700.025 8 131221924.639 8     -1914.162 8        48.183                  
  20441607.314 9 107421383.601 9       857.239 9        58.692                  
 02  5 18 00 01  9.0000000  0  7G01G10G21G23G16G07G08                           
  23746792.514 8 124790239.353 8      3391.218 8        48.029                  
  21317645.475 9 112025001.930 9      -813.810 9        55.603                  
  21774760.492 8 114427155.990 8      1780.312 8        53.912                  
  23015099.338 8 120945172.476 8     -2829.960 8        50.452                  
  23489384.413 8 123437551.527 8     -3667.219 8        48.443                  
  24971064.499 8 131223837.982 8     -1912.731 8        48.044                  
  20441442.580 9 107420527.537 9       855.923 9        57.489                  
 02  5 18 00 01 10.0000000  0  7G01G10G21G23G16G07G08                           
  23746148.764 8 124786846.394 8      3397.265 8        49.662                  
  21317800.560 9 112025816.190 9      -814.381 9        54.983                  
  21774425.144 8 114425376.613 8      1779.871 8        53.375                  
  23015639.447 8 120948001.930 8     -2828.590 8        50.120                  
  23490083.825 8 123441220.311 8     -3669.607 8        49.565                  
  24971429.760 8 131225751.682 8     -1914.153 8        48.426                  
  20441277.524 9 107419671.949 9       855.830 9        56.886                  
 02  5 18 00 01 11.0000000  0  7G01G10G21G23G16G07G08                           
  23745502.299 7 124783453.614 7      3393.349 7        47.541                  
  21317955.324 9 112026631.045 9      -815.053 9        56.144                  
  21774088.474 8 114423597.533 8      1779.056 8        51.792                  
  23016176.500 8 120950831.753 8     -2827.748 8        50.588                  
  23490781.896 8 123444889.277 8     -3669.683 8        50.921                  
  24971791.840 8 131227665.729 8     -1913.669 8        48.147                  
  20441111.842 9 107418816.837 9       854.973 9        57.307                  
 02  5 18 00 01 12.0000000  0  7G01G10G21G23G16G07G08                           
  23744855.887 8 124780060.977 8      3389.540 8        50.000                  
  21318109.748 9 112027446.519 9      -816.639 9        57.107                  
  21773745.228 8 114421818.764 8      1779.355 8        53.133                  
  23016715.734 8 120953661.963 8     -2829.950 8        50.662                  
  23491479.467 8 123448558.444 8     -3669.311 8        51.404                  
  24972158.744 7 131229580.130 7     -1918.454 7        47.875                  
  20440946.553 9 107417962.178 9       854.478 9        57.349                  
 02  5 18 00 01 13.0000000  0  7G01G10G21G23G16G07G08                           
  23744211.298 8 124776668.505 8      3391.712 8        48.966                  
  21318266.030 9 112028262.629 9      -816.410 9        56.970                  
  21773406.360 8 114420040.306 8      1778.243 8        52.768                  
  23017255.253 8 120956492.562 8     -2828.607 8        50.184                  
  23492178.503 8 123452227.790 8     -3669.395 8        50.376                  
  24972519.055 7 131231494.871 7     -1913.301 7        46.491                  
  20440784.410 9 107417107.995 9       854.123 9        56.040                  
 02  5 18 00 01 14.0000000  0  7G01G10G21G23G16G07G08                           
  23743565.815 8 124773276.202 8      3392.187 8        48.568                  
  21318421.151 9 112029079.330 9      -816.833 9        54.917                  
  21773072.709 8 114418262.155 8      1778.607 8        51.987                  
  23017792.396 8 120959323.566 8     -2830.582 8        50.848                  
  23492876.288 8 123455897.337 8     -3670.834 8        49.975                  
  24972887.390 7 131233409.973 7     -1915.971 7        46.568                  
  20440624.053 9 107416254.288 9       854.178 9        54.649                  
 02  5 18 00 01 15.0000000  0  7G01G10G21G23G16G07G08                           
  23742918.849 8 124769884.055 8      3390.616 8        48.704                  
  21318576.290 9 112029896.630 9      -817.226 9        55.309                  
  21772733.484 8 114416484.292 8      1778.187 8        52.841                  
  23018333.863 8 120962154.968 8     -2830.897 8        50.296                  
  23493573.967 8 123459567.078 8     -3669.922 8        49.046                  
  24973249.648 7 131235325.428 7     -1916.103 7        46.904                  
  20440463.804 9 107415401.060 9       853.195 9        55.707                  
 02  5 18 00 01 16.0000000  0  7G01G10G21G23G16G07G08                           
  23742273.795 8 124766492.061 8      3395.032 8        48.233                  
  21318731.358 9 112030714.537 9      -818.504 9        55.979                  
  21772392.310 8 114414706.739 8      1778.254 8        52.833                  
  23018869.988 8 120964986.752 8     -2831.743 8        50.735                  
  23494273.950 8 123463236.994 8     -3672.082 8        49.587                  
  24973615.838 7 131237241.229 7     -1915.941 7        46.184                  
  20440303.823 9 107414548.308 9       853.053 9        56.601                  
 02  5 18 00 01 17.0000000  0  7G01G10G21G23G16G07G08                           
  23741629.742 7 124763100.249 7      3388.895 7        46.925                  
  21318887.997 9 112031533.086 9      -819.215 9        56.122                  
  21772053.782 9 114412929.472 9      1777.477 9        54.416                  
  23019409.257 8 120967818.905 8     -2834.098 8        50.226                  
  23494971.199 8 123466907.113 8     -3670.897 8        50.234                  
  24973980.742 8 131239157.390 8     -1916.847 8        48.111                  
  20440143.252 9 107413696.011 9       852.010 9        57.659                  
 02  5 18 00 01 18.0000000  0  7G01G10G21G23G16G07G08                           
  23740983.938 7 124759708.579 7      3392.966 7        47.715                  
  21319043.762 9 112032352.234 9      -820.192 9        55.370                  
  21771719.292 8 114411152.520 8      1775.583 8        53.196                  
  23019949.169 8 120970651.452 8     -2830.600 8        49.601                  
  23495669.449 8 123470577.415 8     -3672.517 8        49.396                  
  24974342.553 7 131241073.889 7     -1914.786 7        47.700                  
  20439983.771 9 107412844.189 9       850.983 9        57.425                  
 02  5 18 00 01 19.0000000  0  7G01G10G21G23G16G07G08                           
  23740337.043 7 124756317.076 7      3392.726 7        47.748                  
  21319200.973 9 112033171.975 9      -819.745 9        54.668                  
  21771381.442 8 114409375.842 8      1774.967 8        52.676                  
  23020485.794 8 120973484.406 8     -2832.119 8        50.266                  
  23496368.503 8 123474247.910 8     -3669.739 8        50.748                  
  24974711.120 8 131242990.739 8     -1916.068 8        48.140                  
  20439822.199 9 107411992.844 9       850.792 9        56.584                  
 02  5 18 00 01 20.0000000  0  7G01G10G21G23G16G07G08                           
  23739693.741 7 124752926.000 7      3389.545 7        47.299                  
  21319357.971 8 112033992.152 8      -819.463 8        53.408                  
  21771039.572 8 114407599.704 8      1774.777 8        50.988                  
  23021027.333 8 120976317.631 8     -2831.813 8        50.786                  
  23497066.682 8 123477918.468 8     -3671.962 8        50.064                  
  24975072.396 7 131244908.297 7     -1918.460 7        47.200                  
  20439658.590 9 107411142.080 9       849.394 9        56.527                  
 02  5 18 00 01 21.0000000  0  7G01G10G21G23G16G07G08                           
  23739049.509 7 124749546.248 7      3371.289 7        46.130                  
  21319513.628 9 112034806.285 9      -808.448 9        55.029                  
  21770703.563 8 114405833.033 8      1759.820 8        51.124                  
  23021565.083 8 120979146.133 8     -2823.904 8        51.701                  
  23497763.663 8 123481583.727 8     -3662.687 8        51.033                  
  24975442.696 7 131246841.003 7     -1946.418 7        43.551                  
  20439496.053 9 107410296.183 9       841.584 9        57.198                  
 02  5 18 00 01 22.0000000  0  7G01G10G21G23G16G07G08                           
  23738409.637 6 124746185.737 6      3349.194 6        39.752                  
  21319666.443 8 112035609.819 8      -796.810 8        51.642                  
  21770375.684 7 114404082.304 7      1746.575 7        46.355                  
  23022102.262 8 120981966.496 8     -2816.239 8        53.470                  
  23498461.680 8 123485239.992 8     -3651.690 8        50.795                  
  24975813.317 7 131248799.029 7     -1970.450 7        44.845                  
  20439334.410 9 107409458.082 9       834.157 9        59.144                  
 02  5 18 00 01 23.0000000  0  7G01G10G21G23G16G07G08                           
  23737774.214 8 124742843.754 8      3334.424 8        49.965                  
  21319817.705 7 112036402.495 7      -787.529 7        47.326                  
  21770044.357 8 114402347.026 8      1728.454 8        51.857                  
  23022637.492 7 120984778.682 7     -2811.036 7        46.370                  
  23499149.656 7 123488887.110 7     -3642.319 7        43.653                  
  24976193.195 8 131250781.731 8     -1995.471 8        50.269                  
  20439175.412 9 107408627.804 9       827.679 9        56.905                  
 02  5 18 00 01 24.0000000  0  7G01G10G21G23G16G07G08                           
  23737141.312 8 124739515.649 8      3328.895 8        52.963                  
  21319966.947 8 112037187.881 8      -785.872 8        53.677                  
  21769713.798 9 114400623.233 9      1723.223 9        58.612                  
  23023170.847 6 120987584.776 6     -2806.926 6        41.247                  
  23499847.030 7 123492527.831 7     -3642.316 7        42.229                  
  24976572.036 7 131252782.961 7     -2006.949 7        45.654                  
  20439019.272 8 107407803.402 8       826.150 8        49.104                  
 02  5 18 00 01 25.0000000  0  7G01G10G21G23G16G07G08                           
  23736507.819 8 124736188.734 8      3326.289 8        49.806                  
  21320116.511 9 112037973.295 9      -786.599 9        57.196                  
  21769383.185 9 114398900.540 9      1722.577 9        59.228                  
  23023704.613 8 120990390.949 8     -2805.576 8        48.027                  
  23500542.135 8 123496168.370 8     -3639.928 8        48.801                  
  24976967.120 6 131254786.025 6     -2003.798 6        38.802                  
  20438859.452 7 107406979.804 7       821.104 7        47.210                  
 02  5 18 00 01 26.0000000  0  7G01G10G21G23G16G07G08                           
  23735874.577 7 124732862.681 7      3328.221 7        46.988                  
  21320265.931 9 112038758.992 9      -786.650 9        55.321                  
  21769056.110 8 114397178.436 8      1723.426 8        53.000                  
  23024237.610 8 120993196.697 8     -2806.537 8        48.785                  
  23501230.968 7 123499810.079 7     -3642.240 7        47.959                  
  24977333.417 7 131256789.115 7     -2001.779 7        46.132                  
  20438700.149 8 107406156.523 8       824.699 8        48.425                  
 02  5 18 00 01 27.0000000  0  7G01G10G21G23G16G07G08                           
  23735240.923 7 124729528.118 7      3345.663 7        44.251                  
  21320416.263 8 112039550.669 8      -797.939 8        51.270                  
  21768730.948 8 114395449.345 8      1738.345 8        48.401                  
  23024777.147 7 120996004.926 7     -2807.132 7        43.797                  
  23501927.074 7 123503459.752 7     -3652.345 7        44.334                  
  24977714.670 7 131258779.659 7     -1976.409 7        47.460                  
  20438542.991 7 107405329.659 7       826.378 7        45.214                  
 02  5 18 00 01 28.0000000  0  7G01G10G21G23G16G07G08                           
  23734600.194 6 124726178.116 6      3361.775 6        39.077                  
  21320569.383 7 112040352.192 7      -809.463 7        45.164                  
  21768400.764 7 114393706.651 7      1747.911 7        44.441                  
  23025305.463 6 120998817.611 6     -2820.989 6        38.737                  
  23502623.787 6 123507124.187 6     -3662.408 6        38.730                  
  24978085.417 7 131260746.742 7     -1953.807 7        44.714                  
  20438385.833 7 107404495.296 7       837.720 7        45.404                  
 02  5 18 00 01 29.0000000  0  7G01G10G21G23G16G07G08                           
  23733962.126 6 124722812.652 6      3367.143 6        36.493                  
  21320723.807 6 112041162.100 6      -804.717 6        41.603                  
  21768063.432 6 114391953.134 6      1756.570 6        40.837                  
  23025843.159 6 121001634.185 6     -2823.059 6        36.251                  
  23503322.037 6 123510800.265 6     -3688.755 6        36.347                  
  24978459.934 6 131262694.143 6     -1952.525 6        41.518                  
  20438226.674 7 107403655.486 7       841.292 7        46.088                  
 02  5 18 00 01 30.0000000  0  7G01G10G21G23G16G07G08                           
  23733326.490 5 124719464.408 5      3333.896 5        34.692                  
  21320875.390 6 112041964.426 6      -789.957 6        36.487                  
  21767729.282 5 114390209.162 5      1743.666 5        35.984                  
  23026377.890 5 121004434.270 5     -2787.388 5        34.928                  
  23504024.647 5 123514490.923 5     -3692.773 5        34.692                  
  24978827.857 6 131264640.722 6     -1953.040 6        36.319                  
  20438068.211 9 107402816.505 9       838.024 9        57.311                  
 02  5 18 00 01 31.0000000  0  7G01G10G21G23G16G07G08                           
  23732689.673 5 124716138.917 5      3316.211 5        34.673                  
  21321026.383 5 112042754.130 5      -792.315 5        34.868                  
  21767402.707 5 114388480.738 5      1703.729 5        34.684                  
  23026906.366 5 121007211.275 5     -2763.200 5        34.746                  
  23504733.314 5 123518198.519 5     -3716.957 5        34.900                  
  24979201.480 5 131266593.065 5     -1955.687 5        34.372                  
  20437910.732 8 107401980.402 8       834.947 8        53.991                  
 02  5 18 00 01 32.0000000  0  7G01G10G21G23G16G07G08                           
  23732061.809 5 124712825.069 5      3315.811 5        34.758                  
  21321175.733 5 112043537.675 5      -775.100 5        34.815                  
  21767081.869 5 114386761.134 5      1724.417 5        34.782                  
  23027439.524 5 121009979.853 5     -2784.544 5        35.233                  
  23505435.263 5 123521908.230 5     -3704.689 5        35.026                  
  24979580.679 5 131268554.317 5     -1968.989 5        34.221                  
  20437754.002 8 107401147.893 8       832.885 8        50.009                  
 02  5 18 00 01 34.0000000  0  5G10G21G16G07G08                                 
  21321482.454 6 112045133.279 6      -803.628 6        37.431                  
  21766414.497 6 114383292.781 6      1735.079 6        37.167                  
  23506835.659 5 123529285.382 5     -3674.601 5        35.275                  
  24980330.588 6 131272479.878 6     -1966.005 6        38.796                  
  20437439.633 9 107399480.785 9       831.690 9        54.318                  
 02  5 18 00 01 35.0000000  0  5G10G21G16G07G08                                 
  21321631.518 6 112045933.819 6      -802.701 6        38.185                  
  21766080.078 6 114381558.114 6      1739.602 6        37.671                  
  23507533.283 5 123532959.661 5     -3671.689 5        35.935                  
  24980708.858 6 131274454.747 6     -1971.295 6        37.416                  
  20437283.779 8 107398650.453 8       830.914 8        52.124                  
 02  5 18 00 01 36.0000000  0  5G10G21G16G07G08                                 
  21321785.674 6 112046736.861 6      -801.496 6        41.943                  
  21765752.324 6 114379822.391 6      1740.574 6        40.231                  
  23508230.246 6 123536625.829 6     -3656.189 6        38.109                  
  24981079.229 6 131276430.548 6     -1971.529 6        40.252                  
  20437129.069 8 107397821.274 8       827.594 8        50.853                  
 02  5 18 00 01 37.0000000  0  5G10G21G16G07G08                                 
  21321950.962 8 112047543.712 8      -806.877 8        48.263                  
  21765414.171 7 114378083.412 7      1738.568 7        46.360                  
  23508909.198 7 123540284.271 7     -3655.421 7        44.131                  
  24981463.431 7 131278404.733 7     -1975.666 7        42.530                  
  20436965.853 7 107396993.122 7       828.162 7        47.224                  
 02  5 18 00 01 38.0000000  0  5G10G21G16G07G08                                 
  21322098.292 8 112048352.565 8      -810.231 8        48.649                  
  21765094.369 8 114376343.959 8      1745.432 8        52.225                  
  23509609.020 7 123543934.690 7     -3649.588 7        44.993                  
  24981830.282 7 131280380.259 7     -1972.251 7        43.996                  
  20436807.391 8 107396166.426 8       827.030 8        52.572                  
 02  5 18 00 01 39.0000000  0  5G10G21G16G07G08                                 
  21322248.910 7 112049167.503 7      -823.552 7        45.658                  
  21764761.559 7 114374598.027 7      1757.310 7        44.813                  
  23510311.058 6 123547579.816 6     -3651.320 6        41.197                  
  24982213.197 7 131282348.634 7     -1952.109 7        42.304                  
  20436648.893 8 107395338.889 8       828.512 8        52.376                  
 02  5 18 00 01 40.0000000  0  5G10G21G16G07G08                                 
  21322406.104 6 112049991.403 6      -821.402 6        39.979                  
  21764423.512 6 114372841.848 6      1754.024 6        39.112                  
  23511007.754 6 123551225.351 6     -3641.969 6        38.912                  
  24982582.121 6 131284302.281 6     -1947.274 6        37.872                  
  20436491.091 8 107394507.692 8       833.731 8        49.834                  
 02  5 18 00 01 41.0000000  0  5G10G21G16G07G08                                 
  21322563.709 6 112050818.850 6      -826.677 6        38.325                  
  21764092.971 6 114371083.919 6      1757.955 6        37.606                  
  23511698.499 6 123554853.600 6     -3630.256 6        36.057                  
  24982956.834 6 131286259.254 6     -1944.290 6        38.953                  
  20436330.735 8 107393679.631 8       826.951 8        51.554                  
 02  5 18 00 01 42.0000000  0  5G10G21G16G07G08                                 
  21322718.687 6 112051651.781 6      -840.922 6        36.249                  
  21763758.106 5 114369320.879 5      1759.354 5        35.909                  
  23512395.766 5 123558475.072 5     -3612.263 5        35.520                  
  24983326.330 6 131288210.886 6     -1948.600 6        36.513                  
  20436174.613 7 107392851.529 7       829.259 7        45.730                  
 02  5 18 00 01 43.0000000  0  5G10G21G16G07G08                                 
  21322877.221 5 112052489.222 5      -833.688 5        35.218                  
  21763420.774 5 114367553.221 5      1759.447 5        35.155                  
  23513081.722 5 123562095.186 5     -3631.139 5        35.381                  
  24983701.168 5 131290156.698 5     -1942.403 5        35.429                  
  20436014.042 7 107392022.019 7       827.866 7        43.353                  
 02  5 18 00 01 44.0000000  0  5G10G21G16G07G08                                 
  21323035.273 5 112053326.871 5      -839.939 5        34.942                  
  21763080.584 5 114365785.745 5      1770.307 5        34.829                  
  23513772.896 5 123565721.617 5     -3622.900 5        35.043                  
  24984064.535 5 131292101.060 5     -1949.573 5        35.235                  
  20435851.934 9 107391192.207 9       830.873 9        56.668                  
 02  5 18 00 01 55.0000000  0  4G10G21G23G08                                    
  21324757.650 6 112062361.610 6      -869.406 6        37.672                  
  21759439.574 6 114346625.210 6      1779.522 6        36.416                  
  23039840.358 5 121072652.485 5     -2886.149 5        35.037                  
  20434141.047 8 107382148.331 8       831.935 8        50.266                  
 02  5 18 00 01 56.0000000  0  4G10G21G23G08                                    
  21324922.742 6 112063230.755 6      -872.328 6        36.394                  
  21759101.224 5 114344831.187 5      1799.868 5        35.701                  
  23040398.158 5 121075558.128 5     -2911.140 5        34.579                  
  20433985.014 8 107381313.836 8       835.675 8        48.762                  
 02  5 18 00 01 57.0000000  0  4G10G21G23G08                                    
  21325092.033 6 112064111.440 6      -889.144 6        37.319                  
  21758749.151 6 114343024.507 6      1815.141 6        36.034                  
  23040955.153 5 121078481.339 5     -2935.357 5        35.052                  
  20433825.158 7 107380477.200 7       843.555 7        47.648                  
 02  5 18 00 02  7.0000000  0  4G10G21G16G08                                    
  21326781.424 8 112073028.576 8      -897.237 8        53.177                  
  21755290.208 8 114324837.826 8      1822.962 8        53.674                  
  23529731.113 6 123633324.984 6     -3693.005 6        40.253                  
  20432205.367 8 107372020.511 8       851.382 8        52.133                  
 02  5 18 00 02  8.0000000  0  4G10G21G16G08                                    
  21326964.081 8 112073923.912 8      -894.852 8        50.060                  
  21754955.843 8 114323016.295 8      1820.162 8        52.140                  
  23530432.168 6 123637012.648 6     -3697.018 6        39.633                  
  20432048.066 8 107371169.414 8       855.848 8        51.390                  
 02  5 18 00 02  9.0000000  0  4G10G21G16G08                                    
  21327126.707 8 112074818.819 8      -893.741 8        50.827                  
  21754586.651 8 114321196.627 8      1817.232 8        49.906                  
  23531135.743 6 123640705.707 6     -3688.924 6        40.675                  
  20431891.355 8 107370317.918 8       851.492 8        52.337                  
 02  5 18 00 02 10.0000000  0  4G10G21G16G08                                    
  21327290.066 8 112075712.524 8      -894.035 8        51.027                  
  21754258.326 8 114319378.283 8      1818.131 8        50.316                  
  23531838.031 6 123644403.263 6     -3698.238 6        41.006                  
  20431716.971 8 107369466.596 8       853.616 8        52.498                  
 02  5 18 00 02 11.0000000  0  4G10G21G16G08                                    
  21327467.523 7 112076603.268 7      -892.222 7        47.122                  
  21753905.466 7 114317564.005 7      1812.653 7        46.878                  
  23532542.643 6 123648110.312 6     -3711.582 6        39.783                  
  20431570.159 9 107368615.754 9       850.027 9        56.209                  
 02  5 18 00 02 12.0000000  0  4G10G21G16G08                                    
  21327635.831 6 112077485.678 6      -877.510 6        41.755                  
  21753569.296 6 114315761.320 6      1802.505 6        40.213                  
  23533249.005 7 123651818.790 7     -3707.419 7        43.907                  
  20431402.279 8 107367769.176 8       837.462 8        49.439                  
 02  5 18 00 02 13.0000000  0  5G10G21G16G07G08                                 
  21327803.907 6 112078362.464 6      -880.151 6        40.466                  
  21753223.388 6 114313966.808 6      1798.600 6        38.758                  
  23533954.671 7 123655530.521 7     -3712.349 7        46.370                  
  24994583.314 6 131346146.304 6     -1874.652 6        36.761                  
  20431238.814 7 107366925.250 7       834.847 7        46.758                  
 02  5 18 00 02 14.0000000  0  5G10G21G16G07G08                                 
  21327967.141 7 112079237.988 7      -875.878 7        46.657                  
  21752881.607 7 114312174.569 7      1794.034 7        44.910                  
  23534658.996 7 123659245.605 7     -3736.200 7        43.334                  
  24994947.038 6 131348024.057 6     -1888.232 6        41.462                  
  20431082.102 9 107366082.040 9       842.811 9        54.765                  
 02  5 18 00 02 15.0000000  0  5G10G21G16G07G08                                 
  21328131.411 8 112080112.270 8      -874.675 8        48.992                  
  21752541.220 7 114310384.961 7      1787.019 7        45.409                  
  23535369.397 7 123662963.612 7     -3718.819 7        45.169                  
  24995302.721 7 131349906.053 7     -1882.828 7        42.798                  
  20430917.261 9 107365239.464 9       841.964 9        55.882                  
 02  5 18 00 02 16.0000000  0  5G10G21G16G07G08                                 
  21328298.790 7 112080982.821 7      -873.834 7        46.577                  
  21752206.694 7 114308599.951 7      1787.976 7        45.705                  
  23536079.601 7 123666686.448 7     -3727.565 7        43.960                  
  24995660.137 7 131351792.866 7     -1882.604 7        43.796                  
  20430739.374 8 107364398.370 8       844.891 8        50.772                  
 02  5 18 00 02 17.0000000  0  5G10G21G16G07G08                                 
  21328462.309 8 112081854.387 8      -871.645 8        51.630                  
  21751866.182 8 114306813.461 8      1786.165 8        49.121                  
  23536790.270 6 123670427.153 6     -3743.971 6        37.324                  
  24996025.541 7 131353671.752 7     -1879.496 7        42.601                  
  20430593.259 8 107363553.858 8       842.609 8        48.769                  
 02  5 18 00 02 18.0000000  0  5G10G21G16G07G08                                 
  21328628.205 8 112082722.021 8      -868.300 8        49.096                  
  21751521.774 7 114305031.598 7      1781.071 7        47.967                  
  23537501.761 6 123674176.268 6     -3744.807 6        37.168                  
  24996370.574 7 131355555.405 7     -1885.762 7        44.740                  
  20430437.799 8 107362710.110 8       843.614 8        53.038                  
 02  5 18 00 02 19.0000000  0  5G10G21G16G07G08                                 
  21328794.226 7 112083586.803 7      -857.313 7        46.032                  
  21751186.676 7 114303254.562 7      1776.618 7        43.578                  
  23538215.235 7 123677928.190 7     -3749.131 7        43.779                  
  24996738.908 7 131357444.012 7     -1883.605 7        42.376                  
  20430269.169 8 107361867.899 8       840.571 8        52.790                  
 02  5 18 00 02 20.0000000  0  5G10G21G16G07G08                                 
  21328959.622 7 112084449.093 7      -863.749 7        46.229                  
  21750850.042 7 114301481.176 7      1761.552 7        45.199                  
  23538928.942 7 123681682.451 7     -3753.732 7        46.132                  
  24997096.396 7 131359337.732 7     -1910.269 7        42.549                  
  20430120.159 8 107361026.707 8       840.512 8        53.869                  
 02  5 18 00 02 21.0000000  0  5G10G21G16G07G08                                 
  21329123.749 7 112085306.819 7      -851.412 7        44.713                  
  21750509.673 7 114299714.524 7      1757.892 7        43.295                  
  23539654.496 7 123685439.797 7     -3763.290 7        45.841                  
  24997460.334 6 131361238.319 6     -1901.448 6        40.143                  
  20429959.445 8 107360188.203 8       839.219 8        50.149                  
 02  5 18 00 02 22.0000000  0  5G10G21G16G07G08                                 
  21329285.517 7 112086162.339 7      -852.539 7        45.206                  
  21750173.932 7 114297951.460 7      1763.911 7        43.925                  
  23540356.784 7 123689198.380 7     -3757.299 7        46.439                  
  24997823.915 6 131363144.801 6     -1904.423 6        40.424                  
  20429803.502 8 107359350.858 8       836.610 8        53.045                  
 02  5 18 00 02 23.0000000  0  5G10G21G16G07G08                                 
  21329449.573 7 112087015.350 7      -853.748 7        45.625                  
  21749842.265 7 114296192.906 7      1751.435 7        44.931                  
  23541075.601 7 123692958.301 7     -3758.615 7        46.799                  
  24998183.332 6 131365057.493 6     -1920.155 6        41.064                  
  20429646.505 8 107358515.403 8       833.365 8        52.636                  
 02  5 18 00 02 24.0000000  0  5G10G21G16G07G08                                 
  21329609.518 7 112087863.513 7      -848.548 7        43.593                  
  21749511.169 7 114294441.260 7      1746.602 7        42.447                  
  23541797.939 7 123696719.482 7     -3760.008 7        45.526                  
  24998551.935 6 131366977.101 6     -1929.007 6        39.376                  
  20429485.523 8 107357682.949 8       827.065 8        49.110                  
 02  5 18 00 02 25.0000000  0  6G10G21G23G16G07G08                              
  21329769.696 7 112088707.207 7      -837.364 7        43.673                  
  21749175.196 6 114292696.529 6      1745.092 6        41.222                  
  23056269.460 6 121161503.084 6     -2802.003 6        40.742                  
  23542495.563 7 123700481.014 7     -3762.135 7        46.471                  
  24998920.162 6 131368903.084 6     -1924.530 6        37.475                  
  20429329.294 8 107356853.092 8       829.578 8        48.563                  
 02  5 18 00 02 26.0000000  0  6G10G21G23G16G07G08                              
  21329929.553 7 112089547.812 7      -843.925 7        44.951                  
  21748842.957 7 114290957.335 7      1733.783 7        42.882                  
  23056792.700 7 121164304.546 7     -2806.056 7        43.257                  
  23543225.048 7 123704234.749 7     -3745.757 7        42.419                  
  24999288.138 6 131370841.732 6     -1933.222 6        37.134                  
  20429171.546 7 107356026.966 7       825.827 7        46.792                  
 02  5 18 00 02 27.0000000  0  6G10G21G23G16G07G08                              
  21330090.302 8 112090392.773 8      -844.967 8        48.373                  
  21748515.239 8 114289216.290 8      1743.071 8        48.362                  
  23057338.653 6 121167121.648 6     -2826.917 6        39.169                  
  23543931.875 6 123707966.124 6     -3734.993 6        36.163                  
  24999655.776 6 131372785.966 6     -1942.891 6        39.204                  
  20429013.566 7 107355204.627 7       823.268 7        46.836                  
 02  5 18 00 02 28.0000000  0  6G10G21G23G16G07G08                              
  21330251.070 7 112091245.556 7      -855.791 7        42.496                  
  21748186.307 7 114287469.293 7      1757.586 7        43.785                  
  23057876.081 5 121169958.378 5     -2838.825 5        35.431                  
  23544640.525 5 123711674.862 5     -3688.692 5        34.763                  
  25000029.131 7 131374731.240 7     -1938.128 7        43.593                  
  20428856.909 8 107354384.449 8       821.125 8        50.203                  
 02  5 18 00 02 29.0000000  0  6G10G21G23G16G07G08                              
  21330414.697 6 112092106.161 6      -859.691 6        40.636                  
  21747848.921 6 114285715.403 6      1751.005 6        40.831                  
  23058418.102 5 121172814.074 5     -2854.734 5        34.860                  
  23545343.778 5 123715363.110 5     -3688.596 5        34.491                  
  25000398.430 7 131376674.282 7     -1941.815 7        43.149                  
  20428697.374 8 107353566.269 8       819.150 8        49.804                  
 02  5 18 00 02 30.0000000  0  6G10G21G23G16G07G08                              
  21330578.055 7 112092968.923 7      -863.574 7        45.902                  
  21747511.787 7 114283960.271 7      1753.742 7        45.347                  
  23058970.362 6 121175670.922 6     -2857.547 6        37.946                  
  23546041.403 6 123719046.798 6     -3680.594 6        37.216                  
  25000773.805 7 131378616.177 7     -1944.712 7        44.841                  
  20428541.538 8 107352748.486 8       817.936 8        53.341                  
 02  5 18 00 02 31.0000000  0  5G10G21G23G16G08                                 
  21330744.201 9 112093832.550 9      -863.470 9        54.294                  
  21747177.171 8 114282205.250 8      1754.817 8        50.724                  
  23059506.987 8 121178531.659 8     -2862.836 8        48.394                  
  23546744.174 8 123722730.849 8     -3682.530 8        48.726                  
  20428386.542 9 107351931.186 9       817.133 9        56.212                  
 02  5 18 00 02 32.0000000  0  5G10G21G23G16G08                                 
  21330909.097 8 112094696.756 8      -864.731 8        52.902                  
  21746847.273 8 114280450.608 8      1754.137 8        51.724                  
  23060053.958 8 121181392.770 8     -2860.179 8        50.923                  
  23547445.908 8 123726414.968 8     -3684.884 8        52.452                  
  20428231.046 9 107351114.410 9       816.696 9        56.215                  
 02  5 18 00 02 33.0000000  0  5G10G21G23G16G08                                 
  21331074.546 8 112095561.559 8      -866.005 8        52.631                  
  21746514.927 8 114278696.266 8      1753.745 8        53.682                  
  23060599.678 8 121184254.284 8     -2860.213 8        50.569                  
  23548145.748 8 123730099.286 8     -3684.513 8        51.646                  
  20428073.727 9 107350298.116 9       815.894 9        55.947                  
 02  5 18 00 02 34.0000000  0  5G10G21G23G16G08                                 
  21331240.085 8 112096426.911 8      -864.034 8        53.770                  
  21746178.061 9 114276942.211 9      1753.972 9        54.830                  
  23061139.251 8 121187116.172 8     -2862.297 8        50.862                  
  23548848.215 8 123733783.769 8     -3684.596 8        50.738                  
  20427916.694 9 107349482.308 9       814.911 9        56.919                  
 02  5 18 00 02 35.0000000  0  5G10G21G23G16G08                                 
  21331405.284 8 112097292.818 8      -865.097 8        53.869                  
  21745841.355 8 114275188.439 8      1753.630 8        53.382                  
  23061687.526 8 121189978.472 8     -2862.463 8        50.605                  
  23549549.521 8 123737468.456 8     -3682.772 8        50.684                  
  20427761.055 9 107348666.986 9       814.551 9        55.040                  
