     2.11           OBSERVATION DATA    G                   RINEX VERSION / TYPE
BLANK OR G = GPS,  R = GLONASS,  E = GALILEO,  M = MIXED    COMMENT             
GNSS-SDR            joel                 5-MAY-25 07:27     PGM / RUN BY / DATE 
GPS OBSERVATION DATA FILE GENERATED BY GNSS-SDR             COMMENT             
GNSS-SDR VERSION 0.0.16                                     COMMENT             
See https://gnss-sdr.org                                    COMMENT             
DEFAULT MARKER NAME                                         MARKER NAME         
joel                CTTC                                    OBSERVER / AGENCY   
GNSS-SDR            Software Receiver   0.0.16              REC # / TYPE / VERS 
Antenna number      Antenna type                            ANT # / TYPE        
        0.0000        0.0000        0.0000                  APPROX POSITION XYZ 
        0.0000        0.0000        0.0000                  ANTENNA: DELTA H/E/N
     1     1                                                WAVELENGTH FACT L1/2
     4    C1    L1    D1    S1                              # / TYPES OF OBSERV 
  2002    05    18    00    00   42.1200000     GPS         TIME OF FIRST OBS   
    18                                                      LEAP SECONDS        
                                                            END OF HEADER       
 02  5 18 00 00 43.0000000  0  8G01G23G21G16G27G10G07G08                        
  23763590.575 7 124878514.381 7      3399.658 7        46.685                  
  23001127.120 8 120871743.352 8     -2818.427 8        49.976                  
  21783585.538 8 114473515.344 8      1786.659 8        53.265                  
  23471245.318 8 123342230.695 8     -3662.956 8        49.410                  
  20479410.894 9 107619991.069 9     -1372.553 9        54.601                  
  21313658.628 9 112004039.667 9      -798.323 9        54.380                  
  24961618.666 7 131174189.514 7     -1906.862 7        45.649                  
  20445704.806 9 107442908.360 9       868.245 9        55.798                  
 02  5 18 00 00 44.0000000  0  8G01G23G21G16G27G10G07G08                        
  23762945.646 7 124875117.259 7      3394.707 7        46.775                  
  23001664.781 8 120874562.620 8     -2818.295 8        50.208                  
  21783249.386 9 114471728.133 9      1786.417 9        54.226                  
  23471943.979 8 123345894.470 8     -3663.464 8        50.499                  
  20479668.458 9 107621363.668 9     -1372.077 9        54.967                  
  21313811.176 8 112004838.024 8      -799.547 8        53.922                  
  24961982.050 7 131176094.041 7     -1909.754 7        46.112                  
  20445541.823 9 107442040.516 9       867.788 9        56.825                  
 02  5 18 00 00 45.0000000  0  8G01G23G21G16G27G10G07G08                        
  23762299.020 7 124871720.310 7      3394.051 7        47.506                  
  23002198.940 8 120877382.250 8     -2818.290 8        51.046                  
  21782906.747 8 114469941.232 8      1786.936 8        53.223                  
  23472640.942 8 123349558.442 8     -3662.052 8        50.284                  
  20479926.022 9 107622736.746 9     -1373.059 9        54.564                  
  21313963.009 9 112005637.022 9      -798.024 9        54.604                  
  24962342.700 7 131177998.923 7     -1904.920 7        46.797                  
  20445380.215 9 107441173.149 9       867.241 9        57.366                  
 02  5 18 00 00 46.0000000  0  8G01G23G21G16G27G10G07G08                        
  23761651.250 8 124868323.515 8      3395.413 8        48.423                  
  23002736.494 8 120880202.292 8     -2822.655 8        50.578                  
  21782563.591 8 114468154.641 8      1786.859 8        53.641                  
  23473337.655 8 123353222.599 8     -3665.622 8        49.296                  
  20480191.467 9 107624110.299 9     -1374.453 9        56.653                  
  21314115.217 9 112006436.619 9      -799.387 9        54.139                  
  24962709.087 7 131179904.164 7     -1905.526 7        45.001                  
  20445215.677 9 107440306.259 9       866.657 9        56.303                  
 02  5 18 00 00 47.0000000  0  8G01G23G21G16G27G10G07G08                        
  23761005.731 7 124864926.872 7      3392.826 7        47.629                  
  23003272.493 8 120883022.723 8     -2822.778 8        49.775                  
  21782227.296 8 114466368.352 8      1785.596 8        52.254                  
  23474035.762 8 123356886.951 8     -3665.607 8        50.498                  
  20480456.393 9 107625484.328 9     -1375.051 9        56.419                  
  21314268.426 8 112007236.812 8      -801.053 8        53.804                  
  24963068.451 7 131181809.745 7     -1907.404 7        45.938                  
  20445048.388 9 107439439.823 9       865.998 9        55.627                  
 02  5 18 00 00 48.0000000  0  8G01G23G21G16G27G10G07G08                        
  23760360.123 7 124861530.391 7      3396.570 7        47.361                  
  23003811.905 8 120885843.546 8     -2822.545 8        50.780                  
  21781887.784 8 114464582.358 8      1785.174 8        52.285                  
  23474732.958 8 123360551.505 8     -3664.554 8        50.447                  
  20480713.617 9 107626858.836 9     -1375.233 9        56.870                  
  21314420.188 9 112008037.612 9      -801.065 9        56.888                  
  24963433.175 7 131183715.684 7     -1905.934 7        46.250                  
  20444880.991 9 107438573.862 9       864.958 9        57.933                  
 02  5 18 00 00 49.0000000  0  8G01G23G21G16G27G10G07G08                        
  23759712.157 8 124858134.069 8      3396.769 8        49.099                  
  23004345.796 8 120888664.780 8     -2821.046 8        49.421                  
  21781545.592 8 114462796.662 8      1785.497 8        53.598                  
  23475429.636 8 123364216.251 8     -3667.130 8        50.705                  
  20480971.825 9 107628233.820 9     -1375.932 9        56.118                  
  21314573.522 9 112008839.055 9      -802.222 9        57.283                  
  24963795.130 7 131185621.983 7     -1907.274 7        46.822                  
  20444713.254 9 107437708.377 9       865.601 9        57.248                  
 02  5 18 00 00 50.0000000  0  8G01G23G21G16G27G10G07G08                        
  23759066.335 7 124854737.906 7      3396.929 7        47.095                  
  23004883.796 8 120891486.407 8     -2822.126 8        49.606                  
  21781204.973 8 114461011.265 8      1787.110 8        53.317                  
  23476128.439 8 123367881.173 8     -3665.717 8        48.822                  
  20481238.323 9 107629609.281 9     -1375.562 9        57.572                  
  21314726.070 9 112009641.095 9      -801.916 9        56.273                  
  24964157.050 7 131187528.626 7     -1905.264 7        47.789                  
  20444545.267 9 107436843.361 9       864.889 9        58.658                  
 02  5 18 00 00 51.0000000  0  8G01G23G21G16G27G10G07G08                        
  23758421.620 7 124851341.914 7      3393.945 7        47.524                  
  23005422.226 8 120894308.419 8     -2821.817 8        49.868                  
  21780869.393 8 114459226.167 8      1783.618 8        53.154                  
  23476824.831 8 123371546.307 8     -3665.742 8        50.492                  
  20481503.232 9 107630985.217 9     -1375.004 9        54.925                  
  21314878.957 9 112010443.732 9      -802.751 9        54.767                  
  24964522.918 7 131189435.629 7     -1906.476 7        47.338                  
  20444381.391 9 107435978.807 9       863.699 9        54.644                  
 02  5 18 00 00 52.0000000  0  8G01G23G21G16G27G10G07G08                        
  23757774.351 8 124847946.068 8      3397.270 8        48.302                  
  23005957.170 8 120897130.815 8     -2822.212 8        51.386                  
  21780530.257 8 114457441.363 8      1784.993 8        51.515                  
  23477522.152 8 123375211.640 8     -3666.270 8        49.680                  
  20481760.438 9 107632361.632 9     -1376.842 9        58.315                  
  21315031.934 9 112011246.989 9      -804.177 9        54.028                  
  24964882.460 7 131191342.991 7     -1911.226 7        46.035                  
  20444219.229 9 107435114.730 9       864.513 9        56.363                  
 02  5 18 00 00 53.0000000  0  8G01G23G21G16G27G10G07G08                        
  23757127.170 7 124844550.395 7      3392.973 7        47.983                  
  23006496.904 8 120899953.603 8     -2823.638 8        49.663                  
  21780186.189 8 114455656.858 8      1784.912 8        51.854                  
  23478221.009 8 123378877.143 8     -3662.337 8        49.510                  
  20482019.307 9 107633738.523 9     -1377.540 9        56.583                  
  21315184.839 9 112012050.876 9      -805.068 9        55.027                  
  24965249.383 7 131193250.699 7     -1908.668 7        46.803                  
  20444056.979 9 107434251.131 9       863.389 9        57.117                  
 02  5 18 00 00 54.0000000  0  8G01G23G21G16G27G10G07G08                        
  23756482.563 7 124841154.880 7      3394.634 7        46.982                  
  23007032.135 8 120902776.776 8     -2824.037 8        50.436                  
  21779846.999 8 114453872.667 8      1784.016 8        53.871                  
  23478916.865 8 123382542.856 8     -3665.988 8        50.116                  
  20482286.270 9 107635115.891 9     -1377.773 9        57.165                  
  21315338.173 9 112012855.360 9      -805.134 9        54.010                  
  24965609.104 7 131195158.759 7     -1906.393 7        46.841                  
  20443895.210 9 107433388.008 9       863.162 9        54.952                  
 02  5 18 00 00 55.0000000  0  8G01G23G21G16G27G10G07G08                        
  23755836.777 8 124837759.515 8      3394.896 8        48.817                  
  23007570.672 8 120905600.340 8     -2822.347 8        49.874                  
  21779511.633 8 114452088.796 8      1782.392 8        53.361                  
  23479614.686 8 123386208.755 8     -3667.144 8        49.608                  
  20482551.643 9 107636493.736 9     -1377.771 9        56.685                  
  21315491.203 9 112013660.441 9      -805.409 9        54.167                  
  24965973.632 7 131197067.174 7     -1908.903 7        47.058                  
  20443734.175 9 107432525.338 9       862.139 9        56.856                  
 02  5 18 00 00 56.0000000  0  8G01G23G21G16G27G10G07G08                        
  23755189.400 7 124834364.319 7      3392.529 7        46.765                  
  23008107.868 8 120908424.322 8     -2824.753 8        51.899                  
  21779171.585 9 114450305.209 9      1782.475 9        54.234                  
  23480314.133 7 123389874.845 7     -3668.111 7        47.430                  
  20482808.939 9 107637872.057 9     -1378.185 9        56.023                  
  21315644.788 9 112014466.138 9      -806.160 9        54.596                  
  24966337.553 7 131198975.942 7     -1904.872 7        46.365                  
  20443571.674 9 107431663.145 9       861.547 9        56.023                  
 02  5 18 00 00 57.0000000  0  8G01G23G21G16G27G10G07G08                        
  23754544.686 8 124830969.285 8      3396.002 8        48.683                  
  23008644.314 8 120911248.685 8     -2824.430 8        50.932                  
  21778828.107 8 114448521.933 8      1784.756 8        51.746                  
  23481009.560 7 123393541.124 7     -3663.701 7        47.426                  
  20483068.219 9 107639250.856 9     -1378.969 9        55.971                  
  21315798.318 9 112015272.470 9      -806.512 9        55.390                  
  24966698.364 7 131200885.067 7     -1912.590 7        45.970                  
  20443405.295 9 107430801.429 9       861.561 9        58.269                  
 02  5 18 00 00 58.0000000  0  8G01G23G21G16G27G10G07G08                        
  23753898.238 8 124827574.403 8      3397.161 8        48.509                  
  23009182.815 8 120914073.446 8     -2825.114 8        50.081                  
  21778490.347 8 114446738.946 8      1783.065 8        51.998                  
  23481707.810 7 123397207.601 7     -3665.658 7        47.745                  
  20483335.611 9 107640630.131 9     -1379.430 9        56.283                  
  21315952.063 9 112016079.397 9      -806.613 9        55.505                  
  24967065.072 7 131202794.535 7     -1911.451 7        45.926                  
  20443239.113 9 107429940.189 9       861.866 9        57.003                  
 02  5 18 00 00 59.0000000  0  8G01G23G21G16G27G10G07G08                        
  23753251.129 8 124824179.693 8      3395.393 8        49.064                  
  23009718.689 8 120916898.586 8     -2824.305 8        49.974                  
  21778155.035 8 114444956.266 8      1782.957 8        50.760                  
  23482406.453 8 123400874.282 8     -3666.668 8        48.538                  
  20483601.162 9 107642009.883 9     -1380.202 9        56.855                  
  21316105.933 9 112016886.921 9      -807.612 9        56.596                  
  24967425.401 7 131204704.368 7     -1910.959 7        44.707                  
  20443072.681 9 107429079.403 9       860.788 9        55.325                  
 02  5 18 00 01  0.0000000  0  8G01G23G21G16G27G10G07G08                        
  23752605.932 8 124820785.135 8      3397.684 8        49.813                  
  23010258.637 8 120919724.103 8     -2826.643 8        51.600                  
  21777813.540 8 114443173.873 8      1780.451 8        52.413                  
  23483102.808 8 123404541.138 8     -3670.334 8        48.679                  
  20483859.030 9 107643390.113 9     -1380.749 9        57.445                  
  21316259.607 9 112017695.078 9      -807.978 9        57.452                  
  24967791.180 7 131206614.536 7     -1908.943 7        46.988                  
  20442905.695 9 107428219.093 9       859.900 9        57.004                  
 02  5 18 00 01  1.0000000  0  8G01G23G21G16G27G10G07G08                        
  23751959.949 8 124817390.734 8      3396.038 8        50.112                  
  23010795.048 8 120922550.020 8     -2823.870 8        49.268                  
  21777470.312 8 114441391.790 8      1782.226 8        53.964                  
  23483801.255 8 123408208.194 8     -3665.179 8        49.373                  
  20484118.703 9 107644770.819 9     -1381.361 9        56.458                  
  21316414.103 9 112018503.852 9      -808.681 9        55.346                  
  24968153.296 7 131208525.075 7     -1912.365 7        47.395                  
  20442740.407 9 107427359.259 9       859.802 9        56.638                  
 02  5 18 00 01  2.0000000  0  8G01G23G21G16G27G10G07G08                        
  23751313.252 8 124813996.503 8      3395.669 8        49.063                  
  23011333.173 8 120925376.329 8     -2824.964 8        50.189                  
  21777134.713 8 114439609.991 8      1782.117 8        50.752                  
  23484499.898 8 123411875.441 8     -3666.627 8        49.139                  
  20484386.256 9 107646152.002 9     -1382.162 9        55.384                  
  21316567.383 9 112019313.225 9      -810.822 9        54.343                  
  24968517.824 7 131210435.945 7     -1912.134 7        45.647                  
  20442578.603 9 107426499.904 9       858.936 9        57.196                  
 02  5 18 00 01  3.0000000  0  8G01G23G21G16G27G10G07G08                        
  23750668.001 8 124810602.425 8      3396.409 8        48.961                  
  23011872.049 8 120928203.043 8     -2826.678 8        50.903                  
  21776798.669 8 114437828.515 8      1781.647 8        51.977                  
  23485196.111 8 123415542.864 8     -3666.804 8        51.019                  
  20484652.254 9 107647533.661 9     -1381.614 9        55.202                  
  21316721.003 9 112020123.192 9      -810.318 9        55.029                  
  24968882.066 7 131212347.184 7     -1910.572 7        44.744                  
  20442416.924 9 107425641.000 9       858.084 9        55.571                  
 02  5 18 00 01  4.0000000  0  8G01G23G21G16G27G10G07G08                        
  23750023.197 8 124807208.501 8      3390.053 8        49.244                  
  23012407.548 8 120931030.149 8     -2826.555 8        53.056                  
  21776456.405 9 114436047.350 9      1780.653 9        54.058                  
  23485895.415 8 123419210.508 8     -3667.960 8        52.150                  
  20484910.908 9 107648915.809 9     -1381.887 9        55.854                  
  21316875.070 9 112020933.780 9      -810.893 9        54.685                  
  24969242.859 7 131214258.774 7     -1910.250 7        45.158                  
  20442255.888 9 107424782.575 9       858.138 9        56.761                  
 02  5 18 00 01  5.0000000  0  8G01G23G21G16G27G10G07G08                        
  23749375.910 8 124803814.759 8      3389.175 8        48.125                  
  23012947.711 8 120933857.640 8     -2827.679 8        51.166                  
  21776115.482 8 114434266.482 8      1779.852 8        53.735                  
  23486593.504 8 123422878.322 8     -3665.980 8        49.198                  
  20485170.598 9 107650298.447 9     -1383.595 9        55.516                  
  21317028.797 9 112021744.999 9      -811.983 9        56.110                  
  24969609.978 7 131216170.713 7     -1912.808 7        45.790                  
  20442094.638 9 107423924.625 9       858.141 9        56.313                  
 02  5 18 00 01  6.0000000  0  8G01G23G21G16G27G10G07G08                        
  23748729.552 8 124800421.163 8      3391.874 8        48.451                  
  23013484.979 8 120936685.498 8     -2827.095 8        48.888                  
  21775779.956 8 114432485.913 8      1779.911 8        52.022                  
  23487290.628 8 123426546.336 8     -3664.359 8        48.782                  
  20485438.026 9 107651681.561 9     -1384.361 9        56.689                  
  21317182.685 9 112022556.814 9      -812.119 9        56.330                  
  24969970.897 7 131218082.992 7     -1910.562 7        46.439                  
  20441934.710 9 107423067.154 9       857.047 9        57.040                  
 02  5 18 00 01  7.0000000  0  8G01G23G21G16G27G10G07G08                        
  23748085.516 8 124797027.716 8      3392.542 8        49.216                  
  23014023.158 8 120939513.762 8     -2827.321 8        48.929                  
  21775443.071 8 114430705.640 8      1779.795 8        52.923                  
  23487989.665 8 123430214.548 8     -3668.239 8        50.144                  
  20485704.632 9 107653065.150 9     -1383.846 9        56.543                  
  21317336.645 9 112023369.226 9      -813.297 9        54.965                  
  24970337.462 7 131219995.640 7     -1914.442 7        46.130                  
  20441772.817 9 107422210.146 9       856.592 9        57.078                  
 02  5 18 00 01  8.0000000  0  8G01G23G21G16G27G10G07G08                        
  23747438.676 8 124793634.460 8      3393.832 8        48.852                  
  23014562.338 8 120942342.417 8     -2828.535 8        49.938                  
  21775100.915 8 114428925.669 8      1778.950 8        52.593                  
  23488687.450 8 123433882.940 8     -3666.765 8        50.791                  
  20485964.519 9 107654449.219 9     -1384.804 9        56.584                  
  21317491.390 9 112024182.271 9      -813.302 9        57.857                  
  24970700.042 8 131221908.639 8     -1914.161 8        48.169                  
  20441607.314 9 107421353.601 9       857.247 9        58.681                  
 02  5 18 00 01  9.0000000  0  8G01G23G21G16G27G10G07G08                        
  23746792.532 8 124790241.346 8      3391.566 8        48.037                  
  23015099.284 8 120945171.476 8     -2829.936 8        50.439                  
  21774760.510 8 114427145.990 8      1780.310 8        53.922                  
  23489384.413 8 123437551.535 8     -3667.071 8        48.443                  
  20486224.085 9 107655833.763 9     -1385.101 9        55.912                  
  21317645.457 9 112024995.930 9      -813.801 9        55.610                  
  24971064.571 8 131223821.982 8     -1912.750 8        48.035                  
  20441442.580 9 107420497.537 9       855.912 9        57.481                  
 02  5 18 00 01 10.0000000  0  8G01G23G21G16G27G10G07G08                        
  23746148.782 8 124786848.386 8      3397.283 8        49.635                  
  23015639.358 8 120948000.930 8     -2828.596 8        50.126                  
  21774425.162 8 114425366.613 8      1779.838 8        53.375                  
  23490083.896 8 123441220.319 8     -3669.535 8        49.552                  
  20486491.101 9 107657218.785 9     -1385.362 9        56.610                  
  21317800.542 9 112025810.190 9      -814.377 9        54.990                  
  24971429.796 8 131225735.682 8     -1914.137 8        48.428                  
  20441277.524 9 107419641.949 9       855.831 9        56.890                  
 02  5 18 00 01 11.0000000  0  8G01G23G21G16G27G10G07G08                        
  23745502.335 7 124783455.607 7      3393.357 7        47.509                  
  23016176.465 8 120950830.753 8     -2827.733 8        50.592                  
  21774088.474 8 114423587.533 8      1779.040 8        51.796                  
  23490781.950 8 123444889.285 8     -3669.779 8        50.925                  
  20486758.511 9 107658604.283 9     -1386.167 9        56.908                  
  21317955.306 9 112026625.045 9      -815.045 9        56.142                  
  24971791.893 8 131227649.729 8     -1913.683 8        48.153                  
  20441111.824 9 107418786.837 9       854.972 9        57.305                  
 02  5 18 00 01 12.0000000  0  8G01G23G21G16G27G10G07G08                        
  23744856.012 8 124780062.970 8      3389.702 8        50.025                  
  23016715.680 8 120953660.963 8     -2829.893 8        50.661                  
  21773745.246 8 114421808.764 8      1779.370 8        53.133                  
  23491479.556 8 123448558.453 8     -3669.286 8        51.392                  
  20487019.739 9 107659990.257 9     -1387.173 9        56.163                  
  21318109.712 9 112027440.512 9      -816.643 9        57.082                  
  24972158.816 7 131229564.130 7     -1918.370 7        47.876                  
  20440946.553 9 107417932.178 9       854.466 9        57.354                  
 02  5 18 00 01 13.0000000  0  8G01G23G21G16G27G10G07G08                        
  23744211.280 8 124776670.498 8      3391.686 8        48.962                  
  23017255.182 8 120956491.562 8     -2828.596 8        50.194                  
  21773406.431 8 114420030.306 8      1778.208 8        52.765                  
  23492178.521 8 123452227.799 8     -3669.357 8        50.379                  
  20487279.340 9 107661376.709 9     -1386.747 9        57.341                  
  21318266.030 9 112028256.622 9      -816.418 9        56.972                  
  24972519.091 7 131231478.871 7     -1913.254 7        46.499                  
  20440784.392 9 107417077.995 9       854.140 9        56.038                  
 02  5 18 00 01 14.0000000  0  8G01G23G21G16G27G10G07G08                        
  23743565.886 8 124773278.195 8      3392.242 8        48.578                  
  23017792.325 8 120959322.566 8     -2830.556 8        50.851                  
  21773072.727 8 114418252.155 8      1778.650 8        51.982                  
  23492876.324 8 123455897.345 8     -3670.739 8        49.964                  
  20487545.159 9 107662763.637 9     -1387.796 9        57.219                  
  21318421.116 9 112029073.323 9      -816.895 9        54.918                  
  24972887.461 7 131233393.973 7     -1916.047 7        46.561                  
  20440624.053 9 107416224.288 9       854.212 9        54.647                  
 02  5 18 00 01 15.0000000  0  8G01G23G21G16G27G10G07G08                        
  23742918.903 8 124769886.048 8      3390.706 8        48.731                  
  23018333.792 8 120962153.968 8     -2830.891 8        50.294                  
  21772733.502 8 114416474.292 8      1778.176 8        52.862                  
  23493574.020 8 123459567.087 8     -3670.025 8        49.050                  
  20487813.623 9 107664151.043 9     -1387.742 9        56.362                  
  21318576.272 9 112029890.623 9      -817.237 9        55.317                  
  24973249.648 7 131235309.428 7     -1916.197 7        46.912                  
  20440463.804 9 107415371.060 9       853.170 9        55.704                  
 02  5 18 00 01 16.0000000  0  8G01G23G21G16G27G10G07G08                        
  23742273.760 8 124766494.054 8      3395.011 8        48.233                  
  23018869.898 8 120964985.752 8     -2831.757 8        50.714                  
  21772392.328 8 114414696.739 8      1778.240 8        52.845                  
  23494274.021 8 123463237.002 8     -3672.109 8        49.588                  
  20488077.120 9 107665538.925 9     -1388.466 9        57.732                  
  21318731.340 9 112030708.530 9      -818.497 9        55.983                  
  24973615.838 7 131237225.230 7     -1915.954 7        46.177                  
  20440303.805 9 107414518.308 9       853.042 9        56.602                  
 02  5 18 00 01 17.0000000  0  8G01G23G21G16G27G10G07G08                        
  23741629.706 7 124763102.242 7      3388.855 7        46.907                  
  23019409.221 8 120967817.905 8     -2834.135 8        50.229                  
  21772053.835 9 114412919.472 9      1777.480 9        54.426                  
  23494971.271 8 123466907.122 8     -3670.723 8        50.231                  
  20488336.006 9 107666927.284 9     -1388.247 9        58.255                  
  21318887.962 9 112031527.079 9      -819.286 9        56.138                  
  24973980.706 8 131239141.390 8     -1916.997 8        48.104                  
  20440143.234 9 107413666.011 9       852.032 9        57.655                  
 02  5 18 00 01 18.0000000  0  8G01G23G21G16G27G10G07G08                        
  23740983.991 7 124759710.572 7      3392.884 7        47.709                  
  23019949.062 8 120970650.452 8     -2830.504 8        49.604                  
  21771719.327 8 114411142.520 8      1775.606 8        53.201                  
  23495669.556 8 123470577.423 8     -3672.591 8        49.382                  
  20488600.486 9 107668316.120 9     -1389.139 9        57.011                  
  21319043.744 9 112032346.227 9      -820.208 9        55.381                  
  24974342.553 7 131241057.890 7     -1914.806 7        47.696                  
  20439983.771 9 107412814.189 9       851.011 9        57.419                  
 02  5 18 00 01 19.0000000  0  8G01G23G21G16G27G10G07G08                        
  23740337.061 7 124756319.069 7      3392.523 7        47.757                  
  23020485.812 8 120973483.406 8     -2832.143 8        50.273                  
  21771381.478 8 114409365.842 8      1774.924 8        52.679                  
  23496368.521 8 123474247.919 8     -3669.740 8        50.736                  
  20488870.076 9 107669705.433 9     -1388.938 9        57.249                  
  21319200.920 9 112033165.969 9      -819.821 9        54.670                  
  24974711.138 8 131242974.739 8     -1916.122 8        48.138                  
  20439822.199 9 107411962.844 9       850.782 9        56.584                  
 02  5 18 00 01 20.0000000  0  8G01G23G21G16G27G10G07G08                        
  23739693.794 7 124752928.000 7      3389.391 7        47.308                  
  23021027.243 8 120976316.624 8     -2831.754 8        50.787                  
  21771039.572 8 114407589.704 8      1774.723 8        50.991                  
  23497066.825 8 123477918.477 8     -3672.008 8        50.058                  
  20489135.556 9 107671095.098 9     -1389.544 9        55.503                  
  21319357.971 8 112033986.145 8      -819.452 8        53.406                  
  24975072.414 7 131244892.304 7     -1918.559 7        47.195                  
  20439658.572 9 107411112.080 9       849.463 9        56.526                  
 02  5 18 00 01 21.0000000  0  8G01G23G21G16G27G10G07G08                        
  23739059.194 6 124749548.806 6      3374.060 6        41.410                  
  23021566.048 7 120979144.678 7     -2823.613 7        47.295                  
  21770703.491 8 114405823.227 8      1760.093 8        48.497                  
  23497763.770 8 123481583.936 8     -3661.319 8        52.441                  
  20489393.352 9 107672479.986 9     -1381.080 9        58.139                  
  21319513.538 8 112034800.147 8      -809.453 8        53.082                  
  24975445.823 6 131246825.371 6     -1941.559 6        41.002                  
  20439495.964 9 107410266.168 9       842.010 9        58.529                  
 02  5 18 00 01 22.0000000  0  8G01G23G21G16G27G10G07G08                        
  23738420.037 7 124746188.734 7      3344.196 7        43.357                  
  23022105.692 8 120981964.071 8     -2808.571 8        48.470                  
  21770374.433 8 114404072.761 8      1742.627 8        53.394                  
  23498461.377 7 123485241.140 7     -3653.852 7        47.556                  
  20489653.775 9 107673856.565 9     -1372.923 9        56.968                  
  21319666.515 8 112035603.123 8      -798.560 8        50.479                  
  24975813.246 7 131248783.279 7     -1968.642 7        46.151                  
  20439334.321 9 107409428.047 9       833.819 9        57.723                  
 02  5 18 00 01 23.0000000  0  8G01G23G21G16G27G10G07G08                        
  23737774.983 7 124742847.798 7      3331.585 7        47.045                  
  23022636.581 8 120984774.905 8     -2807.033 8        48.421                  
  21770044.982 8 114402338.180 8      1727.742 8        51.437                  
  23499154.516 8 123488889.697 8     -3642.760 8        48.834                  
  20489920.024 9 107675224.806 9     -1363.440 9        54.350                  
  21319817.169 8 112036395.352 8      -787.039 8        51.019                  
  24976193.320 7 131250766.661 7     -1996.697 7        46.448                  
  20439174.125 9 107408597.732 9       826.049 9        57.626                  
 02  5 18 00 01 24.0000000  0  8G01G23G21G16G27G10G07G08                        
  23737142.705 7 124739521.469 7      3328.503 7        46.728                  
  23023170.454 8 120987579.228 8     -2803.732 8        50.006                  
  21769714.030 8 114400615.344 8      1721.971 8        53.209                  
  23499845.726 8 123492532.422 8     -3643.517 8        50.303                  
  20490180.018 8 107676587.070 8     -1362.223 8        53.575                  
  21319966.500 8 112037179.823 8      -784.130 8        52.901                  
  24976570.124 7 131252768.647 7     -2004.501 7        43.727                  
  20439017.521 9 107407773.269 9       823.387 9        54.226                  
 02  5 18 00 01 25.0000000  0  8G01G23G21G16G27G10G07G08                        
  23736509.320 8 124736195.284 8      3329.711 8        48.572                  
  23023704.505 7 120990382.949 7     -2805.456 7        46.919                  
  21769382.416 8 114398892.649 8      1725.653 8        50.802                  
  23500542.117 7 123496176.839 7     -3660.234 7        45.920                  
  20490433.526 8 107677950.103 8     -1372.837 8        53.206                  
  21320115.349 8 112037965.051 8      -786.362 8        48.938                  
  24976954.897 7 131254770.313 7     -1999.660 7        45.504                  
  20438857.897 9 107406949.208 9       825.488 9        55.618                  
 02  5 18 00 01 26.0000000  0  8G01G23G21G16G27G10G07G08                        
  23735875.684 6 124732855.800 6      3345.387 6        41.208                  
  23024237.878 8 120993191.657 8     -2810.888 8        50.631                  
  21769054.824 7 114397159.267 7      1734.260 7        42.723                  
  23501235.864 6 123499831.434 6     -3652.862 6        39.588                  
  20490695.361 7 107679320.822 7     -1379.146 7        44.830                  
  21320266.146 7 112038758.627 7      -802.048 7        45.806                  
  24977328.360 6 131256753.050 6     -1977.162 6        37.633                  
  20438698.773 7 107406119.165 7       829.509 7        46.886                  
 02  5 18 00 01 27.0000000  0  8G01G23G21G16G27G10G07G08                        
  23735233.329 7 124729509.927 7      3345.922 7        43.996                  
  23024771.054 7 120996000.609 7     -2809.880 7        44.136                  
  21768728.964 8 114395419.403 8      1739.815 8        48.967                  
  23501933.096 6 123503496.570 6     -3666.976 6        36.573                  
  20490962.342 7 107680697.418 7     -1375.678 7        45.079                  
  21320420.087 7 112039556.926 7      -800.355 7        47.131                  
  24977707.987 6 131258723.544 6     -1970.455 6        39.909                  
  20438539.149 7 107405285.390 7       836.457 7        46.638                  
 02  5 18 00 01 28.0000000  0  8G01G23G21G16G27G10G07G08                        
  23734599.925 6 124726166.368 6      3345.964 6        36.982                  
  23025304.140 6 120998805.224 6     -2792.553 6        36.953                  
  21768397.655 6 114393681.118 6      1736.718 6        41.223                  
  23502633.883 5 123507168.186 5     -3669.084 5        35.979                  
  20491224.963 8 107682075.296 8     -1379.870 8        51.537                  
  21320570.491 6 112040354.741 6      -793.574 6        41.784                  
  24978081.146 6 131260694.015 6     -1965.398 6        40.785                  
  20438383.975 8 107404451.416 8       831.827 8        51.110                  
 02  5 18 00 01 29.0000000  0  8G01G23G21G16G27G10G07G08                        
  23733962.001 5 124722820.037 5      3358.803 5        35.213                  
  23025836.208 5 121001608.886 5     -2793.153 5        35.203                  
  21768063.218 6 114391939.636 6      1750.878 6        37.330                  
  23503330.650 5 123510847.567 5     -3678.306 5        35.708                  
  20491480.311 8 107683457.173 8     -1386.313 8        51.540                  
  21320724.951 6 112041155.017 6      -804.869 6        37.980                  
  24978458.629 6 131262657.092 6     -1944.248 6        36.631                  
  20438225.280 8 107403615.153 8       838.384 8        50.588                  
 02  5 18 00 01 30.0000000  0  8G01G23G21G16G27G10G07G08                        
  23733318.859 5 124719454.227 5      3379.208 5        35.548                  
  23026373.298 5 121004424.104 5     -2827.073 5        34.901                  
  21767726.333 6 114390183.126 6      1760.651 6        39.264                  
  23504033.224 5 123514531.739 5     -3680.370 5        34.948                  
  20491746.006 8 107684847.026 8     -1390.503 8        48.176                  
  21320878.946 6 112041967.503 6      -817.397 6        39.196                  
  24978822.371 7 131264597.208 7     -1933.882 7        42.275                  
  20438066.103 8 107402773.066 8       852.485 8        49.460                  
 02  5 18 00 01 31.0000000  0  8G01G23G21G16G27G10G07G08                        
  23732682.061 5 124716091.010 5      3341.928 5        34.931                  
  23026911.280 5 121007231.050 5     -2804.053 5        34.984                  
  21767393.952 6 114388426.981 6      1752.811 6        37.107                  
  23504736.799 5 123518230.975 5     -3701.806 5        35.241                  
  20492016.239 7 107686241.060 7     -1393.870 7        43.519                  
  21321032.280 6 112042779.434 6      -805.046 6        36.821                  
  24979193.064 7 131266533.378 7     -1931.925 7        43.649                  
  20437906.622 7 107401928.435 7       848.988 7        45.206                  
 02  5 18 00 01 32.0000000  0  8G01G23G21G16G27G10G07G08                        
  23732045.263 5 124712731.615 5      3368.465 5        34.971                  
  23027443.598 5 121010026.081 5     -2801.151 5        35.395                  
  21767065.376 6 114386671.457 6      1754.766 6        39.044                  
  23505440.695 5 123521951.027 5     -3734.720 5        35.435                  
  20492284.096 6 107687640.408 6     -1398.292 6        39.443                  
  21321186.204 6 112043590.031 6      -809.539 6        37.432                  
  24979559.254 6 131268465.858 6     -1913.403 6        40.410                  
  20437748.213 6 107401080.777 6       843.477 6        41.674                  
 02  5 18 00 01 33.0000000  0  6G01G21G27G10G07G08                              
  23731402.996 6 124709359.595 6      3372.563 6        39.749                  
  21766723.738 7 114384907.134 7      1772.396 7        47.990                  
  20492545.841 6 107689042.954 6     -1404.123 6        37.925                  
  21321347.007 7 112044408.768 7      -825.349 7        44.351                  
  24979927.963 6 131270385.162 6     -1925.743 6        36.135                  
  20437589.375 6 107400230.991 6       844.030 6        40.002                  
 02  5 18 00 01 34.0000000  0  6G01G21G27G10G07G08                              
  23730760.123 7 124705973.686 7      3397.654 7        43.319                  
  21766385.567 7 114383133.694 7      1781.843 7        42.044                  
  20492811.107 6 107690447.076 6     -1410.981 6        37.110                  
  21321498.626 7 112045236.177 7      -836.467 7        47.251                  
  24980288.935 5 131272295.724 5     -1905.400 5        34.694                  
  20437428.983 6 107399380.691 6       847.172 6        38.757                  
 02  5 18 00 01 35.0000000  0  6G01G21G27G10G07G08                              
  23730109.279 6 124702577.185 6      3415.519 6        37.730                  
  21766046.002 6 114381350.788 6      1795.417 6        36.803                  
  20493084.431 5 107691859.243 5     -1424.782 5        35.922                  
  21321658.321 6 112046070.718 6      -840.921 6        41.288                  
  24980648.996 5 131274188.323 5     -1866.887 5        34.601                  
  20437264.338 6 107398524.677 6       859.549 6        36.819                  
 02  5 18 00 01 36.0000000  0  6G01G21G27G10G07G08                              
  23729462.260 5 124699168.819 5      3433.337 5        35.121                  
  21765711.762 5 114379557.179 5      1803.421 5        35.012                  
  20493356.040 5 107693280.475 5     -1425.315 5        35.176                  
  21321819.536 6 112046913.059 6      -849.076 6        36.785                  
  24981007.449 5 131276060.404 5     -1876.525 5        34.757                  
  20437097.566 5 107397662.124 5       859.345 5        35.567                  
 02  5 18 00 01 37.0000000  0  6G01G21G27G10G07G08                              
  23728813.793 5 124695756.165 5      3420.089 5        34.610                  
  21765363.906 5 114377759.927 5      1802.647 5        34.604                  
  20493626.488 5 107694705.276 5     -1421.842 5        35.179                  
  21321978.838 5 112047758.718 5      -842.751 5        35.358                  
  24981364.365 5 131277925.601 5     -1852.409 5        35.141                  
  20436930.955 5 107396797.695 5       864.856 5        35.386                  
 02  5 18 00 01 38.0000000  0  5G01G21G27G10G08                                 
  23728168.006 5 124692344.641 5      3402.212 5        34.597                  
  21765019.998 5 114375963.634 5      1785.317 5        34.775                  
  20493895.328 5 107696130.313 5     -1437.957 5        35.335                  
  21322139.516 5 112048604.498 5      -854.081 5        34.953                  
  20436763.201 5 107395933.919 5       864.965 5        35.575                  
 02  5 18 00 01 39.0000000  0  4G21G27G10G08                                    
  21764685.830 5 114374169.173 5      1781.812 5        34.936                  
  20494164.649 5 107697555.454 5     -1436.414 5        35.547                  
  21322298.676 5 112049449.553 5      -838.091 5        34.855                  
  20436599.056 5 107395071.044 5       856.167 5        35.786                  
 02  5 18 00 01 40.0000000  0  4G21G27G10G08                                    
  21764345.032 5 114372375.477 5      1793.557 5        35.023                  
  20494437.563 5 107698981.030 5     -1433.966 5        35.829                  
  21322459.944 5 112050294.770 5      -838.847 5        34.806                  
  20436434.822 6 107394208.664 6       858.248 6        36.072                  
 02  5 18 00 02  1.0000000  0  7G01G23G21G16G27G10G08                           
  23713340.559 6 124614448.245 6      3307.402 6        37.541                  
  23042996.117 6 121091761.458 6     -2776.719 6        38.743                  
  21757255.211 6 114335144.963 6      1709.272 6        38.622                  
  23526042.339 8 123630180.658 8     -3730.648 8        48.230                  
  20500118.054 7 107728817.859 7     -1398.384 7        46.421                  
  21325810.207 5 112067891.551 5      -799.617 5        35.984                  
  20433047.105 7 107376386.884 7       822.041 7        44.421                  
 02  5 18 00 02  2.0000000  0  7G01G23G21G16G27G10G08                           
  23712713.553 6 124611139.244 6      3300.566 6        36.446                  
  23043523.896 6 121094532.952 6     -2771.959 6        40.103                  
  21756928.386 6 114333432.162 6      1707.956 6        37.889                  
  23526752.257 8 123633913.474 8     -3731.524 8        49.133                  
  20500384.249 7 107730218.611 7     -1403.154 7        44.906                  
  21325966.418 5 112068692.940 5      -799.212 5        35.773                  
  20432892.878 7 107375564.601 7       823.176 7        43.249                  
 02  5 18 00 02  3.0000000  0  7G01G23G21G16G27G10G08                           
  23712081.186 5 124607827.426 5      3305.119 5        35.705                  
  23044049.353 6 121097304.957 6     -2770.425 6        41.587                  
  21756604.225 6 114331716.910 6      1716.742 6        37.142                  
  23527462.622 8 123637650.534 8     -3739.899 8        49.341                  
  20500649.783 7 107731622.011 7     -1404.512 7        43.860                  
  21326119.770 5 112069496.733 5      -793.830 5        35.395                  
  20432731.109 7 107374741.072 7       823.155 7        42.537                  
 02  5 18 00 02  4.0000000  0  7G01G23G21G16G27G10G08                           
  23711447.497 5 124604512.953 5      3314.438 5        35.004                  
  23044579.062 7 121100077.701 7     -2772.193 7        44.232                  
  21756281.313 6 114329999.438 6      1719.054 6        36.551                  
  23528174.899 8 123641391.057 8     -3740.213 8        48.495                  
  20500913.208 7 107733027.790 7     -1405.283 7        43.212                  
  21326273.104 5 112070302.780 5      -810.494 5        35.021                  
  20432576.149 6 107373916.507 6       826.032 6        41.956                  
 02  5 18 00 02  5.0000000  0  7G01G23G21G16G27G10G08                           
  23710816.953 5 124601199.931 5      3318.983 5        34.494                  
  23045105.627 7 121102850.616 7     -2776.807 7        45.971                  
  21755953.524 5 114328283.394 5      1715.742 5        35.822                  
  23528886.694 8 123645130.310 8     -3737.391 8        48.369                  
  20501183.012 6 107734433.204 6     -1406.733 6        41.934                  
  21326426.581 5 112071108.656 5      -791.334 5        34.696                  
  20432416.704 6 107373093.114 6       820.295 6        40.701                  
 02  5 18 00 02  6.0000000  0  6G01G23G21G16G27G08                              
  23710191.430 5 124597888.852 5      3300.327 5        34.897                  
  23045633.460 7 121105623.678 7     -2773.054 7        46.949                  
  21755624.162 5 114326569.250 5      1715.334 5        35.406                  
  23529597.577 7 123648867.638 7     -3738.846 7        47.711                  
  20501454.407 6 107735837.865 6     -1403.802 6        40.992                  
  20432260.529 6 107372271.133 6       822.467 6        39.922                  
 02  5 18 00 02  7.0000000  0  6G01G23G21G16G27G08                              
  23709555.418 5 124594578.179 5      3314.777 5        35.765                  
  23046160.024 7 121108397.086 7     -2774.455 7        47.268                  
  21755295.622 5 114324855.590 5      1721.463 5        35.034                  
  23530308.139 7 123652604.852 7     -3739.676 7        47.484                  
  20501721.209 6 107737242.817 6     -1405.959 6        40.219                  
  20432101.423 6 107371449.793 6       819.165 6        39.568                  
 02  5 18 00 02  8.0000000  0  6G01G23G21G16G27G08                              
  23708923.944 6 124591266.017 6      3311.715 6        36.084                  
  23046691.574 7 121111172.122 7     -2775.257 7        45.344                  
  21754967.744 5 114323141.037 5      1726.162 5        34.824                  
  23531019.344 7 123656342.067 7     -3735.203 7        46.473                  
  20501983.812 6 107738648.780 6     -1410.991 6        39.678                  
  20431946.731 6 107370628.499 6       822.466 6        39.135                  
 02  5 18 00 02  9.0000000  0  6G01G23G21G16G27G08                              
  23708290.916 6 124587936.086 6      3335.367 6        37.117                  
  23047221.319 8 121113964.738 8     -2804.496 8        49.268                  
  21754643.314 5 114321414.327 5      1725.840 5        34.887                  
  23531730.567 7 123660069.325 7     -3724.454 7        46.113                  
  20502251.669 6 107740058.213 6     -1406.790 6        39.840                  
  20431792.039 6 107369805.025 6       823.367 6        39.415                  
 02  5 18 00 02 10.0000000  0  5G01G23G16G27G08                                 
  23707656.923 6 124584582.023 6      3353.071 6        37.956                  
  23047757.747 8 121116781.091 8     -2825.434 8        48.377                  
  23532435.285 7 123663782.817 7     -3712.155 7        46.640                  
  20502523.296 6 107741472.100 6     -1415.149 6        40.110                  
  20431636.453 6 107368978.545 6       828.561 6        39.853                  
 02  5 18 00 02 11.0000000  0  5G01G23G16G27G08                                 
  23707017.570 6 124581218.733 6      3353.366 6        38.935                  
  23048295.265 7 121119603.074 7     -2816.137 7        47.865                  
  23533142.952 7 123667499.107 7     -3726.452 7        46.087                  
  20502796.799 6 107742890.327 6     -1421.003 6        40.531                  
  20431478.330 6 107368149.411 6       831.290 6        40.297                  
 02  5 18 00 02 12.0000000  0  5G01G23G16G27G08                                 
  23706375.911 6 124577857.369 6      3364.825 6        40.056                  
  23048826.440 7 121122413.646 7     -2807.663 7        47.597                  
  23533855.212 8 123671237.659 8     -3743.603 8        48.664                  
  20503066.300 7 107744314.983 7     -1427.408 7        42.131                  
  20431317.062 6 107367316.344 6       833.660 6        41.545                  
 02  5 18 00 02 13.0000000  0  5G01G23G16G27G08                                 
  23705736.825 6 124574495.963 6      3357.598 6        40.583                  
  23049362.921 8 121125221.375 8     -2809.589 8        48.810                  
  23534568.114 7 123674983.410 7     -3743.089 7        47.249                  
  20503337.248 7 107745742.179 7     -1425.156 7        42.357                  
  20431167.212 7 107366481.995 7       832.895 7        42.283                  
 02  5 18 00 02 14.0000000  0  5G01G23G16G27G08                                 
  23705100.313 7 124571134.879 7      3354.846 7        42.064                  
  23049896.615 8 121128034.777 8     -2814.469 8        48.424                  
  23535277.943 8 123678718.009 8     -3732.390 8        49.366                  
  20503605.033 7 107747166.505 7     -1423.433 7        43.431                  
  20431003.354 7 107365650.913 7       826.632 7        43.155                  
 02  5 18 00 02 15.0000000  0  5G01G23G16G27G08                                 
  23704461.066 7 124567784.561 7      3341.306 7        43.394                  
  23050433.294 8 121130838.942 8     -2797.573 8        48.446                  
  23535989.809 8 123682457.676 8     -3749.228 8        49.377                  
  20503878.429 7 107748589.289 7     -1421.102 7        43.155                  
  20430849.787 7 107364822.007 7       824.670 7        42.857                  
 02  5 18 00 02 16.0000000  0  5G01G23G16G27G08                                 
  23703825.537 7 124564447.883 7      3335.854 7        42.625                  
  23050961.645 7 121133626.668 7     -2787.422 7        46.827                  
  23536705.285 8 123686213.219 8     -3759.031 8        48.115                  
  20504148.108 7 107750012.627 7     -1428.469 7        43.006                  
  20430692.575 7 107363993.765 7       825.061 7        42.521                  
 02  5 18 00 02 17.0000000  0  5G01G23G16G27G08                                 
  23703189.703 7 124561113.383 7      3334.871 7        44.482                  
  23051492.248 7 121136412.949 7     -2784.182 7        47.703                  
  23537420.225 7 123689969.937 7     -3757.465 7        47.877                  
  20504421.880 7 107751436.109 7     -1421.657 7        43.011                  
  20430538.187 7 107363166.327 7       822.467 7        42.847                  
 02  5 18 00 02 19.0000000  0  6G01G23G16G27G30G08                              
  23701923.201 7 124554446.525 7      3337.325 7        45.599                  
  23052551.863 8 121141985.632 8     -2786.687 8        49.843                  
  23538847.030 8 123697483.336 8     -3756.006 8        48.439                  
  20504955.199 6 107754283.696 6     -1427.103 6        40.773                  
  25185574.954 7 132351131.275 7      -973.406 7        45.619                  
  20430221.905 6 107361513.560 6       822.165 6        40.786                  
 02  5 18 00 02 20.0000000  0  6G01G23G16G27G30G08                              
  23701288.689 7 124551113.154 7      3332.769 7        45.930                  
  23053083.431 8 121144772.632 8     -2785.587 8        49.817                  
  23539563.882 8 123701240.394 8     -3757.287 8        48.272                  
  20505230.328 6 107755708.278 6     -1427.418 6        40.835                  
  25185760.077 7 132352104.811 7      -973.380 7        46.637                  
  20430066.320 6 107360687.817 6       822.656 6        41.090                  
 02  5 18 00 02 21.0000000  0  6G01G23G16G27G30G08                              
  23700652.695 7 124547778.677 7      3333.652 7        46.176                  
  23053611.889 8 121147560.666 8     -2786.594 8        48.542                  
  23540279.858 8 123704998.077 8     -3759.277 8        48.471                  
  20505502.902 6 107757133.973 6     -1427.576 6        41.315                  
  25185952.134 7 132353077.356 7      -971.410 7        46.374                  
  20429905.123 6 107359862.228 6       827.268 6        41.235                  
 02  5 18 00 02 22.0000000  0  6G01G23G16G27G30G08                              
  23700017.809 7 124544443.787 7      3332.710 7        46.784                  
  23054144.332 7 121150349.359 7     -2792.523 7        47.284                  
  23540997.121 7 123708756.112 7     -3755.085 7        47.965                  
  20505775.440 6 107758560.309 6     -1429.605 6        41.886                  
  25186137.310 7 132354049.768 7      -972.802 7        45.820                  
  20429750.932 7 107359036.771 7       829.484 7        42.432                  
 02  5 18 00 02 23.0000000  0  6G01G23G16G27G30G08                              
  23699386.693 7 124541109.348 7      3331.597 7        47.023                  
  23054674.167 8 121153138.272 8     -2790.913 8        49.450                  
  23541705.270 8 123712514.261 8     -3758.573 8        48.104                  
  20506044.208 7 107759987.024 7     -1428.881 7        42.300                  
  25186319.110 7 132355023.089 7      -973.779 7        46.612                  
  20429585.071 7 107358212.026 7       820.848 7        42.561                  
 02  5 18 00 02 24.0000000  0  6G01G23G16G27G30G08                              
  23698751.824 7 124537775.504 7      3335.742 7        45.614                  
  23055207.236 8 121155927.310 8     -2790.162 8        49.300                  
  23542420.871 7 123716272.466 7     -3758.513 7        46.648                  
  20506314.638 7 107761414.038 7     -1427.738 7        42.610                  
  25186500.123 7 132355997.480 7      -971.210 7        45.022                  
  20429430.361 7 107357387.805 7       821.137 7        43.153                  
 02  5 18 00 02 25.0000000  0  7G01G23G16G27G10G30G08                           
  23698114.097 7 124534441.054 7      3334.595 7        46.245                  
  23055735.891 8 121158717.156 8     -2791.828 8        48.738                  
  23543138.330 8 123720031.079 8     -3758.692 8        49.020                  
  20506592.376 7 107762841.887 7     -1426.994 7        43.962                  
  21329576.586 7 112087676.697 7      -834.900 7        45.792                  
  25186687.837 7 132356971.534 7      -974.141 7        44.465                  
  20429267.342 7 107356563.945 7       822.098 7        44.295                  
 02  5 18 00 02 26.0000000  0  7G01G23G16G27G10G30G08                           
  23697480.443 7 124531105.002 7      3338.134 7        46.195                  
  23056268.548 8 121161508.295 8     -2789.726 8        48.292                  
  23543854.359 8 123723790.436 8     -3760.475 8        49.226                  
  20506862.341 7 107764270.992 7     -1431.290 7        45.862                  
  21329740.320 7 112088510.534 7      -834.465 7        47.956                  
  25186876.999 7 132357944.033 7      -972.337 7        42.965                  
  20429111.900 7 107355739.885 7       824.481 7        45.731                  
 02  5 18 00 02 29.0000000  0  7G01G23G16G27G10G30G08                           
  23695576.213 7 124521096.556 7      3343.244 7        46.452                  
  23057861.786 7 121169886.542 7     -2801.257 7        47.998                  
  23546001.198 7 123735065.900 7     -3749.519 7        47.697                  
  20507680.618 8 107768560.555 8     -1427.533 8        51.643                  
  21330216.315 8 112091016.050 8      -839.698 8        48.883                  
  25187433.476 7 132360867.090 7      -983.446 7        46.213                  
  20428658.545 9 107353271.157 9       820.484 9        54.316                  
 02  5 18 00 02 35.0000000  0  8G01G23G21G16G27G10G30G08                        
  23691742.092 7 124500947.483 7      3371.251 7        46.745                  
  23061095.096 8 121186888.984 8     -2852.875 8        49.775                  
  21746045.151 8 114276235.525 8      1745.955 8        48.560                  
  23550232.832 8 123757326.542 8     -3682.672 8        48.184                  
  20509294.869 8 107777110.781 8     -1423.863 8        50.964                  
  21331172.254 8 112096123.149 8      -857.072 8        50.080                  
  25188573.627 7 132366868.072 7     -1014.906 7        46.282                  
  20427696.905 8 107348374.723 8       810.898 8        49.910                  
 02  5 18 00 02 36.0000000  0  8G01G23G21G16G27G10G30G08                        
  23691102.310 7 124497585.043 7      3354.150 7        46.181                  
  23061640.977 8 121189743.066 8     -2853.940 8        50.363                  
  21745711.018 7 114274495.272 7      1738.825 7        47.347                  
  23550937.479 8 123761004.693 8     -3667.060 8        48.406                  
  20509566.425 7 107778529.495 7     -1413.579 7        46.651                  
  21331348.996 8 112096979.254 8      -853.140 8        49.761                  
  25188763.020 7 132367894.784 7     -1039.645 7        46.711                  
  20427560.011 7 107347566.100 7       806.420 7        47.068                  
 02  5 18 00 02 37.0000000  0  8G01G23G21G16G27G10G30G08                        
  23690467.066 8 124494229.027 8      3355.557 8        50.524                  
  23062183.016 8 121192603.721 8     -2863.704 8        50.385                  
  21745383.515 8 114272762.688 8      1728.885 8        53.100                  
  23551631.745 8 123764661.113 8     -3645.437 8        49.409                  
  20509847.505 8 107779939.969 8     -1406.954 8        52.460                  
  21331508.995 8 112097832.228 8      -852.475 8        53.259                  
  25188972.803 7 132368947.277 7     -1062.608 7        47.084                  
  20427410.769 9 107346764.463 9       798.774 9        55.184                  
 02  5 18 00 02 38.0000000  0  8G01G23G21G16G27G10G30G08                        
  23689825.890 8 124490879.239 8      3341.829 8        48.430                  
  23062730.809 8 121195470.456 8     -2868.989 8        51.161                  
  21745056.547 8 114271037.374 8      1719.948 8        52.401                  
  23552323.544 8 123768297.224 8     -3627.479 8        49.841                  
  20510114.396 9 107781342.862 9     -1399.654 9        55.701                  
  21331671.389 8 112098682.223 8      -847.841 8        53.823                  
  25189171.345 7 132370024.037 7     -1089.341 7        47.494                  
  20427260.240 9 107345969.455 9       791.452 9        55.607                  
 02  5 18 00 02 39.0000000  0  8G01G23G21G16G27G10G30G08                        
  23689189.234 8 124487534.875 8      3345.293 8        48.315                  
  23063276.815 8 121198338.531 8     -2869.024 8        49.184                  
  21744732.421 8 114269317.497 8      1719.130 8        52.606                  
  23553014.986 8 123771923.934 8     -3625.666 8        51.813                  
  20510375.016 9 107782741.595 9     -1398.879 9        58.007                  
  21331833.229 8 112099529.697 8      -847.460 8        53.674                  
  25189378.251 7 132371114.590 7     -1090.224 7        46.583                  
  20427109.390 9 107345178.417 9       791.194 9        55.396                  
 02  5 18 00 02 40.0000000  0  8G01G23G21G16G27G10G30G08                        
  23688553.794 8 124484188.645 8      3345.553 8        50.198                  
  23063822.946 8 121201209.188 8     -2874.184 8        49.902                  
  21744404.792 8 114267596.556 8      1723.206 8        52.751                  
  23553704.301 8 123775549.240 8     -3621.270 8        48.526                  
  20510640.282 9 107784140.982 9     -1400.437 9        57.153                  
  21331993.854 8 112100379.034 8      -852.824 8        52.742                  
  25189592.482 7 132372205.200 7     -1091.480 7        47.383                  
  20426958.861 9 107344387.615 9       792.050 9        54.676                  
 02  5 18 00 02 41.0000000  0  8G01G23G21G16G27G10G30G08                        
  23687914.494 7 124480836.901 7      3351.440 7        47.645                  
  23064370.238 8 121204085.862 8     -2877.889 8        50.237                  
  21744073.519 8 114265872.032 8      1724.052 8        52.276                  
  23554393.724 8 123779171.248 8     -3620.428 8        50.306                  
  20510911.962 9 107785541.714 9     -1400.628 9        55.678                  
  21332157.051 8 112101232.353 8      -853.915 8        51.849                  
  25189790.132 7 132373294.297 7     -1087.706 7        47.134                  
  20426808.493 8 107343596.485 8       790.084 8        53.214                  
 02  5 18 00 02 42.0000000  0  8G01G23G21G16G27G10G30G08                        
  23687275.551 8 124477487.368 8      3350.933 8        48.877                  
  23064917.066 8 121206960.876 8     -2873.115 8        48.751                  
  21743743.513 8 114264149.243 8      1720.472 8        53.734                  
  23555084.254 8 123782794.641 8     -3626.219 8        50.072                  
  20511180.820 9 107786942.554 9     -1400.194 9        57.350                  
  21332318.212 8 112102085.079 8      -851.103 8        52.847                  
  25190006.543 7 132374384.672 7     -1094.437 7        46.917                  
  20426658.268 9 107342806.101 9       789.616 9        54.891                  
 02  5 18 00 02 43.0000000  0  8G01G23G21G16G27G10G30G08                        
  23686641.701 7 124474143.046 7      3345.356 7        47.265                  
  23065462.375 8 121209831.306 8     -2867.327 8        50.673                  
  21743417.958 8 114262430.161 8      1719.139 8        50.869                  
  23555772.301 8 123786421.394 8     -3628.338 8        49.999                  
  20511442.994 9 107788343.096 9     -1399.581 9        57.253                  
  21332478.765 8 112102935.448 8      -850.630 8        53.689                  
  25190211.841 8 132375477.272 8     -1092.856 8        48.581                  
  20426508.204 9 107342016.853 9       788.945 9        55.110                  
 02  5 18 00 02 44.0000000  0  8G01G23G21G16G27G10G30G08                        
  23686006.136 7 124470799.606 7      3338.399 7        45.990                  
  23066010.132 8 121212701.414 8     -2871.614 8        50.700                  
  21743094.332 8 114260711.865 8      1717.094 8        51.311                  
  23556463.689 8 123790048.748 8     -3626.748 8        50.900                  
  20511706.580 9 107789743.996 9     -1400.441 9        56.214                  
  21332639.765 9 112103786.018 9      -850.833 9        54.580                  
  25190414.708 7 132376570.623 7     -1095.247 7        47.126                  
  20426357.354 9 107341228.131 9       788.166 9        57.014                  
 02  5 18 00 02 45.0000000  0  8G01G23G21G16G27G10G30G08                        
  23685368.623 7 124467456.362 7      3343.634 7        46.954                  
  23066554.905 8 121215571.863 8     -2870.653 8        49.982                  
  21742768.955 8 114258993.903 8      1718.107 8        51.882                  
  23557154.166 8 123793676.353 8     -3629.324 8        50.485                  
  20511975.920 9 107791145.337 9     -1402.315 9        57.202                  
  21332801.766 8 112104637.199 8      -850.493 8        53.903                  
  25190631.173 7 132377664.487 7     -1094.973 7        47.100                  
  20426207.772 9 107340439.870 9       788.041 9        59.026                  
 02  5 18 00 02 46.0000000  0  8G01G23G21G16G27G10G30G08                        
  23684732.468 8 124464115.817 8      3342.639 8        48.761                  
  23067098.999 8 121218440.127 8     -2868.561 8        50.272                  
  21742440.022 8 114257277.959 8      1713.469 8        50.750                  
  23557844.804 8 123797305.895 8     -3631.045 8        48.820                  
  20512246.600 9 107792546.822 9     -1401.479 9        56.285                  
  21332963.355 9 112105487.505 9      -851.125 9        54.623                  
  25190831.002 8 132378759.604 8     -1097.869 8        48.130                  
  20426058.637 9 107339652.363 9       787.122 9        54.990                  
 02  5 18 00 02 47.0000000  0  8G01G23G21G16G27G10G30G08                        
  23684098.118 8 124460776.657 8      3341.640 8        48.339                  
  23067647.614 8 121221307.565 8     -2869.194 8        50.220                  
  21742110.052 8 114255563.108 8      1715.441 8        52.994                  
  23558535.710 8 123800936.445 8     -3630.346 8        49.604                  
  20512513.188 9 107793948.603 9     -1402.046 9        54.954                  
  21333124.587 8 112106337.742 8      -849.610 8        53.467                  
  25191045.198 7 132379855.531 7     -1098.242 7        47.194                  
  20425908.395 9 107338865.426 9       787.446 9        54.721                  
 02  5 18 00 02 48.0000000  0  8G01G23G21G16G27G10G30G08                        
  23683461.873 8 124457435.987 8      3341.356 8        48.938                  
  23068193.798 8 121224177.100 8     -2867.971 8        50.035                  
  21741783.746 8 114253847.427 8      1714.714 8        51.746                  
  23559225.311 8 123804565.988 8     -3629.211 8        50.857                  
  20512775.005 8 107795351.040 8     -1401.783 8        52.604                  
  21333287.499 8 112107189.587 8      -851.226 8        51.963                  
  25191253.587 7 132380951.537 7     -1091.918 7        45.926                  
  20425758.974 9 107338078.763 9       786.221 9        55.747                  
 02  5 18 00 02 49.0000000  0  8G01G23G21G16G27G10G30G08                        
  23682826.093 8 124454096.615 8      3336.227 8        48.362                  
  23068738.339 8 121227045.853 8     -2867.606 8        51.130                  
  21741459.888 8 114252132.780 8      1712.839 8        53.068                  
  23559917.610 8 123808196.523 8     -3631.975 8        50.831                  
  20513040.288 9 107796753.789 9     -1402.394 9        54.564                  
  21333451.501 8 112108041.386 8      -850.677 8        53.070                  
  25191457.204 7 132382048.347 7     -1093.876 7        45.437                  
  20425608.999 9 107337292.672 9       786.543 9        55.278                  
 02  5 18 00 02 50.0000000  0  8G01G23G21G16G27G10G30G08                        
  23682190.296 7 124450759.095 7      3342.452 7        47.480                  
  23069285.470 8 121229911.110 8     -2861.422 8        50.197                  
  21741136.494 9 114250419.067 9      1717.020 9        54.079                  
  23560609.052 8 123811832.898 8     -3642.342 8        48.638                  
  20513312.576 9 107798158.138 9     -1407.088 9        55.740                  
  21333614.252 8 112108892.791 8      -853.610 8        52.862                  
  25191674.331 7 132383142.154 7     -1080.623 7        44.985                  
  20425459.167 9 107336506.281 9       789.397 9        56.155                  
 02  5 18 00 02 51.0000000  0  8G01G23G21G16G27G10G30G08                        
  23681554.980 8 124447415.443 8      3347.627 8        49.238                  
  23069827.956 8 121232772.273 8     -2858.553 8        49.607                  
  21740808.241 8 114248698.698 8      1725.210 8        53.870                  
  23561303.836 8 123815487.715 8     -3661.924 8        49.847                  
  20513583.739 9 107799570.506 9     -1417.579 9        56.387                  
  21333777.289 9 112109748.512 9      -857.813 9        54.132                  
  25191869.621 7 132384214.516 7     -1061.155 7        45.260                  
  20425308.960 9 107335714.661 9       794.170 9        56.164                  
 02  5 18 00 02 52.0000000  0  8G01G23G21G16G27G10G30G08                        
  23680917.592 8 124444063.986 8      3357.175 8        48.847                  
  23070372.657 8 121235629.110 8     -2855.962 8        50.328                  
  21740476.341 8 114246970.103 8      1735.264 8        52.934                  
  23562004.498 8 123819163.936 8     -3686.697 8        49.251                  
  20513851.613 9 107800992.375 9     -1426.912 9        55.658                  
  21333941.452 9 112110609.572 9      -864.155 9        55.389                  
  25192070.505 7 132385261.278 7     -1036.060 7        43.765                  
  20425156.699 9 107334916.758 9       800.804 9        57.660                  
 02  5 18 00 02 53.0000000  0  8G01G23G21G16G27G10G30G08                        
  23680278.542 8 124440708.763 8      3351.070 8        49.398                  
  23070915.590 8 121238482.231 8     -2844.189 8        49.688                  
  21740144.657 8 114245237.184 8      1727.575 8        52.756                  
  23562706.590 8 123822854.477 8     -3696.819 8        51.306                  
  20514119.631 9 107802420.234 9     -1427.487 9        58.004                  
  21334105.972 9 112111473.520 9      -860.168 9        55.697                  
  25192273.211 7 132386292.441 7     -1033.793 7        45.733                  
  20425005.598 9 107334115.211 9       800.733 9        57.835                  
 02  5 18 00 02 54.0000000  0  8G01G23G21G16G27G10G30G08                        
  23679643.066 8 124437373.260 8      3326.648 8        48.859                  
  23071453.394 8 121241313.730 8     -2820.442 8        50.467                  
  21739819.083 8 114243517.245 8      1712.109 8        52.682                  
  23563412.202 8 123826562.806 8     -3718.955 8        52.046                  
  20514390.150 9 107803847.242 9     -1427.615 9        56.427                  
  21334266.632 8 112112326.452 8      -847.894 8        52.166                  
  25192465.267 7 132387326.199 7     -1032.449 7        46.708                  
  20424853.461 8 107333315.566 8       799.512 8        53.602                  
 02  5 18 00 02 55.0000000  0  8G01G23G21G16G27G10G30G08                        
  23679013.541 8 124434058.865 8      3305.412 8        50.486                  
  23071988.410 8 121244121.476 8     -2797.338 8        49.975                  
  21739497.905 8 114241811.084 8      1700.169 8        52.797                  
  23564122.853 8 123830291.355 8     -3736.222 8        50.157                  
  20514665.976 9 107805273.640 9     -1425.804 9        57.468                  
  21334425.667 8 112113167.546 8      -834.717 8        52.468                  
  25192658.360 7 132388361.677 7     -1035.793 7        47.047                  
  20424702.057 9 107332517.674 9       795.683 9        54.590                  
 02  5 18 00 02 56.0000000  0  8G01G23G21G16G27G10G30G08                        
  23678386.338 8 124430759.107 8      3298.782 8        48.586                  
  23072518.870 8 121246914.185 8     -2791.459 8        48.952                  
  21739175.816 8 114240114.779 8      1695.257 8        53.753                  
  23564833.933 8 123834031.422 8     -3740.798 8        50.850                  
  20514939.998 9 107806699.026 9     -1425.494 9        57.689                  
  21334583.843 8 112114000.623 8      -831.728 8        51.451                  
  25192865.605 8 132389400.739 8     -1038.076 8        48.004                  
  20424551.171 9 107331721.714 9       795.436 9        56.242                  
 02  5 18 00 02 57.0000000  0  8G01G23G21G16G27G10G30G08                        
  23677758.706 8 124427460.478 8      3298.199 8        49.419                  
  23073052.743 8 121249706.603 8     -2792.203 8        50.122                  
  21738851.815 9 114238419.514 9      1694.806 9        54.950                  
  23565544.512 8 123837771.557 8     -3739.389 8        48.604                  
  20515210.570 9 107808124.495 9     -1425.825 9        54.165                  
  21334741.913 8 112114833.705 8      -833.249 8        52.527                  
  25193059.234 7 132390441.353 7     -1041.592 7        46.919                  
  20424400.088 9 107330926.504 9       794.931 9        56.504                  
 02  5 18 00 02 58.0000000  0  8G01G23G21G16G27G10G30G08                        
  23677129.806 8 124424162.395 8      3300.684 8        48.372                  
  23073581.737 8 121252499.993 8     -2798.483 8        49.296                  
  21738526.474 9 114236725.032 9      1696.358 9        54.132                  
  23566256.557 8 123841510.074 8     -3735.492 8        49.235                  
  20515477.033 8 107809549.786 8     -1426.353 8        53.261                  
  21334900.572 9 112115667.160 9      -834.669 9        54.425                  
  25193252.630 7 132391484.433 7     -1044.953 7        47.793                  
  20424249.381 9 107330132.259 9       794.517 9        56.070                  
 02  5 18 00 02 59.0000000  0  8G01G23G21G16G27G10G30G08                        
  23676499.566 8 124420851.946 8      3319.653 8        48.931                  
  23074117.754 8 121255308.499 8     -2822.027 8        50.090                  
  21738200.936 8 114235022.861 8      1708.510 8        51.285                  
  23566966.118 7 123845236.174 7     -3718.564 7        47.929                  
  20515746.587 8 107810976.017 8     -1425.982 8        51.380                  
  21335060.500 9 112116508.649 9      -847.304 9        54.566                  
  25193460.322 8 132392527.893 8     -1044.265 8        48.029                  
  20424098.388 9 107329337.860 9       794.413 9        57.346                  
 02  5 18 00 03  0.0000000  0  8G01G23G21G16G27G10G30G08                        
  23675866.109 8 124417519.795 8      3342.559 8        49.122                  
  23074656.827 8 121258142.183 8     -2846.780 8        52.018                  
  21737875.827 8 114233306.842 8      1725.263 8        51.668                  
  23567670.765 8 123848942.366 8     -3696.080 8        49.879                  
  20516021.806 8 107812404.099 8     -1429.342 8        52.997                  
  21335222.536 9 112117363.741 9      -862.776 9        54.492                  
  25193655.612 7 132393569.914 7     -1041.914 7        47.708                  
  20423947.448 9 107328542.390 9       796.860 9        55.392                  
 02  5 18 00 03  1.0000000  0  8G01G23G21G16G27G10G30G08                        
  23675229.025 8 124414166.351 8      3357.657 8        48.560                  
  23075200.135 8 121260998.899 8     -2861.854 8        51.540                  
  21737550.074 8 114231576.853 8      1731.377 8        53.482                  
  23568372.357 8 123852632.424 8     -3686.927 8        50.680                  
  20516297.329 9 107813835.035 9     -1430.476 9        55.706                  
  21335388.968 9 112118232.178 9      -870.148 9        54.669                  
  25193846.811 8 132394607.435 8     -1039.784 8        49.319                  
  20423795.651 9 107327745.167 9       796.306 9        57.387                  
 02  5 18 00 03  2.0000000  0  8G01G23G21G16G27G10G30G08                        
  23674590.672 8 124410814.571 8      3346.838 8        49.248                  
  23075748.714 8 121263861.933 8     -2866.524 8        51.328                  
  21737222.517 8 114229850.013 8      1722.573 8        53.679                  
  23569073.108 8 123856308.258 8     -3667.294 8        49.726                  
  20516569.635 9 107815261.586 9     -1422.431 9        57.501                  
  21335554.417 9 112119100.394 9      -866.695 9        55.105                  
  25194055.557 8 132395659.676 8     -1064.555 8        48.630                  
  20423645.158 9 107326951.926 9       790.065 9        58.565                  
 02  5 18 00 03  3.0000000  0  8G01G23G21G16G27G10G30G08                        
  23673952.998 8 124407468.925 8      3340.812 8        48.289                  
  23076289.913 8 121266731.983 8     -2877.732 8        48.566                  
  21736893.138 9 114228130.576 9      1716.021 9        54.801                  
  23569767.534 8 123859962.051 8     -3642.999 8        50.592                  
  20516834.900 9 107816679.928 9     -1414.893 9        57.635                  
  21335721.600 9 112119965.793 9      -864.217 9        56.350                  
  25194257.727 8 132396737.509 8     -1091.556 8        49.357                  
  20423495.398 9 107326165.514 9       783.837 9        58.627                  
 02  5 18 00 03  4.0000000  0  8G01G23G21G16G27G10G30G08                        
  23673318.308 8 124404129.322 8      3341.241 8        48.291                  
  23076837.080 8 121269607.192 8     -2877.296 8        48.778                  
  21736564.276 8 114226418.045 8      1709.500 8        53.185                  
  23570459.226 8 123863597.692 8     -3632.976 8        51.658                  
  20517100.684 9 107818091.287 9     -1410.495 9        57.440                  
  21335886.084 9 112120828.382 9      -861.484 9        56.234                  
  25194462.810 7 132397837.432 7     -1103.969 7        47.184                  
  20423346.727 9 107325385.073 9       778.552 9        57.623                  
 02  5 18 00 03  5.0000000  0  8G01G23G21G16G27G10G30G08                        
  23672684.458 7 124400795.030 7      3329.148 7        47.880                  
  23077385.034 8 121272479.572 8     -2868.333 8        49.795                  
  21736238.774 8 114224709.779 8      1705.740 8        52.504                  
  23571152.312 8 123867232.838 8     -3640.417 8        50.971                  
  20517371.918 9 107819501.162 9     -1409.377 9        57.950                  
  21336049.979 9 112121688.535 9      -857.985 9        56.496                  
  25194680.401 8 132398943.085 8     -1109.161 8        48.023                  
  20423198.129 9 107324606.587 9       778.856 9        56.561                  
 02  5 18 00 03  6.0000000  0  8G01G23G21G16G27G10G30G08                        
  23672051.055 8 124397466.547 8      3327.696 8        48.096                  
  23077930.522 8 121275346.293 8     -2868.011 8        49.309                  
  21735917.167 8 114223005.536 8      1704.256 8        53.268                  
  23571843.468 8 123870872.677 8     -3638.451 8        50.021                  
  20517644.045 9 107820910.933 9     -1410.547 9        57.402                  
  21336211.765 9 112122545.974 9      -857.867 9        55.676                  
  25194880.784 7 132400050.357 7     -1106.577 7        46.293                  
  20423049.941 9 107323829.081 9       777.240 9        57.926                  
 02  5 18 00 03  7.0000000  0  8G01G23G21G16G27G10G30G08                        
  23671415.185 8 124394135.792 8      3333.964 8        49.313                  
  23078477.367 8 121278216.053 8     -2873.242 8        50.137                  
  21735595.078 9 114221299.996 9      1706.554 9        54.270                  
  23572536.714 8 123874510.646 8     -3636.236 8        50.785                  
  20517912.760 9 107822321.368 9     -1410.653 9        57.849                  
  21336373.676 9 112123405.474 9      -860.282 9        54.849                  
  25195100.591 7 132401157.728 7     -1105.690 7        47.033                  
  20422901.628 9 107323051.835 9       777.970 9        56.941                  
 02  5 18 00 03  8.0000000  0  8G01G23G21G16G27G10G30G08                        
  23670781.764 8 124390802.970 8      3333.134 8        48.554                  
  23079022.819 8 121281088.641 8     -2873.965 8        50.151                  
  21735271.238 9 114219593.289 9      1706.555 9        54.058                  
  23573229.103 8 123878146.995 8     -3634.376 8        50.453                  
  20518175.953 9 107823732.473 9     -1412.160 9        55.652                  
  21336537.088 9 112124266.939 9      -862.310 9        56.611                  
  25195309.283 7 132402265.194 7     -1107.631 7        46.875                  
  20422753.190 9 107322274.817 9       778.088 9        55.635                  
 02  5 18 00 03  9.0000000  0  8G01G23G21G16G27G10G30G08                        
  23670148.665 7 124387467.820 7      3337.288 7        47.854                  
  23079569.218 8 121283964.219 8     -2877.845 8        50.314                  
  21734943.502 8 114217885.196 8      1710.659 8        53.264                  
  23573918.526 8 123881781.626 8     -3632.010 8        48.877                  
  20518442.576 9 107825144.316 9     -1411.476 9        55.804                  
  21336701.448 9 112125130.503 9      -865.886 9        55.689                  
  25195515.188 7 132403372.592 7     -1109.633 7        47.083                  
  20422604.931 9 107321498.005 9       776.514 9        55.570                  
 02  5 18 00 03 10.0000000  0  8G01G23G21G16G27G10G30G08                        
  23669513.242 8 124384130.512 8      3336.509 8        48.000                  
  23080118.280 8 121286842.628 8     -2877.066 8        50.155                  
  21734614.766 8 114216175.860 8      1709.297 8        52.408                  
  23574611.951 8 123885414.719 8     -3633.623 8        50.369                  
  20518715.937 9 107826556.910 9     -1413.388 9        56.084                  
  21336865.593 9 112125996.105 9      -866.036 9        55.382                  
  25195733.583 7 132404479.893 7     -1109.751 7        45.787                  
  20422456.528 9 107320721.378 9       776.447 9        55.005                  
 02  5 18 00 03 11.0000000  0  8G01G23G21G16G27G10G30G08                        
  23668876.891 8 124380796.264 8      3333.064 8        49.368                  
  23080665.626 8 121289718.438 8     -2872.613 8        49.409                  
  21734289.925 8 114214468.761 8      1704.314 8        50.997                  
  23575302.339 8 123889050.103 8     -3638.008 8        50.341                  
  20518987.724 9 107827969.600 9     -1413.062 9        56.301                  
  21337030.756 9 112126860.623 9      -863.128 9        55.873                  
  25195935.807 7 132405588.416 7     -1105.979 7        46.071                  
  20422308.466 9 107319945.527 9       775.694 9        56.047                  
 02  5 18 00 03 12.0000000  0  8G01G23G21G16G27G10G30G08                        
  23668243.237 8 124377467.070 8      3327.300 8        48.071                  
  23081210.238 8 121292589.370 8     -2871.745 8        50.346                  
  21733968.247 8 114212765.173 8      1702.605 8        52.468                  
  23575994.388 8 123892689.496 8     -3638.022 8        49.127                  
  20519255.367 9 107829382.241 9     -1412.891 9        55.888                  
  21337195.598 9 112127722.828 9      -862.883 9        55.181                  
  25196155.918 7 132406698.508 7     -1110.507 7        47.334                  
  20422160.617 9 107319170.597 9       774.180 9        57.934                  
 02  5 18 00 03 13.0000000  0  8G01G23G21G16G27G10G30G08                        
  23667610.424 8 124374138.023 8      3333.142 8        48.028                  
  23081757.262 8 121295460.354 8     -2872.925 8        48.536                  
  21733647.194 8 114211061.771 8      1705.967 8        52.858                  
  23576688.796 7 123896329.775 7     -3641.357 7        47.638                  
  20519519.453 9 107830795.568 9     -1415.580 9        55.334                  
  21337362.083 9 112128585.656 9      -864.532 9        55.531                  
  25196362.787 7 132407808.423 7     -1104.875 7        47.122                  
  20422013.073 9 107318395.960 9       775.258 9        57.285                  
 02  5 18 00 03 14.0000000  0  8G01G23G21G16G27G10G30G08                        
  23666975.037 8 124370797.716 8      3350.493 8        48.776                  
  23082304.948 8 121298335.913 8     -2879.131 8        49.304                  
  21733321.388 9 114209349.165 9      1718.187 9        54.897                  
  23577381.328 8 123899977.935 8     -3652.387 8        49.396                  
  20519788.167 9 107832215.539 9     -1423.864 9        57.067                  
  21337527.711 9 112129455.846 9      -874.550 9        54.918                  
  25196568.585 8 132408901.693 8     -1083.683 8        48.703                  
  20421864.545 9 107317617.083 9       780.539 9        55.433                  
 02  5 18 00 03 15.0000000  0  8G01G23G21G16G27G10G30G08                        
  23666337.149 8 124367447.207 8      3348.327 8        49.126                  
  23082852.419 8 121301219.336 8     -2888.254 8        49.445                  
  21732991.454 8 114207629.114 8      1719.431 8        52.602                  
  23578076.487 8 123903625.550 8     -3635.354 8        50.254                  
  20520063.600 9 107833639.250 9     -1421.141 9        56.929                  
  21337694.394 9 112130332.783 9      -876.581 9        56.686                  
  25196782.066 7 132409986.664 7     -1091.215 7        47.881                  
  20421715.607 9 107316836.063 9       779.196 9        58.219                  
 02  5 18 00 03 16.0000000  0  8G01G23G21G16G27G10G30G08                        
  23665699.761 8 124364097.924 8      3348.577 8        48.476                  
  23083401.480 8 121304111.109 8     -2895.605 8        48.715                  
  21732661.485 8 114205912.271 8      1715.730 8        53.122                  
  23578767.643 8 123907255.458 8     -3624.260 8        50.753                  
  20520336.532 9 107835057.689 9     -1417.574 9        56.527                  
  21337861.951 9 112131209.854 9      -877.749 9        55.493                  
  25196982.467 7 132411088.926 7     -1109.995 7        45.519                  
  20421567.777 9 107316059.590 9       775.614 9        58.419                  
 02  5 18 00 03 17.0000000  0  8G01G23G21G16G27G10G30G08                        
  23665064.052 7 124360748.205 7      3354.866 7        47.242                  
  23083955.795 8 121307005.735 8     -2894.009 8        50.107                  
  21732335.500 9 114204195.753 9      1715.904 9        54.331                  
  23579457.673 8 123910881.363 8     -3623.753 8        48.752                  
  20520605.032 9 107836475.528 9     -1418.379 9        57.223                  
  21338025.971 9 112132087.926 9      -878.538 9        57.176                  
  25197201.112 7 132412194.817 7     -1102.853 7        44.687                  
  20421419.857 9 107315284.289 9       775.121 9        59.994                  
 02  5 18 00 03 18.0000000  0  8G01G23G21G16G27G10G30G08                        
  23664426.825 7 124357398.268 7      3346.615 7        47.095                  
  23084504.213 8 121309901.095 8     -2896.664 8        49.669                  
  21732011.910 8 114202479.293 8      1716.639 8        53.722                  
  23580147.989 8 123914507.236 8     -3628.963 8        48.940                  
  20520870.172 9 107837893.905 9     -1418.527 9        55.359                  
  21338192.600 9 112132966.867 9      -880.027 9        55.418                  
  25197409.001 7 132413301.037 7     -1102.788 7        43.983                  
  20421271.901 9 107314509.404 9       773.963 9        55.807                  
 02  5 18 00 03 19.0000000  0  8G01G23G21G16G27G10G30G08                        
  23663787.757 7 124354048.166 7      3351.381 7        46.696                  
  23085057.724 8 121312797.164 8     -2897.506 8        51.194                  
  21731686.944 9 114200762.906 9      1716.762 9        54.340                  
  23580837.019 8 123918133.090 8     -3623.733 8        50.969                  
  20521139.083 9 107839312.793 9     -1419.318 9        57.286                  
  21338360.122 9 112133846.620 9      -880.053 9        54.305                  
  25197617.175 7 132414407.641 7     -1108.690 7        44.461                  
  20421124.053 9 107313734.926 9       774.167 9        57.979                  
 02  5 18 00 03 20.0000000  0  8G01G23G21G16G27G10G30G08                        
  23663148.975 7 124350696.431 7      3352.661 7        47.264                  
  23085608.680 8 121315694.414 8     -2900.498 8        51.041                  
  21731359.494 9 114199045.343 9      1721.112 9        54.053                  
  23581527.478 8 123921760.058 8     -3631.972 8        50.333                  
  20521413.319 9 107840733.033 9     -1423.208 9        55.388                  
  21338527.447 9 112134728.057 9      -884.492 9        54.626                  
  25197833.122 7 132415512.258 7     -1098.916 7        43.740                  
  20420976.330 9 107312960.195 9       776.542 9        56.994                  
 02  5 18 00 03 21.0000000  0  8G01G23G21G16G27G10G30G08                        
  23662511.373 8 124347335.686 8      3367.059 8        48.824                  
  23086159.224 8 121318591.685 8     -2897.283 8        50.871                  
  21731027.273 8 114197319.513 8      1731.845 8        51.978                  
  23582219.724 8 123925400.991 8     -3651.177 8        50.455                  
  20521687.948 9 107842160.994 9     -1432.583 9        55.172                  
  21338698.150 8 112135615.478 8      -890.528 8        53.744                  
  25198031.003 7 132416596.836 7     -1071.514 7        45.564                  
  20420827.481 9 107312180.564 9       781.074 9        54.681                  
 02  5 18 00 03 22.0000000  0  8G01G23G21G16G27G10G30G08                        
  23661869.124 8 124343962.461 8      3377.720 8        48.574                  
  23086706.678 8 121321489.337 8     -2898.898 8        49.682                  
  21730695.642 8 114195582.341 8      1741.582 8        52.654                  
  23582915.954 8 123929060.124 8     -3667.841 8        51.826                  
  20521961.719 9 107843599.158 9     -1442.409 9        56.580                  
  21338871.283 8 112136510.881 8      -899.089 8        52.674                  
  25198237.855 7 132417654.560 7     -1046.199 7        45.973                  
  20420677.882 9 107311394.237 9       790.200 9        55.903                  
 02  5 18 00 03 23.0000000  0  8G01G23G21G16G27G10G30G08                        
  23661223.677 8 124340580.558 8      3388.255 8        48.767                  
  23087260.546 8 121324386.953 8     -2906.219 8        50.963                  
  21730366.191 8 114193837.232 8      1750.665 8        53.188                  
  23583615.973 8 123932732.886 8     -3668.049 8        50.733                  
  20522232.667 9 107845044.842 9     -1447.473 9        58.154                  
  21339043.487 9 112137412.011 9      -906.325 9        56.248                  
  25198437.792 8 132418692.865 8     -1034.999 8        49.215                  
  20420527.567 9 107310603.201 9       791.567 9        57.809                  
 02  5 18 00 03 24.0000000  0  8G01G23G21G16G27G10G30G08                        
  23660577.140 7 124337177.656 7      3417.255 7        46.323                  
  23087819.275 8 121327304.550 8     -2930.108 8        50.881                  
  21730034.649 8 114192077.688 8      1768.728 8        52.762                  
  23584313.026 8 123936395.513 8     -3659.324 8        50.220                  
  20522506.242 9 107846495.060 9     -1452.520 9        57.834                  
  21339214.386 9 112138326.362 9      -922.106 9        55.474                  
  25198625.166 7 132419721.578 7     -1021.388 7        46.407                  
  20420376.538 9 107309809.196 9       795.324 9        56.854                  
 02  5 18 00 03 25.0000000  0  8G01G23G21G16G27G10G30G08                        
  23659925.475 7 124333748.412 7      3440.055 7        47.334                  
  23088376.252 8 121330246.271 8     -2950.404 8        48.933                  
  21729693.333 8 114190299.825 8      1784.824 8        52.594                  
  23585006.541 8 123940047.073 8     -3648.490 8        49.696                  
  20522783.105 9 107847951.381 9     -1459.422 9        57.506                  
  21339389.342 9 112139257.123 9      -938.269 9        54.487                  
  25198821.047 7 132420736.650 7     -1008.726 7        45.793                  
  20420225.081 9 107309011.006 9       800.353 9        56.084                  
 02  5 18 00 03 26.0000000  0  8G01G23G21G16G27G10G30G08                        
  23659268.360 8 124330301.256 8      3451.344 8        49.007                  
  23088941.950 8 121333204.779 8     -2960.280 8        50.244                  
  21729348.872 8 114188509.597 8      1792.115 8        53.012                  
  23585701.556 8 123943690.741 8     -3643.012 8        50.032                  
  20523064.596 9 107849411.907 9     -1462.096 9        55.580                  
  21339568.139 9 112140199.273 9      -943.942 9        54.043                  
  25199021.019 7 132421742.884 7     -1004.013 7        42.359                  
  20420073.444 9 107308210.196 9       802.094 9        56.239                  
 02  5 18 00 03 27.0000000  0  8G01G23G21G16G27G10G30G08                        
  23658613.674 8 124326852.804 8      3449.496 8        49.540                  
  23089503.680 8 121336164.652 8     -2957.825 8        50.914                  
  21729011.791 9 114186718.594 9      1790.834 9        54.340                  
  23586394.070 8 123947334.658 8     -3643.905 8        49.786                  
  20523345.300 9 107850873.401 9     -1462.478 9        57.007                  
  21339750.457 9 112141142.921 9      -945.215 9        56.528                  
  25199206.553 7 132422748.253 7     -1005.951 7        43.238                  
  20419921.039 9 107307409.486 9       800.257 9        57.715                  
 02  5 18 00 03 28.0000000  0  8G01G23G21G16G27G10G30G08                        
  23657957.238 8 124323404.895 8      3443.223 8        49.086                  
  23090066.126 8 121339124.813 8     -2958.648 8        51.380                  
  21728674.316 9 114184928.202 9      1789.116 9        54.368                  
  23587087.478 8 123950978.485 8     -3645.727 8        49.840                  
  20523624.557 9 107852335.191 9     -1460.434 9        56.629                  
  21339931.220 9 112142086.971 9      -943.294 9        56.302                  
  25199393.481 7 132423754.625 7     -1009.107 7        44.893                  
  20419769.117 9 107306609.415 9       799.729 9        57.012                  
 02  5 18 00 03 29.0000000  0  8G01G23G21G16G27G10G30G08                        
  23657301.927 8 124319970.077 8      3424.191 8        48.488                  
  23090626.623 8 121342073.709 8     -2938.319 8        51.928                  
  21728330.820 8 114183147.193 8      1772.792 8        53.994                  
  23587783.012 8 123954628.116 8     -3654.463 8        50.172                  
  20523900.616 9 107853794.753 9     -1457.219 9        58.109                  
  21340109.821 9 112143023.950 9      -930.507 9        56.248                  
  25199591.630 7 132424768.283 7     -1021.681 7        47.178                  
  20419617.820 9 107305812.054 9       795.053 9        55.868                  
 02  5 18 00 03 30.0000000  0  8G01G23G21G16G27G10G30G08                        
  23656655.033 8 124316561.266 8      3397.495 8        48.839                  
  23091192.982 8 121344999.754 8     -2915.689 8        50.000                  
  21727994.096 8 114181384.649 8      1752.578 8        52.629                  
  23588477.920 8 123958288.986 8     -3668.427 8        50.647                  
  20524173.636 9 107855249.356 9     -1451.909 9        56.208                  
  21340279.451 9 112143946.177 9      -915.036 9        57.081                  
  25199789.619 7 132425796.161 7     -1035.307 7        46.891                  
  20419467.148 9 107305019.681 9       790.039 9        56.410                  
 02  5 18 00 03 31.0000000  0  8G01G23G21G16G27G10G30G08                        
  23656010.962 8 124313177.774 8      3377.437 8        49.142                  
  23091737.183 8 121347902.669 8     -2897.633 8        50.386                  
  21727665.235 8 114179639.847 8      1740.237 8        53.643                  
  23589177.760 8 123961962.738 8     -3675.999 8        49.672                  
  20524447.640 9 107856699.717 9     -1448.730 9        56.870                  
  21340454.872 9 112144853.962 9      -903.656 9        56.481                  
  25199977.887 8 132426836.226 8     -1046.128 8        48.319                  
  20419317.406 9 107304231.742 9       785.933 9        58.294                  
 02  5 18 00 03 32.0000000  0  8G01G23G21G16G27G10G30G08                        
  23655367.909 7 124309806.251 7      3360.768 7        47.758                  
  23092284.958 8 121350799.960 8     -2900.018 8        49.264                  
  21727337.570 8 114177904.748 8      1728.621 8        53.622                  
  23589876.868 8 123965632.224 8     -3663.485 8        51.328                  
  20524724.092 9 107858145.150 9     -1440.559 9        55.593                  
  21340627.183 9 112145755.434 9      -898.898 9        56.653                  
  25200185.632 8 132427891.429 8     -1070.474 8        48.821                  
  20419168.181 9 107303448.325 9       779.398 9        56.146                  
 02  5 18 00 03 33.0000000  0  8G01G23G21G16G27G10G30G08                        
  23654729.824 8 124306450.090 8      3349.195 8        48.615                  
  23092838.558 8 121353694.905 8     -2891.793 8        50.021                  
  21727008.762 9 114176183.268 9      1715.523 9        54.535                  
  23590569.203 8 123969285.871 8     -3648.336 8        49.404                  
  20525001.383 9 107859581.053 9     -1432.394 9        55.076                  
  21340798.547 9 112146648.647 9      -888.198 9        55.598                  
  25200393.842 7 132428975.044 7     -1094.368 7        47.166                  
  20419020.208 9 107302672.772 9       772.314 9        56.789                  
 02  5 18 00 03 34.0000000  0  8G01G23G21G16G27G10G30G08                        
  23654091.739 8 124303105.548 8      3340.902 8        48.064                  
  23093389.406 8 121356583.660 8     -2885.487 8        48.912                  
  21726679.508 9 114174471.010 9      1711.574 9        54.910                  
  23591267.400 8 123972937.044 8     -3658.822 8        49.047                  
  20525275.816 9 107861012.726 9     -1433.842 9        56.354                  
  21340968.195 9 112147535.746 9      -887.109 9        56.882                  
  25200595.869 7 132430071.904 7     -1094.749 7        45.039                  
  20418872.806 9 107301901.244 9       772.817 9        56.331                  
 02  5 18 00 03 35.0000000  0  8G01G23G21G16G27G10G30G08                        
  23653459.194 8 124299765.821 8      3332.612 8        49.926                  
  23093937.092 8 121359464.721 8     -2878.852 8        48.472                  
  21726352.898 8 114172761.380 8      1704.214 8        53.730                  
  23591962.290 8 123976598.411 8     -3660.885 8        51.398                  
  20525546.442 9 107862446.318 9     -1431.028 9        56.249                  
  21341136.057 9 112148420.609 9      -881.920 9        55.241                  
  25200812.442 7 132431164.651 7     -1099.392 7        47.764                  
  20418725.387 9 107301129.297 9       770.985 9        57.723                  
 02  5 18 00 03 36.0000000  0  8G01G23G21G16G27G10G30G08                        
  23652824.861 8 124296442.829 8      3318.031 8        49.007                  
  23094485.599 8 121362337.630 8     -2870.950 8        50.380                  
  21726032.006 8 114171065.204 8      1689.804 8        52.266                  
  23592658.092 8 123980253.984 8     -3653.849 8        51.018                  
  20525813.530 9 107863872.886 9     -1422.862 9        54.692                  
  21341303.382 8 112149296.313 8      -872.328 8        53.284                  
  25201016.935 7 132432278.223 7     -1122.114 7        46.587                  
  20418579.129 9 107300363.436 9       763.451 9        56.424                  
 02  5 18 00 03 37.0000000  0  8G01G23G21G16G27G10G30G08                        
  23652194.800 7 124293127.497 7      3314.795 7        47.660                  
  23095031.891 8 121365207.359 8     -2871.056 8        52.512                  
  21725712.955 8 114169375.387 8      1689.928 8        52.353                  
  23593354.323 8 123983906.427 8     -3651.340 8        49.250                  
  20526083.049 9 107865296.389 9     -1423.710 9        55.393                  
  21341467.706 8 112150168.232 8      -871.789 8        53.994                  
  25201232.310 7 132433402.006 7     -1124.284 7        47.562                  
  20418433.086 9 107299600.686 9       762.815 9        54.790                  
 02  5 18 00 03 38.0000000  0  8G01G23G21G16G27G10G30G08                        
  23651564.631 7 124289810.016 7      3322.233 7        47.077                  
  23095573.930 8 121368079.499 8     -2874.056 8        51.515                  
  21725393.867 8 114167684.190 8      1696.303 8        52.863                  
  23594048.391 8 123987558.178 8     -3653.227 8        48.961                  
  20526358.643 9 107866720.874 9     -1427.256 9        55.657                  
  21341631.529 9 112151042.185 9      -877.747 9        54.995                  
  25201448.704 7 132434524.935 7     -1117.854 7        47.472                  
  20418287.096 9 107298837.970 9       765.206 9        56.822                  
 02  5 18 00 03 39.0000000  0  8G01G23G21G16G27G10G30G08                        
  23650932.836 8 124286477.922 8      3342.171 8        49.660                  
  23096126.315 8 121370959.058 8     -2885.514 8        52.025                  
  21725069.831 8 114165981.428 8      1711.071 8        52.547                  
  23594743.514 8 123991216.629 8     -3662.600 8        48.611                  
  20526634.076 9 107868152.804 9     -1437.455 9        55.482                  
  21341800.427 9 112151925.407 9      -889.633 9        56.873                  
  25201653.126 7 132435629.234 7     -1094.498 7        46.345                  
  20418140.319 9 107298070.440 9       770.454 9        56.001                  
 02  5 18 00 03 40.0000000  0  8G01G23G21G16G27G10G30G08                        
  23650291.320 8 124283126.102 8      3363.200 8        48.144                  
  23096674.733 8 121373847.862 8     -2892.991 8        49.967                  
  21724738.432 8 114164262.779 8      1726.300 8        53.260                  
  23595444.159 8 123994885.226 8     -3676.030 8        48.479                  
  20526908.258 9 107869595.010 9     -1447.936 9        57.033                  
  21341969.664 9 112152820.945 9      -902.204 9        55.106                  
  25201867.715 7 132436707.190 7     -1062.615 7        47.088                  
  20417992.864 9 107297296.055 9       778.496 9        56.083                  
 02  5 18 00 03 41.0000000  0  8G01G23G21G16G27G10G30G08                        
  23649649.983 7 124279756.683 7      3374.171 7        47.593                  
  23097225.046 8 121376743.388 8     -2896.746 8        49.657                  
  21724406.264 8 114162529.647 8      1737.737 8        53.378                  
  23596142.909 8 123998566.153 8     -3683.268 8        50.415                  
  20527180.850 9 107871047.452 9     -1454.870 9        57.697                  
  21342144.960 9 112153727.492 9      -909.436 9        55.169                  
  25202060.236 7 132437758.783 7     -1043.883 7        47.403                  
  20417843.980 9 107296514.940 9       782.360 9        56.197                  
 02  5 18 00 03 42.0000000  0  8G01G23G21G16G27G10G30G08                        
  23649006.894 7 124276370.939 7      3399.313 7        46.853                  
  23097781.434 8 121379651.837 8     -2920.240 8        50.095                  
  21724075.759 8 114160784.729 8      1754.605 8        51.599                  
  23596842.678 8 124002244.807 8     -3673.566 8        49.615                  
  20527455.944 9 107872505.243 9     -1461.298 9        55.945                  
  21342321.363 9 112154644.443 9      -925.627 9        55.038                  
  25202258.010 7 132438798.071 7     -1029.461 7        45.508                  
  20417695.524 9 107295730.455 9       786.271 9        55.096                  
 02  5 18 00 03 43.0000000  0  8G01G23G21G16G27G10G30G08                        
  23648357.248 7 124272958.121 7      3425.287 7        47.255                  
  23098339.876 8 121382583.683 8     -2940.630 8        50.339                  
  21723744.146 8 114159020.630 8      1774.625 8        52.475                  
  23597542.214 8 124005915.045 8     -3669.113 8        49.632                  
  20527734.218 9 107873970.205 9     -1468.003 9        54.906                  
  21342499.052 9 112155578.220 9      -941.296 9        55.527                  
  25202459.698 7 132439820.624 7     -1013.502 7        43.793                  
  20417544.316 9 107294941.091 9       791.812 9        56.602                  
 02  5 18 00 03 44.0000000  0  8G01G23G21G16G27G10G30G08                        
  23647702.509 8 124269520.415 8      3447.431 8        50.010                  
  23098898.033 8 121385537.521 8     -2961.876 8        50.503                  
  21723403.115 8 114157239.079 8      1789.019 8        53.509                  
  23598237.963 8 124009576.653 8     -3657.690 8        49.998                  
  20528016.674 9 107875441.531 9     -1473.549 9        56.731                  
  21342676.474 9 112156527.560 9      -954.612 9        55.292                  
  25202648.681 7 132440828.676 7     -1001.733 7        45.446                  
  20417393.734 9 107294147.469 9       794.939 9        57.106                  
 02  5 18 00 03 45.0000000  0  8G01G23G21G16G27G10G30G08                        
  23647047.788 8 124266072.734 8      3447.054 8        48.783                  
  23099464.499 8 121388503.193 8     -2965.958 8        51.164                  
  21723057.403 9 114155451.265 9      1787.481 9        54.423                  
  23598932.531 8 124013229.252 8     -3648.955 8        51.894                  
  20528299.630 9 107876914.026 9     -1472.528 9        56.716                  
  21342857.165 9 112157483.663 9      -954.509 9        55.344                  
  25202833.411 7 132441836.011 7     -1008.181 7        47.982                  
  20417241.740 9 107293353.559 9       792.800 9        56.929                  
 02  5 18 00 03 46.0000000  0  8G01G23G21G16G27G10G30G08                        
  23646390.369 8 124262625.725 8      3443.566 8        48.930                  
  23100029.017 8 121391469.688 8     -2964.570 8        51.292                  
  21722722.163 9 114153664.329 9      1786.908 9        56.003                  
  23599629.423 8 124016880.433 8     -3654.119 8        52.005                  
  20528581.460 9 107878386.347 9     -1473.545 9        57.249                  
  21343040.930 9 112158440.119 9      -957.914 9        55.459                  
  25203031.614 8 132442845.672 8     -1005.046 8        48.651                  
  20417092.087 9 107292560.588 9       792.825 9        54.527                  
 02  5 18 00 03 47.0000000  0  8G01G23G21G16G27G10G30G08                        
  23645734.344 7 124259177.488 7      3451.208 7        47.925                  
  23100591.891 8 121394435.777 8     -2968.374 8        52.209                  
  21722385.278 9 114151876.251 9      1787.466 9        55.498                  
  23600323.099 8 124020535.427 8     -3658.244 8        50.976                  
  20528862.361 9 107879860.713 9     -1474.927 9        57.514                  
  21343225.106 9 112159397.962 9      -958.338 9        55.988                  
  25203226.297 7 132443851.403 7     -1004.806 7        47.343                  
  20416940.754 9 107291766.988 9       794.570 9        56.158                  
 02  5 18 00 03 48.0000000  0  8G01G23G21G16G27G10G30G08                        
  23645078.515 7 124255729.016 7      3445.666 7        47.534                  
  23101155.194 8 121397401.873 8     -2966.974 8        50.463                  
  21722040.477 8 114150088.015 8      1789.013 8        53.661                  
  23601019.955 8 124024191.932 8     -3654.862 8        50.535                  
  20529140.171 9 107881336.142 9     -1474.686 9        56.736                  
  21343407.924 9 112160356.647 9      -959.543 9        54.667                  
  25203410.705 8 132444856.076 8     -1004.288 8        48.628                  
  20416790.351 9 107290973.510 9       793.014 9        55.897                  
 02  5 18 00 03 49.0000000  0  8G01G23G21G16G27G10G30G08                        
  23644421.471 8 124252280.706 8      3447.278 8        49.615                  
  23101720.159 8 121400368.388 8     -2967.587 8        49.323                  
  21721699.751 8 114148300.100 8      1786.938 8        53.704                  
  23601715.828 8 124027848.602 8     -3654.523 8        50.082                  
  20529418.373 9 107882812.002 9     -1476.965 9        58.242                  
  21343588.044 9 112161315.956 9      -958.504 9        55.187                  
  25203600.903 8 132445861.261 8     -1006.047 8        48.934                  
  20416638.893 9 107290180.484 9       792.383 9        56.104                  
 02  5 18 00 03 50.0000000  0  8G01G23G21G16G27G10G30G08                        
  23643766.589 8 124248832.782 8      3447.660 8        48.538                  
  23102287.894 8 121403335.443 8     -2965.868 8        50.177                  
  21721364.117 8 114146512.747 8      1788.248 8        53.885                  
  23602410.183 8 124031504.778 8     -3656.523 8        49.707                  
  20529697.845 9 107884288.064 9     -1476.493 9        59.294                  
  21343768.503 9 112162275.794 9      -960.702 9        55.724                  
  25203801.286 8 132446867.686 8     -1003.795 8        48.984                  
  20416488.275 9 107289388.157 9       792.518 9        57.446                  
 02  5 18 00 03 51.0000000  0  8G01G23G21G16G27G10G30G08                        
  23643109.974 8 124245385.225 8      3448.625 8        48.975                  
  23102851.286 8 121406302.999 8     -2966.754 8        50.800                  
  21721023.390 8 114144725.921 8      1787.750 8        53.847                  
  23603107.486 8 124035160.564 8     -3654.060 8        50.259                  
  20529978.764 9 107885764.398 9     -1476.948 9        57.039                  
  21343955.413 8 112163236.110 8      -961.899 8        53.394                  
  25203991.037 8 132447875.255 8     -1008.339 8        49.640                  
  20416338.157 9 107288596.457 9       791.691 9        54.875                  
 02  5 18 00 03 52.0000000  0  8G01G23G21G16G27G10G30G08                        
  23642453.484 8 124241938.471 8      3445.307 8        49.654                  
  23103412.910 8 121409271.374 8     -2970.349 8        52.631                  
  21720675.999 9 114142940.073 9      1784.265 9        55.080                  
  23603802.412 8 124038814.771 8     -3654.136 8        49.787                  
  20530262.560 9 107887240.447 9     -1475.219 9        57.589                  
  21344139.518 9 112164196.720 9      -959.608 9        55.872                  
  25204174.249 8 132448885.455 8     -1013.328 8        51.469                  
  20416189.791 9 107287805.786 9       789.738 9        57.015                  
 02  5 18 00 03 53.0000000  0  8G01G23G21G16G27G10G30G08                        
  23641799.174 8 124238493.379 8      3444.947 8        49.718                  
  23103979.590 8 121412240.826 8     -2969.086 8        50.639                  
  21720341.008 9 114141156.068 9      1783.447 9        54.555                  
  23604496.034 8 124042465.629 8     -3648.453 8        50.829                  
  20530545.641 9 107888715.413 9     -1475.112 9        57.229                  
  21344320.049 9 112165157.116 9      -959.528 9        56.206                  
  25204371.594 8 132449900.597 8     -1017.710 8        50.681                  
  20416036.492 9 107287016.717 9       789.237 9        57.014                  
 02  5 18 00 03 54.0000000  0  8G01G23G21G16G27G10G30G08                        
  23641142.612 8 124235048.972 8      3441.128 8        49.385                  
  23104546.449 8 121415210.843 8     -2970.226 8        50.368                  
  21720005.892 9 114139372.916 9      1781.900 9        54.620                  
  23605192.390 8 124046115.553 8     -3647.382 8        49.856                  
  20530827.739 9 107890190.328 9     -1474.299 9        57.755                  
  21344501.062 9 112166117.852 9      -961.670 9        56.814                  
  25204571.352 8 132450917.642 8     -1016.807 8        49.388                  
  20415887.036 9 107286228.488 9       788.925 9        58.338                  
 02  5 18 00 03 55.0000000  0  8G01G23G21G16G27G10G30G08                        
  23640487.427 8 124231604.877 8      3448.287 8        50.494                  
  23105111.771 8 121418181.273 8     -2968.458 8        50.290                  
  21719664.326 8 114137590.221 8      1780.670 8        53.760                  
  23605885.958 8 124049765.402 8     -3649.752 8        50.010                  
  20531108.533 9 107891665.604 9     -1475.363 9        57.621                  
  21344684.702 9 112167079.119 9      -961.749 9        57.515                  
  25204760.281 8 132451935.546 8     -1016.762 8        48.081                  
  20415738.222 9 107285440.863 9       786.847 9        57.657                  
 02  5 18 00 03 56.0000000  0  8G01G23G21G16G27G10G30G08                        
  23639833.117 8 124228161.021 8      3438.952 8        48.071                  
  23105676.647 8 121421152.139 8     -2970.650 8        51.406                  
  21719322.885 9 114135807.896 9      1783.081 9        55.022                  
  23606580.312 8 124053415.266 8     -3647.162 8        49.177                  
  20531386.414 9 107893141.297 9     -1476.625 9        57.131                  
  21344869.432 9 112168040.945 9      -962.009 9        57.607                  
  25204950.961 7 132452954.092 7     -1018.905 7        46.787                  
  20415586.961 9 107284653.773 9       787.379 9        58.502                  
 02  5 18 00 03 57.0000000  0  8G01G23G21G16G27G10G30G08                        
  23639176.377 8 124224717.198 8      3441.799 8        48.030                  
  23106241.237 8 121424123.293 8     -2970.932 8        50.987                  
  21718982.355 9 114134025.748 9      1783.285 9        55.089                  
  23607276.222 8 124057065.631 8     -3648.860 8        48.621                  
  20531664.706 9 107894617.620 9     -1477.003 9        58.415                  
  21345053.161 9 112169003.492 9      -962.851 9        55.950                  
  25205153.203 7 132453972.775 7     -1017.755 7        47.018                  
  20415440.614 9 107283867.030 9       786.856 9        58.928                  
 02  5 18 00 03 58.0000000  0  8G01G23G21G16G27G10G30G08                        
  23638522.138 8 124221272.701 8      3444.716 8        48.621                  
  23106807.828 8 121427094.538 8     -2969.942 8        52.145                  
  21718648.544 9 114132243.074 9      1783.466 9        54.328                  
  23607969.861 8 124060717.982 8     -3654.954 8        48.812                  
  20531944.589 9 107896095.232 9     -1479.046 9        57.328                  
  21345233.942 9 112169967.155 9      -964.827 9        55.113                  
  25205344.116 7 132454989.582 7     -1019.056 7        45.981                  
  20415288.638 9 107283080.179 9       787.171 9        59.371                  
 02  5 18 00 03 59.0000000  0  8G01G23G21G16G27G10G30G08                        
  23637865.577 8 124217826.612 8      3445.242 8        51.020                  
  23107374.419 8 121430065.203 8     -2971.629 8        51.510                  
  21718307.996 9 114130458.906 9      1783.751 9        55.419                  
  23608666.449 8 124064374.952 8     -3657.617 8        49.610                  
  20532226.330 9 107897575.297 9     -1480.053 9        56.779                  
  21345416.474 9 112170932.403 9      -966.145 9        56.996                  
  25205528.238 7 132456001.381 7     -1009.036 7        46.158                  
  20415139.985 9 107282292.432 9       787.868 9        58.416                  
 02  5 18 00 04  0.0000000  0  8G01G23G21G16G27G10G30G08                        
  23637209.355 8 124214380.200 8      3445.989 8        49.727                  
  23107938.740 8 121433035.846 8     -2970.459 8        51.937                  
  21717963.213 8 114128674.458 8      1783.355 8        52.813                  
  23609363.002 8 124068033.652 8     -3658.726 8        50.663                  
  20532511.108 8 107899056.497 8     -1480.524 8        52.504                  
  21345602.901 9 112171898.539 9      -966.358 9        54.873                  
  25205726.155 7 132457011.847 7     -1009.192 7        45.020                  
  20414989.475 9 107281504.730 9       787.032 9        55.854                  
 02  5 18 00 04  1.0000000  0  8G01G23G21G16G27G10G30G08                        
  23636554.741 8 124210933.953 8      3446.016 8        51.188                  
  23108502.740 8 121436006.857 8     -2970.290 8        49.518                  
  21717626.560 8 114126890.325 8      1783.521 8        53.951                  
  23610057.732 8 124071692.552 8     -3657.648 8        51.140                  
  20532795.386 8 107900538.161 8     -1481.967 8        53.756                  
  21345788.775 9 112172865.301 9      -966.749 9        55.152                  
  25205920.928 7 132458022.734 7     -1004.947 7        44.576                  
  20414838.803 9 107280717.509 9       787.193 9        56.172                  
 02  5 18 00 04  2.0000000  0  8G01G23G21G16G27G10G30G08                        
  23635897.482 8 124207488.320 8      3444.470 8        49.225                  
  23109069.420 8 121438978.601 8     -2972.893 8        50.538                  
  21717288.747 9 114125106.974 9      1781.821 9        54.473                  
  23610755.034 8 124075350.333 8     -3654.480 8        49.992                  
  20533078.736 8 107902019.765 8     -1480.998 8        53.889                  
  21345969.556 8 112173832.433 8      -967.483 8        53.098                  
  25206108.517 7 132459035.656 7     -1015.285 7        45.450                  
  20414688.185 9 107279931.157 9       785.970 9        57.814                  
 02  5 18 00 04  3.0000000  0  8G01G23G21G16G27G10G30G08                        
  23635242.708 8 124204043.678 8      3442.587 8        49.153                  
  23109634.028 8 121441951.275 8     -2971.702 8        49.172                  
  21716947.859 9 114123324.868 9      1781.282 9        55.265                  
  23611450.818 8 124079005.939 8     -3654.119 8        50.329                  
  20533360.887 8 107903500.844 8     -1480.595 8        53.690                  
  21346152.999 9 112174799.719 9      -966.682 9        55.543                  
  25206301.967 7 132460051.901 7     -1015.104 7        45.642                  
  20414540.176 9 107279145.983 9       784.651 9        57.603                  
 02  5 18 00 04  4.0000000  0  8G01G23G21G16G27G10G30G08                        
  23634588.094 7 124200599.591 7      3443.835 7        46.559                  
  23110199.225 8 121444924.530 8     -2974.627 8        51.230                  
  21716605.793 9 114121543.455 9      1780.887 9        54.561                  
  23612145.423 8 124082660.811 8     -3655.943 8        49.300                  
  20533640.573 9 107904982.009 9     -1482.662 9        54.364                  
  21346337.872 8 112175767.427 8      -967.471 8        53.537                  
  25206503.333 7 132461069.735 7     -1017.893 7        44.467                  
  20414390.684 9 107278361.573 9       783.257 9        54.938                  
 02  5 18 00 04  5.0000000  0  8G01G23G21G16G27G10G30G08                        
  23633932.551 7 124197159.476 7      3430.385 7        46.708                  
  23110760.277 8 121447895.342 8     -2965.163 8        49.672                  
  21716271.963 8 114119765.178 8      1771.090 8        52.972                  
  23612842.297 8 124086316.283 8     -3658.658 8        50.455                  
  20533919.348 9 107906462.479 9     -1478.869 9        54.765                  
  21346524.586 8 112176733.492 8      -961.126 8        51.514                  
  25206698.605 7 132462091.170 7     -1028.294 7        45.666                  
  20414241.048 8 107277578.523 8       779.601 8        53.920                  
 02  5 18 00 04  6.0000000  0  8G01G23G21G16G27G10G30G08                        
  23633282.458 7 124193741.661 7      3407.053 7        47.204                  
  23111326.010 8 121450847.192 8     -2941.387 8        51.011                  
  21715938.420 9 114118002.828 9      1754.529 9        54.754                  
  23613538.581 8 124089980.156 8     -3668.600 8        49.127                  
  20534198.605 9 107907938.325 9     -1472.948 9        56.292                  
  21346705.599 9 112177686.915 9      -945.760 9        54.138                  
  25206885.801 7 132463126.083 7     -1047.277 7        45.240                  
  20414093.415 9 107276800.065 9       775.088 9        56.976                  
 02  5 18 00 04  7.0000000  0  8G01G23G21G16G27G10G30G08                        
  23632636.582 7 124190350.736 7      3379.596 7        47.657                  
  23111885.078 8 121453775.968 8     -2919.996 8        50.247                  
  21715604.627 8 114116259.622 8      1734.552 8        52.488                  
  23614237.778 8 124093654.471 8     -3679.693 8        49.201                  
  20534478.237 9 107909408.608 9     -1468.654 9        55.514                  
  21346881.412 9 112178624.975 9      -931.457 9        55.332                  
  25207093.386 7 132464176.850 7     -1054.903 7        46.028                  
  20413945.638 9 107276026.942 9       771.111 9        56.113                  
 02  5 18 00 04  8.0000000  0  8G01G23G21G16G27G10G30G08                        
  23631994.548 8 124186974.865 8      3373.395 8        49.569                  
  23112438.839 8 121456693.699 8     -2919.517 8        49.792                  
  21715271.941 9 114114527.622 9      1730.954 9        54.415                  
  23614937.762 8 124097331.220 8     -3668.460 8        50.495                  
  20534759.960 9 107910874.937 9     -1462.841 9        56.943                  
  21347057.136 9 112179554.787 9      -930.610 9        57.013                  
  25207294.502 7 132465239.720 7     -1072.726 7        45.575                  
  20413798.826 9 107275257.686 9       767.344 9        56.951                  
 02  5 18 00 04  9.0000000  0  8G01G23G21G16G27G10G30G08                        
  23631353.015 8 124183604.163 8      3367.508 8        48.015                  
  23112994.887 7 121459618.343 7     -2929.240 7        47.605                  
  21714945.546 8 114112802.061 8      1721.972 8        53.745                  
  23615634.010 8 124100987.779 8     -3647.531 8        50.214                  
  20535040.254 9 107912333.810 9     -1455.865 9        56.986                  
  21347235.719 9 112180482.566 9      -926.143 9        54.817                  
  25207495.600 7 132466325.403 7     -1096.492 7        44.262                  
  20413652.264 9 107274494.354 9       759.674 9        56.651                  
 02  5 18 00 04 10.0000000  0  8G01G23G21G16G27G10G30G08                        
  23630714.358 8 124180240.894 8      3357.198 8        48.652                  
  23113554.081 8 121462548.531 8     -2933.751 8        48.488                  
  21714620.222 8 114111084.677 8      1714.565 8        52.282                  
  23616324.666 8 124104623.782 8     -3627.629 8        50.204                  
  20535317.992 9 107913784.300 9     -1446.609 9        55.700                  
  21347412.873 9 112181406.993 9      -922.772 9        55.354                  
  25207712.923 7 132467436.279 7     -1119.627 7        44.138                  
  20413507.561 9 107273737.601 9       753.412 9        57.449                  
 02  5 18 00 04 11.0000000  0  8G01G23G21G16G27G10G30G08                        
  23630075.254 8 124176883.276 8      3355.920 8        48.681                  
  23114113.810 8 121465479.505 8     -2931.080 8        50.339                  
  21714296.221 8 114109372.739 8      1708.850 8        52.038                  
  23617015.715 8 124108251.412 8     -3629.536 8        50.691                  
  20535591.245 9 107915230.741 9     -1446.081 9        55.228                  
  21347589.705 9 112182328.954 9      -920.925 9        54.863                  
  25207918.452 7 132468560.074 7     -1127.958 7        44.663                  
  20413363.662 9 107272984.495 9       751.678 9        57.927                  
 02  5 18 00 04 12.0000000  0  8G01G23G21G16G27G10G30G08                        
  23629434.972 7 124173527.949 7      3354.721 7        47.330                  
  23114669.536 8 121468408.525 8     -2925.804 8        51.162                  
  21713969.325 8 114107662.450 8      1710.088 8        52.876                  
  23617705.798 8 124111880.994 8     -3631.350 8        51.020                  
  20535862.854 9 107916677.457 9     -1448.120 9        56.000                  
  21347763.606 8 112183250.244 8      -922.566 8        53.872                  
  25208140.368 7 132469684.719 7     -1122.794 7        45.191                  
  20413221.120 9 107272232.006 9       753.481 9        56.924                  
 02  5 18 00 04 13.0000000  0  8G01G23G21G16G27G10G30G08                        
  23628797.030 7 124170167.771 7      3362.985 7        47.426                  
  23115225.067 8 121471334.173 8     -2923.794 8        52.181                  
  21713639.660 9 114105947.002 9      1718.893 9        54.976                  
  23618399.760 8 124115525.509 8     -3653.188 8        49.640                  
  20536137.751 9 107918130.870 9     -1458.470 9        55.779                  
  21347937.454 8 112184174.868 8      -927.652 8        52.880                  
  25208349.721 7 132470792.456 7     -1098.290 7        45.874                  
  20413078.490 9 107271475.695 9       759.653 9        57.256                  
 02  5 18 00 04 14.0000000  0  8G01G23G21G16G27G10G30G08                        
  23628156.407 7 124166800.215 7      3372.571 7        47.918                  
  23115783.170 8 121474256.900 8     -2926.349 8        50.487                  
  21713310.870 9 114104224.139 9      1726.542 9        55.152                  
  23619097.670 8 124119187.513 8     -3664.937 8        49.595                  
  20536417.009 9 107919592.670 9     -1464.229 9        55.767                  
  21348112.838 8 112185104.299 8      -934.195 8        51.492                  
  25208552.802 7 132471878.700 7     -1081.261 7        46.456                  
  20412935.216 9 107270714.343 9       762.443 9        55.579                  
 02  5 18 00 04 15.0000000  0  8G01G23G21G16G27G10G30G08                        
  23627512.551 7 124163421.309 7      3385.443 7        47.942                  
  23116342.113 8 121477192.514 8     -2945.734 8        50.544                  
  21712983.867 8 114102494.029 8      1734.687 8        53.265                  
  23619791.739 8 124122840.461 8     -3643.268 8        49.640                  
  20536698.964 9 107921056.058 9     -1462.482 9        57.134                  
  21348293.565 9 112186041.341 9      -941.407 9        54.749                  
  25208766.641 7 132472962.985 7     -1087.843 7        47.143                  
  20412791.388 9 107269952.373 9       762.253 9        55.748                  
 02  5 18 00 04 16.0000000  0  8G01G23G21G16G27G10G30G08                        
  23626866.085 8 124160027.698 8      3402.167 8        48.991                  
  23116899.984 8 121480149.509 8     -2964.378 8        51.727                  
  21712656.185 9 114100755.664 9      1740.967 9        55.297                  
  23620483.288 8 124126471.710 8     -3626.446 8        50.477                  
  20536979.329 9 107922518.353 9     -1462.462 9        58.914                  
  21348476.222 9 112186988.230 9      -950.880 9        56.088                  
  25208965.559 8 132474053.206 8     -1089.347 8        48.071                  
  20412645.881 9 107269191.458 9       760.314 9        58.543                  
 02  5 18 00 04 17.0000000  0  8G01G23G21G16G27G10G30G08                        
  23626220.960 8 124156627.120 8      3403.986 8        48.846                  
  23117467.593 8 121483115.093 8     -2966.141 8        49.782                  
  21712324.357 9 114099013.017 9      1743.884 9        54.771                  
  23621172.032 8 124130096.549 8     -3625.960 8        50.447                  
  20537258.211 9 107923981.538 9     -1462.928 9        57.335                  
  21348656.128 8 112187940.101 8      -952.564 8        53.694                  
  25209176.753 7 132475143.164 7     -1090.040 7        46.384                  
  20412503.500 9 107268430.484 9       760.792 9        57.325                  
 02  5 18 00 04 18.0000000  0  8G01G23G21G16G27G10G30G08                        
  23625571.796 8 124153223.938 8      3402.707 8        48.646                  
  23118031.808 8 121486082.652 8     -2967.688 8        50.274                  
  21711987.293 8 114097268.547 8      1745.498 8        52.826                  
  23621861.704 8 124133722.111 8     -3629.149 8        49.567                  
  20537534.287 9 107925446.336 9     -1466.900 9        54.885                  
  21348835.461 8 112188894.216 8      -953.062 8        52.974                  
  25209385.231 7 132476230.605 7     -1090.102 7        47.031                  
  20412359.976 9 107267669.142 9       760.587 9        56.737                  
 02  5 18 00 04 19.0000000  0  8G01G23G21G16G27G10G30G08                        
  23624923.776 8 124149821.478 8      3399.989 8        48.361                  
  23118595.379 8 121489047.413 8     -2959.148 8        49.443                  
  21711655.626 8 114095524.109 8      1742.437 8        53.177                  
  23622555.022 8 124137353.601 8     -3641.188 8        49.187                  
  20537810.328 9 107926913.172 9     -1469.181 9        54.723                  
  21349016.814 8 112189848.556 8      -952.857 8        53.194                  
  25209584.721 8 132477313.999 8     -1077.319 8        48.398                  
  20412215.291 9 107266907.217 9       762.218 9        55.289                  
 02  5 18 00 04 20.0000000  0  8G01G23G21G16G27G10G30G08                        
  23624278.186 8 124146423.911 8      3397.694 8        48.797                  
  23119155.340 8 121492000.429 8     -2957.877 8        50.752                  
  21711326.765 9 114093781.396 9      1744.559 9        54.374                  
  23623247.215 8 124141003.372 8     -3652.270 8        50.172                  
  20538088.834 9 107928384.392 9     -1473.487 9        55.485                  
  21349200.454 9 112190800.389 9      -954.389 9        54.099                  
  25209799.435 7 132478386.438 7     -1068.518 7        46.499                  
  20412071.177 9 107266143.334 9       764.808 9        57.418                  
 02  5 18 00 04 21.0000000  0  8G01G23G21G16G27G10G30G08                        
  23623629.272 8 124143012.763 8      3417.543 8        49.179                  
  23119720.591 7 121494966.899 7     -2975.750 7        47.646                  
  21710994.901 8 114092029.540 8      1757.732 8        53.872                  
  23623942.588 8 124144645.978 8     -3633.108 8        50.833                  
  20538369.753 9 107929858.581 9     -1474.663 9        56.664                  
  21349383.165 9 112191761.166 9      -967.374 9        54.259                  
  25209999.282 7 132479453.214 7     -1066.476 7        46.020                  
  20411925.991 9 107265377.857 9       766.004 9        56.762                  
 02  5 18 00 04 22.0000000  0  8G01G23G21G16G27G10G30G08                        
  23622977.339 8 124139589.825 8      3423.757 8        48.184                  
  23120291.381 8 121497945.604 8     -2980.047 8        49.271                  
  21710658.767 9 114090269.896 9      1761.565 9        54.724                  
  23624632.815 8 124148281.463 8     -3638.530 8        51.012                  
  20538654.032 9 107931335.132 9     -1477.103 9        57.407                  
  21349565.607 8 112192729.789 8      -970.500 8        53.045                  
  25210195.269 7 132480515.908 7     -1056.865 7        45.802                  
  20411781.181 9 107264611.244 9       767.981 9        58.391                  
 02  5 18 00 04 23.0000000  0  8G01G23G21G16G27G10G30G08                        
  23622326.656 8 124136161.592 8      3430.593 8        49.773                  
  23120856.900 8 121500926.374 8     -2982.576 8        50.706                  
  21710321.275 9 114088505.983 9      1766.002 9        54.111                  
  23625325.650 8 124151921.482 8     -3641.370 8        49.730                  
  20538938.024 9 107932815.389 9     -1481.360 9        54.332                  
  21349749.801 9 112193702.188 9      -974.114 9        54.073                  
  25210405.588 7 132481570.301 7     -1051.398 7        45.394                  
  20411634.959 9 107263842.796 9       769.253 9        55.334                  
 02  5 18 00 04 24.0000000  0  8G01G23G21G16G27G10G30G08                        
  23621673.704 8 124132736.375 8      3416.649 8        50.565                  
  23121422.401 8 121503901.050 8     -2965.676 8        50.431                  
  21709985.194 8 114086743.424 8      1757.268 8        53.888                  
  23626021.506 8 124155570.794 8     -3657.608 8        48.784                  
  20539221.212 9 107934297.910 9     -1482.418 9        56.834                  
  21349934.746 9 112194673.373 9      -966.393 9        55.689                  
  25210599.324 7 132482619.864 7     -1047.194 7        45.344                  
  20411489.773 9 107263073.737 9       767.913 9        55.420                  
 02  5 18 00 04 25.0000000  0  8G01G23G21G16G27G10G30G08                        
  23621022.539 8 124129319.270 8      3423.239 8        48.237                  
  23121983.882 8 121506863.650 8     -2969.273 8        50.835                  
  21709654.921 8 114084985.473 8      1763.755 8        53.380                  
  23626716.307 8 124159234.417 8     -3664.352 8        49.863                  
  20539503.900 9 107935782.509 9     -1486.369 9        56.844                  
  21350121.745 9 112195640.175 9      -971.887 9        54.629                  
  25210794.525 7 132483664.871 7     -1039.539 7        45.413                  
  20411343.997 9 107262304.325 9       772.201 9        55.345                  
 02  5 18 00 04 26.0000000  0  8G01G23G21G16G27G10G30G08                        
  23620370.481 8 124125884.538 8      3439.906 8        49.598                  
  23122555.172 8 121509841.033 8     -2981.858 8        49.766                  
  21709322.486 8 114083215.021 8      1774.178 8        52.865                  
  23627413.181 8 124162893.912 8     -3659.724 8        48.912                  
  20539784.837 9 107937272.422 9     -1491.465 9        55.681                  
  21350306.386 9 112196618.241 9      -983.239 9        55.667                  
  25210999.465 7 132484697.820 7     -1029.527 7        45.441                  
  20411194.863 9 107261531.711 9       773.560 9        57.194                  
 02  5 18 00 04 27.0000000  0  8G01G23G21G16G27G10G30G08                        
  23619714.223 8 124122442.631 8      3444.035 8        50.822                  
  23123121.191 8 121512821.540 8     -2978.583 8        50.932                  
  21708978.597 9 114081438.813 9      1776.095 9        54.748                  
  23628111.985 8 124166558.358 8     -3669.202 8        49.079                  
  20540066.864 9 107938766.830 9     -1496.194 9        54.487                  
  21350492.241 9 112197601.193 9      -983.520 9        55.989                  
  25211191.450 7 132485720.387 7     -1018.085 7        45.188                  
  20411047.729 9 107260756.685 9       775.764 9        58.320                  
 02  5 18 00 04 28.0000000  0  8G01G23G21G16G27G10G30G08                        
  23619059.377 8 124118999.090 8      3445.506 8        49.577                  
  23123688.408 8 121515799.471 8     -2975.145 8        50.673                  
  21708638.692 8 114079660.582 8      1778.295 8        53.437                  
  23628809.609 8 124170231.497 8     -3678.356 8        50.123                  
  20540350.445 9 107940264.922 9     -1500.177 9        56.428                  
  21350680.045 9 112198585.658 9      -984.661 9        54.791                  
  25211376.662 7 132486734.468 7     -1009.592 7        47.062                  
  20410901.310 9 107259979.999 9       776.598 9        57.516                  
 02  5 18 00 04 29.0000000  0  8G01G23G21G16G27G10G30G08                        
  23618404.245 8 124115555.133 8      3445.652 8        49.406                  
  23124253.033 8 121518773.134 8     -2971.732 8        50.765                  
  21708304.988 9 114077881.014 9      1779.390 9        55.858                  
  23629510.540 8 124173915.072 8     -3685.093 8        49.800                  
  20540635.545 9 107941766.874 9     -1502.746 9        56.336                  
  21350869.653 9 112199570.862 9      -985.161 9        55.141                  
  25211573.847 7 132487739.615 7     -1003.703 7        47.990                  
  20410752.658 9 107259201.576 9       778.229 9        55.743                  
 02  5 18 00 04 30.0000000  0  8G01G23G21G16G27G10G30G08                        
  23617748.273 7 124112111.651 7      3441.907 7        47.989                  
  23124817.837 8 121521744.435 8     -2972.164 8        49.792                  
  21707964.351 8 114076101.348 8      1781.990 8        53.845                  
  23630213.793 7 124177603.979 7     -3691.745 7        47.802                  
  20540921.843 9 107943270.819 9     -1504.945 9        55.425                  
  21351056.492 9 112200556.415 9      -985.387 9        55.156                  
  25211768.744 7 132488740.974 7      -998.583 7        46.956                  
  20410604.256 9 107258422.663 9       778.840 9        59.050                  
 02  5 18 00 04 31.0000000  0  8G01G23G21G16G27G10G30G08                        
  23617093.159 8 124108668.856 8      3440.227 8        49.447                  
  23125382.391 8 121524713.628 8     -2968.071 8        51.124                  
  21707623.178 8 114074321.901 8      1779.297 8        53.647                  
  23630914.955 8 124181297.372 8     -3697.776 8        50.480                  
  20541210.410 9 107944776.397 9     -1507.232 9        56.028                  
  21351242.008 9 112201542.167 9      -985.559 9        55.115                  
  25211952.402 7 132489739.612 7      -998.459 7        46.337                  
  20410454.334 9 107257643.536 9       779.786 9        58.838                  
 02  5 18 00 04 32.0000000  0  8G01G23G21G16G27G10G30G08                        
  23616440.332 8 124105227.700 8      3442.337 8        48.950                  
  23125948.053 8 121527678.514 8     -2961.295 8        48.990                  
  21707284.667 9 114072543.009 9      1778.634 9        54.410                  
  23631619.692 8 124184998.352 8     -3701.789 8        48.069                  
  20541499.316 9 107946284.203 9     -1509.245 9        56.465                  
  21351430.597 9 112202527.494 9      -984.593 9        55.380                  
  25212139.491 7 132490733.664 7      -990.384 7        44.799                  
  20410307.183 9 107256863.813 9       780.036 9        58.445                  
 02  5 18 00 04 33.0000000  0  8G01G23G21G16G27G10G30G08                        
  23615784.146 8 124101789.047 8      3438.874 8        48.870                  
  23126510.462 8 121530638.354 8     -2956.339 8        50.736                  
  21706948.443 9 114070765.256 9      1778.179 9        55.347                  
  23632326.465 8 124188707.289 8     -3713.629 8        48.772                  
  20541788.008 9 107947794.096 9     -1511.050 9        57.280                  
  21351619.509 9 112203511.880 9      -982.955 9        54.089                  
  25212334.674 7 132491723.650 7      -985.946 7        45.423                  
  20410159.621 9 107256083.609 9       781.190 9        58.424                  
 02  5 18 00 04 34.0000000  0  8G01G23G21G16G27G10G30G08                        
  23615131.194 8 124098353.274 8      3435.964 8        49.787                  
  23127072.247 8 121533593.214 8     -2952.909 8        50.827                  
  21706607.717 9 114068989.027 9      1774.938 9        56.997                  
  23633033.239 8 124192423.424 8     -3716.514 8        49.418                  
  20542076.718 9 107949305.729 9     -1512.412 9        58.923                  
  21351806.526 8 112204495.128 8      -982.429 8        52.857                  
  25212516.616 7 132492710.419 7      -984.438 7        45.580                  
  20410010.486 9 107255303.182 9       780.448 9        59.780                  
 02  5 18 00 04 35.0000000  0  8G01G23G21G16G27G10G30G08                        
  23614477.152 8 124094920.239 8      3430.761 8        48.202                  
  23127635.032 8 121536543.986 8     -2949.293 8        51.561                  
  21706269.009 9 114067214.398 9      1774.108 9        55.509                  
  23633740.620 8 124196145.138 8     -3723.324 8        51.704                  
  20542365.088 9 107950818.603 9     -1514.619 9        57.077                  
  21351991.059 8 112205477.351 8      -982.120 8        52.264                  
  25212702.651 7 132493695.393 7      -984.183 7        45.192                  
  20409861.119 9 107254522.843 9       779.577 9        59.900                  
 02  5 18 00 04 36.0000000  0  8G01G23G21G16G27G10G30G08                        
  23613824.897 7 124091490.847 7      3425.337 7        47.711                  
  23128195.690 8 121539489.653 8     -2939.800 8        49.147                  
  21705932.714 9 114065441.936 9      1770.514 9        55.563                  
  23634450.967 8 124199873.293 8     -3734.084 8        50.166                  
  20542653.172 9 107952332.703 9     -1513.876 9        57.232                  
  21352178.595 8 112206457.949 8      -978.721 8        52.083                  
  25212888.810 7 132494678.632 7      -981.585 7        45.670                  
  20409711.894 9 107253742.646 9       779.025 9        56.412                  
 02  5 18 00 04 37.0000000  0  8G01G23G21G16G27G10G30G08                        
  23613174.464 8 124088069.808 8      3411.272 8        48.946                  
  23128753.775 7 121542426.637 7     -2934.559 7        47.800                  
  21705600.637 8 114063675.067 8      1760.449 8        53.216                  
  23635162.172 8 124203608.551 8     -3732.314 8        50.414                  
  20542940.042 9 107953846.584 9     -1510.815 9        55.494                  
  21352365.987 8 112207434.151 8      -970.530 8        52.181                  
  25213084.655 7 132495663.818 7      -995.015 7        45.291                  
  20409563.599 9 107252963.690 9       777.269 9        55.869                  
 02  5 18 00 04 38.0000000  0  8G01G23G21G16G27G10G30G08                        
  23612525.551 8 124084665.998 8      3400.330 8        48.449                  
  23129308.877 8 121545352.299 8     -2921.720 8        50.997                  
  21705263.627 8 114061921.350 8      1751.475 8        52.876                  
  23635872.055 8 124207343.705 8     -3738.621 8        49.543                  
  20543224.945 9 107955354.981 9     -1507.843 9        55.673                  
  21352549.448 8 112208400.813 8      -964.482 8        52.368                  
  25213274.692 7 132496665.365 7     -1005.305 7        45.253                  
  20409415.876 9 107252189.635 9       773.143 9        57.615                  
 02  5 18 00 04 39.0000000  0  8G01G23G21G16G27G10G30G08                        
  23611879.067 7 124081268.377 7      3396.126 7        47.525                  
  23129868.105 8 121548272.032 8     -2918.518 8        50.459                  
  21704928.886 9 114060171.925 9      1748.523 9        54.209                  
  23636583.117 8 124211083.363 8     -3744.743 8        48.435                  
  20543510.135 9 107956863.085 9     -1507.597 9        56.747                  
  21352731.105 8 112209364.373 8      -962.570 8        51.304                  
  25213458.046 7 132497669.168 7     -1009.115 7        45.363                  
  20409267.045 9 107251416.768 9       772.711 9        57.527                  
 02  5 18 00 04 40.0000000  0  8G01G23G21G16G27G10G30G08                        
  23611235.086 8 124077873.679 8      3392.207 8        49.071                  
  23130422.277 8 121551188.947 8     -2917.822 8        51.263                  
  21704596.237 9 114058424.545 9      1746.994 9        54.135                  
  23637296.448 8 124214825.841 8     -3742.983 8        49.816                  
  20543795.843 9 107958371.559 9     -1508.593 9        57.989                  
  21352912.243 8 112210326.841 8      -962.072 8        50.196                  
  25213653.283 7 132498673.716 7     -1006.922 7        46.195                  
  20409120.394 9 107250644.602 9       771.720 9        57.158                  
 02  5 18 00 04 41.0000000  0  8G01G23G21G16G27G10G30G08                        
  23610588.459 8 124074483.941 8      3384.026 8        49.060                  
  23130975.395 8 121554101.601 8     -2908.727 8        51.871                  
  21704269.198 8 114056680.752 8      1741.738 8        53.523                  
  23638009.494 8 124218571.086 8     -3745.712 8        48.997                  
  20544082.265 9 107959879.653 9     -1508.031 9        56.876                  
  21353098.456 8 112211287.003 8      -957.928 8        50.572                  
  25213851.450 7 132499680.892 7     -1013.803 7        44.291                  
  20408974.190 9 107249873.629 9       769.861 9        58.931                  
 02  5 18 00 04 42.0000000  0  8G01G23G21G16G27G10G30G08                        
  23609943.423 8 124071098.710 8      3387.783 8        48.166                  
  23131529.835 8 121557006.687 8     -2901.162 8        51.143                  
  21703938.138 8 114054939.353 8      1742.969 8        53.643                  
  23638723.468 8 124222326.521 8     -3764.640 8        49.775                  
  20544369.689 9 107961389.824 9     -1514.708 9        59.052                  
  21353281.989 9 112212244.942 9      -958.368 9        54.158                  
  25214037.395 7 132500683.957 7      -995.907 7        43.550                  
  20408826.502 9 107249102.280 9       773.858 9        57.754                  
 02  5 18 00 04 43.0000000  0  8G01G23G21G16G27G10G30G08                        
  23609300.639 8 124067715.115 8      3378.808 8        49.117                  
  23132080.755 8 121559903.030 8     -2891.370 8        49.302                  
  21703603.201 8 114053197.410 8      1738.702 8        52.411                  
  23639441.088 8 124226098.464 8     -3775.105 8        50.394                  
  20544659.864 9 107962905.029 9     -1514.562 9        57.390                  
  21353461.644 8 112213202.203 8      -954.481 8        53.821                  
  25214220.106 7 132501674.722 7      -995.890 7        45.696                  
  20408678.493 9 107248328.545 9       772.000 9        56.887                  
 02  5 18 00 04 44.0000000  0  8G01G23G21G16G27G10G30G08                        
  23608659.284 8 124064339.761 8      3374.252 8        48.587                  
  23132627.994 8 121562791.738 8     -2886.612 8        51.000                  
  21703270.945 8 114051461.245 8      1733.141 8        53.507                  
  23640159.369 8 124229875.516 8     -3779.283 8        49.305                  
  20544950.092 9 107964419.453 9     -1514.168 9        56.669                  
  21353642.497 8 112214155.168 8      -953.054 8        53.535                  
  25214411.751 7 132502669.139 7      -994.417 7        47.432                  
  20408530.841 9 107247556.428 9       771.202 9        57.655                  
 02  5 18 00 04 45.0000000  0  8G01G23G21G16G27G10G30G08                        
  23608016.750 8 124060969.572 8      3368.031 8        48.099                  
  23133178.717 8 121565676.276 8     -2882.389 8        49.133                  
  21702943.423 8 114049728.847 8      1731.089 8        53.549                  
  23640879.598 8 124233654.911 8     -3779.547 8        50.182                  
  20545239.606 9 107965933.302 9     -1512.760 9        56.961                  
  21353823.563 8 112215105.670 8      -950.403 8        52.637                  
  25214609.919 7 132503666.717 7      -996.185 7        47.415                  
  20408383.601 9 107246785.642 9       769.205 9        55.622                  
 02  5 18 00 04 46.0000000  0  8G01G23G21G16G27G10G30G08                        
  23607376.360 8 124057606.109 8      3358.851 8        48.298                  
  23133726.689 8 121568555.421 8     -2875.715 8        48.404                  
  21702617.528 8 114048001.354 8      1721.001 8        52.251                  
  23641599.255 8 124237436.934 8     -3782.265 8        48.615                  
  20545528.352 9 107967446.102 9     -1511.536 9        56.553                  
  21354005.917 9 112216052.820 9      -944.049 9        54.584                  
  25214796.900 7 132504668.746 7     -1005.982 7        46.444                  
  20408237.075 9 107246016.576 9       767.932 9        56.488                  
 02  5 18 00 04 47.0000000  0  8G01G23G21G16G27G10G30G08                        
  23606739.240 8 124054250.246 8      3353.293 8        51.161                  
  23134272.480 8 121571428.653 8     -2871.206 8        50.164                  
  21702289.239 8 114046279.480 8      1721.674 8        52.624                  
  23642318.734 7 124241221.376 7     -3785.107 7        47.811                  
  20545816.847 9 107968957.523 9     -1510.922 9        58.279                  
  21354186.465 8 112216996.066 8      -941.419 8        53.046                  
  25214982.256 8 132505676.169 8     -1009.524 8        48.061                  
  20408090.298 9 107245249.451 9       766.583 9        55.496                  
 02  5 18 00 04 48.0000000  0  8G01G23G21G16G27G10G30G08                        
  23606100.744 8 124050898.926 8      3350.034 8        49.347                  
  23134820.005 8 121574298.687 8     -2869.245 8        51.795                  
  21701959.108 8 114044561.055 8      1716.547 8        52.210                  
  23643038.337 8 124245007.020 8     -3783.113 8        48.736                  
  20546104.270 9 107970468.215 9     -1510.127 9        55.805                  
  21354363.226 8 112217937.222 8      -939.866 8        52.912                  
  25215182.067 7 132506687.256 7     -1013.164 7        46.969                  
  20407944.130 9 107244483.746 9       764.797 9        56.478                  
 02  5 18 00 04 49.0000000  0  8G01G23G21G16G27G10G30G08                        
  23605463.320 8 124047554.719 8      3335.412 8        49.535                  
  23135364.117 8 121577163.747 8     -2861.453 8        51.011                  
  21701631.623 8 114042847.967 8      1709.994 8        53.035                  
  23643759.173 8 124248793.979 8     -3786.633 8        49.234                  
  20546390.425 9 107971977.342 9     -1507.641 9        56.284                  
  21354540.469 8 112218874.827 8      -935.359 8        52.549                  
  25215376.017 7 132507704.204 7     -1019.019 7        46.345                  
  20407798.140 9 107243720.094 9       762.323 9        58.429                  
 02  5 18 00 04 50.0000000  0  8G01G23G21G16G27G10G30G08                        
  23604828.827 8 124044219.917 8      3331.371 8        50.759                  
  23135907.174 8 121580022.393 8     -2854.225 8        48.782                  
  21701307.407 8 114041142.026 8      1702.339 8        51.696                  
  23644480.957 8 124252581.855 8     -3790.962 8        48.214                  
  20546674.721 9 107973483.982 9     -1505.248 9        56.241                  
  21354717.658 8 112219807.472 8      -930.695 8        52.465                  
  25215561.891 7 132508729.522 7     -1029.431 7        45.803                  
  20407652.650 9 107242959.157 9       759.768 9        56.888                  
 02  5 18 00 04 51.0000000  0  8G01G23G21G16G27G10G30G08                        
  23604197.139 8 124040893.691 8      3323.283 8        48.237                  
  23136452.429 8 121582875.944 8     -2855.300 8        50.065                  
  21700985.336 8 114039442.721 8      1696.240 8        51.528                  
  23645202.240 7 124256369.151 7     -3782.890 7        47.596                  
  20546959.053 9 107974987.936 9     -1500.663 9        56.082                  
  21354896.723 9 112220735.744 9      -925.919 9        56.211                  
  25215761.577 7 132509763.694 7     -1042.283 7        47.403                  
  20407507.447 9 107242200.998 9       756.041 9        57.550                  
 02  5 18 00 04 52.0000000  0  8G01G23G21G16G27G10G30G08                        
  23603564.951 7 124037569.321 7      3328.598 7        47.616                  
  23136995.272 8 121585736.470 8     -2867.969 8        50.199                  
  21700665.909 8 114037746.795 8      1697.933 8        52.879                  
  23645919.288 8 124260140.920 8     -3764.210 8        50.038                  
  20547243.206 9 107976486.971 9     -1497.174 9        55.422                  
  21355074.395 9 112221663.983 9      -930.931 9        55.125                  
  25215968.483 7 132510813.512 7     -1056.521 7        46.497                  
  20407362.868 9 107241446.842 9       752.815 9        57.333                  
 02  5 18 00 04 53.0000000  0  8G01G23G21G16G27G10G30G08                        
  23602929.439 8 124034235.837 8      3334.900 8        48.063                  
  23137542.869 8 121588615.349 8     -2886.362 8        51.420                  
  21700343.284 8 114036047.031 8      1702.622 8        52.723                  
  23646631.565 8 124263889.374 8     -3740.109 8        49.277                  
  20547527.252 9 107977982.394 9     -1495.202 9        56.716                  
  21355251.263 9 112222598.851 9      -940.940 9        54.690                  
  25216162.397 8 132511875.654 8     -1067.406 8        49.132                  
  20407219.005 9 107240695.478 9       750.260 9        57.610                  
 02  5 18 00 04 54.0000000  0  8G01G23G21G16G27G10G30G08                        
  23602292.265 8 124030889.888 8      3354.587 8        48.331                  
  23138096.022 8 121591514.573 8     -2909.978 8        50.238                  
  21700015.852 8 114034340.780 8      1710.429 8        53.330                  
  23647341.787 8 124267615.318 8     -3716.624 8        49.139                  
  20547811.870 9 107979475.692 9     -1492.014 9        57.680                  
  21355428.648 9 112223542.392 9      -949.121 9        54.853                  
  25216369.499 8 132512946.302 8     -1073.514 8        48.898                  
  20407077.661 9 107239945.853 9       749.344 9        56.397                  
 02  5 18 00 04 55.0000000  0  8G01G23G21G16G27G10G30G08                        
  23601654.716 8 124027534.630 8      3356.861 8        48.056                  
  23138650.373 8 121594428.545 8     -2915.563 8        49.758                  
  21699687.277 8 114032629.609 8      1710.534 8        53.540                  
  23648047.721 8 124271325.576 8     -3710.880 8        49.708                  
  20548098.972 9 107980967.836 9     -1492.176 9        57.070                  
  21355608.250 8 112224492.555 8      -950.093 8        53.467                  
  25216578.335 7 132514022.501 7     -1077.554 7        45.484                  
  20406937.193 9 107239197.410 9       748.449 9        54.765                  
 02  5 18 00 04 56.0000000  0  8G01G23G21G16G27G10G30G08                        
  23601016.631 7 124024178.962 7      3355.985 7        47.410                  
  23139202.937 8 121597343.756 8     -2914.977 8        50.032                  
  21699361.310 8 114030918.418 8      1712.028 8        52.605                  
  23648753.011 8 124275035.067 8     -3708.726 8        49.990                  
  20548384.554 9 107982460.372 9     -1492.970 9        56.000                  
  21355792.783 8 112225443.666 8      -950.346 8        53.284                  
  25216774.965 7 132515099.473 7     -1079.168 7        46.766                  
  20406796.617 9 107238449.490 9       746.961 9        57.235                  
 02  5 18 00 04 57.0000000  0  8G01G23G21G16G27G10G30G08                        
  23600376.867 7 124020823.472 7      3354.430 7        47.478                  
  23139760.271 8 121600259.320 8     -2916.978 8        49.704                  
  21699038.720 8 114029207.528 8      1710.504 8        52.378                  
  23649459.213 8 124278744.728 8     -3707.184 8        48.497                  
  20548670.048 9 107983953.373 9     -1493.846 9        55.666                  
  21355974.904 8 112226395.375 8      -952.302 8        53.245                  
  25216989.036 7 132516176.968 7     -1075.637 7        44.993                  
  20406655.470 9 107237702.049 9       747.774 9        57.230                  
 02  5 18 00 04 58.0000000  0  8G01G23G21G16G27G10G30G08                        
  23599737.996 8 124017468.146 8      3358.906 8        49.506                  
  23140314.569 8 121603175.244 8     -2916.151 8        48.741                  
  21698715.827 8 114027496.971 8      1709.970 8        51.731                  
  23650165.861 8 124282454.570 8     -3712.001 8        48.138                  
  20548954.719 9 107985446.851 9     -1492.703 9        55.791                  
  21356154.506 8 112227347.712 8      -951.449 8        52.836                  
  25217191.617 7 132517254.970 7     -1081.525 7        45.335                  
  20406515.108 9 107236955.082 9       746.086 9        54.905                  
 02  5 18 00 04 59.0000000  0  8G01G23G21G16G27G10G30G08                        
  23599101.126 8 124014112.987 8      3355.758 8        48.351                  
  23140868.240 8 121606091.559 8     -2916.091 8        50.827                  
  21698390.271 8 114025786.696 8      1710.434 8        51.013                  
  23650871.366 8 124286164.567 8     -3710.686 8        48.476                  
  20549238.122 9 107986940.805 9     -1493.755 9        54.470                  
  21356333.965 8 112228300.673 8      -954.095 8        52.782                  
  25217391.947 7 132518333.474 7     -1076.690 7        45.167                  
  20406374.461 9 107236208.617 9       745.475 9        54.290                  
