     2.11           OBSERVATION DATA    G                   RINEX VERSION / TYPE
BLANK OR G = GPS,  R = GLONASS,  E = GALILEO,  M = MIXED    COMMENT             
GNSS-SDR            joel                 6-MAY-25 12:49     PGM / RUN BY / DATE 
GPS OBSERVATION DATA FILE GENERATED BY GNSS-SDR             COMMENT             
GNSS-SDR VERSION 0.0.16                                     COMMENT             
See https://gnss-sdr.org                                    COMMENT             
DEFAULT MARKER NAME                                         MARKER NAME         
joel                CTTC                                    OBSERVER / AGENCY   
GNSS-SDR            Software Receiver   0.0.16              REC # / TYPE / VERS 
Antenna number      Antenna type                            ANT # / TYPE        
        0.0000        0.0000        0.0000                  APPROX POSITION XYZ 
        0.0000        0.0000        0.0000                  ANTENNA: DELTA H/E/N
     1     1                                                WAVELENGTH FACT L1/2
     4    C1    L1    D1    S1                              # / TYPES OF OBSERV 
  2002    05    18    00    00   42.1200000     GPS         TIME OF FIRST OBS   
    18                                                      LEAP SECONDS        
                                                            END OF HEADER       
 02  5 18 00 00 43.0000000  0  8G01G10G23G16G21G27G07G08                        
  23763610.517 7 124878615.129 7      3398.650 7        46.766                  
  21313644.904 9 112003970.881 9      -796.912 9        54.661                  
  23001131.945 8 120871770.131 8     -2817.795 8        49.699                  
  23471206.221 8 123342021.968 8     -3664.463 8        49.436                  
  21783603.639 8 114473610.642 8      1786.582 8        53.412                  
  20479393.186 9 107619904.333 9     -1372.423 9        54.039                  
  24961662.731 7 131174429.740 7     -1907.851 7        46.018                  
  20445717.404 9 107442974.727 9       867.810 9        56.106                  
 02  5 18 00 00 44.0000000  0  8G01G10G23G16G21G27G07G08                        
  23762963.622 7 124875218.031 7      3399.230 7        46.471                  
  21313797.166 8 112004769.285 8      -798.018 8        53.900                  
  23001669.552 8 120874589.404 8     -2820.640 8        50.231                  
  23471903.774 8 123345685.723 8     -3662.382 8        50.779                  
  21783268.363 9 114471823.452 9      1787.026 9        54.191                  
  20479648.373 9 107621276.885 9     -1372.214 9        55.026                  
  24962022.595 7 131176334.254 7     -1906.794 7        45.619                  
  20445554.921 9 107442106.847 9       867.796 9        56.743                  
 02  5 18 00 00 45.0000000  0  8G01G10G23G16G21G27G07G08                        
  23762318.872 7 124871821.092 7      3398.201 7        47.325                  
  21313949.839 9 112005568.286 9      -798.643 9        54.789                  
  23002205.247 8 120877409.088 8     -2822.011 8        51.403                  
  23472599.504 8 123349349.679 8     -3664.483 8        50.667                  
  21782928.780 8 114470036.567 8      1785.729 8        53.303                  
  20479908.654 9 107622649.915 9     -1374.172 9        55.331                  
  24962386.748 7 131178239.105 7     -1904.828 7        46.913                  
  20445392.098 9 107441239.432 9       867.087 9        58.100                  
 02  5 18 00 00 46.0000000  0  8G01G10G23G16G21G27G07G08                        
  23761671.245 8 124868424.308 8      3399.860 8        48.365                  
  21314102.762 9 112006367.884 9      -799.447 9        54.218                  
  23002744.535 8 120880229.153 8     -2819.800 8        50.963                  
  23473298.147 8 123353013.828 8     -3665.189 8        49.316                  
  21782584.301 8 114468249.974 8      1785.666 8        53.361                  
  20480175.724 9 107624023.420 9     -1374.115 9        56.588                  
  24962749.239 7 131180144.321 7     -1906.193 7        44.881                  
  20445229.705 9 107440372.495 9       866.424 9        56.863                  
 02  5 18 00 00 47.0000000  0  8G01G10G23G16G21G27G07G08                        
  23761024.547 7 124865027.690 7      3399.022 7        47.806                  
  21314254.560 8 112007168.135 8      -800.977 8        53.817                  
  23003277.996 8 120883049.631 8     -2821.579 8        50.209                  
  23473995.253 8 123356678.152 8     -3664.131 8        50.224                  
  21782245.075 8 114466463.686 8      1785.691 8        52.045                  
  20480437.898 9 107625397.402 9     -1373.975 9        56.300                  
  24963110.086 7 131182049.896 7     -1907.639 7        45.342                  
  20445066.114 9 107439506.035 9       866.123 9        56.079                  
 02  5 18 00 00 48.0000000  0  8G01G10G23G16G21G27G07G08                        
  23760379.190 7 124861631.226 7      3397.901 7        47.221                  
  21314407.661 9 112007968.982 9      -800.654 9        56.989                  
  23003815.479 8 120885870.458 8     -2822.830 8        50.673                  
  23474691.305 8 123360342.693 8     -3665.738 8        50.286                  
  21781907.601 8 114464677.690 8      1787.299 8        52.471                  
  20480693.461 9 107626771.862 9     -1374.545 9        57.003                  
  24963476.025 7 131183955.815 7     -1906.181 7        46.095                  
  20444898.860 9 107438640.039 9       865.135 9        57.893                  
 02  5 18 00 00 49.0000000  0  8G01G10G23G16G21G27G07G08                        
  23759732.671 8 124858234.918 8      3395.701 8        48.668                  
  21314560.352 9 112008770.427 9      -801.338 9        57.440                  
  23004353.408 8 120888691.682 8     -2821.188 8        49.436                  
  23475390.395 8 123364007.427 8     -3665.067 8        50.437                  
  21781568.072 8 114462891.998 8      1785.603 8        53.412                  
  20480955.046 9 107628146.798 9     -1375.310 9        55.625                  
  24963835.014 7 131185862.091 7     -1906.672 7        47.052                  
  20444730.891 9 107437774.507 9       865.708 9        56.989                  
 02  5 18 00 00 50.0000000  0  8G01G10G23G16G21G27G07G08                        
  23759085.508 7 124854838.792 7      3397.149 7        47.182                  
  21314713.222 9 112009572.491 9      -802.903 9        56.396                  
  23004888.942 8 120891513.307 8     -2821.248 8        49.866                  
  23476087.055 8 123367672.340 8     -3664.933 8        48.701                  
  21781224.843 8 114461106.602 8      1782.092 8        53.945                  
  20481222.384 9 107629522.211 9     -1376.431 9        57.319                  
  24964200.936 7 131187768.724 7     -1909.258 7        47.907                  
  20444563.851 9 107436909.453 9       864.688 9        58.808                  
 02  5 18 00 00 51.0000000  0  8G01G10G23G16G21G27G07G08                        
  23758440.276 7 124851442.814 7      3398.397 7        47.351                  
  21314866.002 9 112010375.185 9      -802.619 9        55.107                  
  23005427.765 8 120894335.328 8     -2822.160 8        50.084                  
  23476784.304 8 123371337.452 8     -3667.389 8        50.174                  
  21780886.958 8 114459321.500 8      1784.639 8        53.307                  
  20481484.380 9 107630898.100 9     -1375.754 9        55.153                  
  24964561.318 7 131189675.702 7     -1908.738 7        46.808                  
  20444395.757 9 107436044.875 9       864.359 9        54.287                  
 02  5 18 00 00 52.0000000  0  8G01G10G23G16G21G27G07G08                        
  23757794.650 7 124848046.981 7      3396.859 7        47.995                  
  21315019.300 9 112011178.477 9      -803.421 9        54.061                  
  23005962.853 8 120897157.753 8     -2823.306 8        51.069                  
  23477482.911 8 123375002.757 8     -3667.767 8        49.518                  
  21780550.556 8 114457536.711 8      1782.856 8        51.690                  
  20481740.425 9 107632274.467 9     -1376.286 9        58.592                  
  24964925.775 7 131191583.040 7     -1906.371 7        45.612                  
  20444231.970 9 107435180.764 9       863.635 9        56.044                  
 02  5 18 00 00 53.0000000  0  8G01G10G23G16G21G27G07G08                        
  23757147.237 8 124844651.333 8      3396.064 8        48.443                  
  21315172.366 9 112011982.366 9      -804.671 9        54.714                  
  23006501.532 8 120899980.564 8     -2822.851 8        49.606                  
  23478179.374 8 123378668.260 8     -3665.545 8        49.891                  
  21780208.382 8 114455752.243 8      1783.239 8        51.520                  
  20482002.867 9 107633651.310 9     -1377.096 9        57.182                  
  24965289.374 7 131193490.733 7     -1904.287 7        46.894                  
  20444070.148 9 107434317.115 9       863.751 9        57.514                  
 02  5 18 00 00 54.0000000  0  8G01G10G23G16G21G27G07G08                        
  23756501.415 7 124841255.830 7      3396.245 7        47.154                  
  21315325.575 9 112012786.873 9      -803.455 9        54.375                  
  23007037.460 8 120902803.774 8     -2822.275 8        50.427                  
  23478876.749 8 123382333.952 8     -3664.835 8        50.315                  
  21779866.190 8 114453968.060 8      1784.921 8        53.936                  
  20482270.349 9 107635028.630 9     -1376.797 9        57.764                  
  24965649.703 7 131195398.772 7     -1907.810 7        46.853                  
  20443907.915 9 107433453.946 9       862.346 9        55.141                  
 02  5 18 00 00 55.0000000  0  8G01G10G23G16G21G27G07G08                        
  23755855.593 8 124837860.477 8      3393.450 8        48.756                  
  21315479.106 9 112013592.013 9      -805.247 9        54.034                  
  23007574.531 8 120905627.370 8     -2823.370 8        49.793                  
  23479575.124 8 123385999.825 8     -3667.169 8        49.841                  
  21779530.163 8 114452184.187 8      1784.359 8        53.446                  
  20482532.309 9 107636406.427 9     -1377.702 9        57.078                  
  24966016.286 7 131197307.170 7     -1909.654 7        47.622                  
  20443745.700 9 107432591.251 9       862.924 9        56.794                  
 02  5 18 00 00 56.0000000  0  8G01G10G23G16G21G27G07G08                        
  23755208.734 7 124834465.312 7      3394.548 7        46.674                  
  21315632.261 9 112014397.749 9      -806.183 9        54.723                  
  23008112.836 8 120908451.337 8     -2824.505 8        51.659                  
  23480272.570 7 123389665.913 7     -3661.444 7        47.498                  
  21779192.885 8 114450400.603 8      1782.869 8        53.994                  
  20482788.979 9 107637784.702 9     -1379.384 9        56.277                  
  24966376.132 7 131199215.917 7     -1910.153 7        46.597                  
  20443584.861 9 107431729.023 9       862.324 9        56.145                  
 02  5 18 00 00 57.0000000  0  8G01G10G23G16G21G27G07G08                        
  23754563.091 8 124831070.292 8      3393.081 8        48.608                  
  21315785.846 9 112015204.081 9      -806.171 9        55.417                  
  23008649.443 8 120911275.702 8     -2823.161 8        50.690                  
  23480969.801 7 123393332.175 7     -3665.060 7        47.214                  
  21778849.425 8 114448617.327 8      1783.567 8        52.040                  
  20483051.868 9 107639163.464 9     -1378.588 9        55.785                  
  24966742.018 7 131201125.015 7     -1912.657 7        45.769                  
  20443422.557 9 107430867.258 9       861.599 9        58.032                  
 02  5 18 00 00 58.0000000  0  8G01G10G23G16G21G27G07G08                        
  23753918.037 8 124827675.425 8      3394.410 8        48.339                  
  21315939.448 9 112016011.032 9      -806.548 9        55.843                  
  23009189.016 8 120914100.464 8     -2826.138 8        50.132                  
  23481668.659 8 123396998.632 8     -3664.167 8        48.295                  
  21778508.537 8 114446834.338 8      1783.292 8        51.964                  
  20483319.636 9 107640542.717 9     -1379.564 9        56.357                  
  24967103.562 7 131203034.474 7     -1909.070 7        45.899                  
  20443256.571 9 107430005.971 9       861.167 9        57.035                  
 02  5 18 00 00 59.0000000  0  8G01G10G23G16G21G27G07G08                        
  23753270.982 8 124824280.739 8      3395.338 8        49.283                  
  21316093.354 9 112016818.615 9      -807.877 9        56.441                  
  23009724.782 8 120916925.628 8     -2824.564 8        49.835                  
  23482364.907 8 123400665.298 8     -3666.674 8        48.737                  
  21778173.458 8 114445051.659 8      1781.686 8        50.869                  
  20483582.078 9 107641922.444 9     -1379.045 9        56.998                  
  24967467.590 7 131204944.277 7     -1904.334 7        44.999                  
  20443090.604 9 107429145.162 9       859.456 9        55.213                  
 02  5 18 00 01  0.0000000  0  8G01G10G23G16G21G27G07G08                        
  23752625.195 8 124820886.197 8      3393.682 8        49.528                  
  21316246.938 9 112017626.795 9      -808.972 9        57.284                  
  23010263.426 8 120919751.186 8     -2824.625 8        51.351                  
  23483062.639 8 123404332.127 8     -3664.419 8        48.603                  
  21777835.036 8 114443269.266 8      1782.130 8        52.537                  
  20483839.106 9 107643302.650 9     -1379.842 9        57.515                  
  24967832.118 7 131206854.442 7     -1908.844 7        47.152                  
  20442924.118 9 107428284.816 9       859.942 9        56.756                  
 02  5 18 00 01  1.0000000  0  8G01G10G23G16G21G27G07G08                        
  23751980.302 8 124817491.819 8      3390.788 8        50.022                  
  21316401.022 9 112018435.570 9      -809.395 9        55.355                  
  23010801.963 8 120922577.139 8     -2828.057 8        49.820                  
  23483761.890 8 123407999.172 8     -3669.929 8        49.540                  
  21777492.398 9 114441487.194 9      1782.201 9        54.308                  
  20484102.049 9 107644683.331 9     -1380.484 9        56.633                  
  24968193.090 7 131208764.949 7     -1910.824 7        46.927                  
  20442756.989 9 107427424.935 9       858.891 9        56.529                  
 02  5 18 00 01  2.0000000  0  8G01G10G23G16G21G27G07G08                        
  23751333.551 8 124814097.607 8      3394.172 8        49.314                  
  21316555.268 9 112019244.968 9      -809.801 9        54.447                  
  23011337.730 8 120925403.443 8     -2826.550 8        50.014                  
  23484458.442 8 123411666.410 8     -3668.565 8        49.174                  
  21777152.725 8 114439705.433 8      1781.607 8        50.998                  
  20484370.316 9 107646064.491 9     -1381.511 9        55.471                  
  24968560.156 7 131210675.817 7     -1916.560 7        45.270                  
  20442591.504 9 107426565.531 9       859.130 9        57.172                  
 02  5 18 00 01  3.0000000  0  8G01G10G23G16G21G27G07G08                        
  23750687.049 8 124810703.554 8      3391.547 8        48.946                  
  21316709.531 9 112020054.993 9      -811.026 9        55.417                  
  23011877.928 8 120928230.165 8     -2826.588 8        51.020                  
  23485156.585 8 123415333.821 8     -3665.757 8        51.245                  
  21776817.913 8 114437923.968 8      1780.388 8        51.796                  
  20484633.491 9 107647446.127 9     -1382.226 9        55.342                  
  24968920.341 7 131212587.025 7     -1911.025 7        44.475                  
  20442429.772 9 107425706.603 9       859.160 9        55.684                  
 02  5 18 00 01  4.0000000  0  8G01G10G23G16G21G27G07G08                        
  23750042.621 8 124807309.650 8      3394.321 8        48.982                  
  21316863.616 9 112020865.618 9      -811.154 9        54.755                  
  23012413.409 8 120931057.270 8     -2827.070 8        52.874                  
  23485854.942 8 123419001.437 8     -3667.562 8        52.059                  
  21776478.420 9 114436142.802 9      1781.070 9        54.136                  
  20484890.716 9 107648828.239 9     -1382.573 9        55.800                  
  24969286.871 7 131214498.593 7     -1912.936 7        46.212                  
  20442268.397 9 107424848.144 9       857.735 9        56.497                  
 02  5 18 00 01  5.0000000  0  8G01G10G23G16G21G27G07G08                        
  23749396.102 8 124803915.918 8      3396.749 8        48.193                  
  21317017.772 9 112021676.834 9      -811.458 9        55.896                  
  23012953.036 8 120933884.777 8     -2828.923 8        50.786                  
  23486552.012 8 123422669.246 8     -3667.779 8        49.304                  
  21776135.067 8 114434361.934 8      1780.514 8        53.828                  
  20485153.355 9 107650210.829 9     -1383.436 9        56.059                  
  24969649.791 7 131216410.508 7     -1909.746 7        46.536                  
  20442107.450 9 107423990.145 9       857.933 9        56.536                  
 02  5 18 00 01  6.0000000  0  8G01G10G23G16G21G27G07G08                        
  23748750.119 8 124800522.340 8      3393.287 8        48.327                  
  21317171.624 9 112022488.673 9      -812.962 9        56.006                  
  23013490.911 8 120936712.682 8     -2829.848 8        48.915                  
  23487250.995 8 123426337.245 8     -3668.431 8        49.070                  
  21775797.521 8 114432581.365 8      1779.856 8        51.950                  
  20485422.141 9 107651593.895 9     -1384.073 9        57.154                  
  24970012.585 7 131218322.779 7     -1909.617 7        45.746                  
  20441946.379 9 107423132.627 9       856.945 9        57.542                  
 02  5 18 00 01  7.0000000  0  8G01G10G23G16G21G27G07G08                        
  23748104.833 8 124797128.928 8      3391.401 8        49.548                  
  21317325.780 9 112023301.143 9      -812.083 9        54.894                  
  23014028.751 8 120939540.984 8     -2827.131 8        49.285                  
  23487949.102 8 123430005.433 8     -3667.893 8        50.083                  
  21775462.369 8 114430801.093 8      1781.404 8        52.903                  
  20485686.638 9 107652977.437 9     -1383.016 9        56.525                  
  24970379.454 7 131220235.395 7     -1911.840 7        46.180                  
  20441785.808 9 107422275.583 9       856.718 9        57.378                  
 02  5 18 00 01  8.0000000  0  8G01G10G23G16G21G27G07G08                        
  23747458.850 8 124793735.681 8      3393.239 8        48.590                  
  21317480.133 9 112024114.211 9      -813.595 9        57.636                  
  23014567.931 8 120942369.642 8     -2828.145 8        50.016                  
  23488646.691 8 123433673.814 8     -3668.020 8        50.619                  
  21775123.269 8 114429021.121 8      1779.381 8        52.524                  
  20485944.059 9 107654361.457 9     -1384.826 9        56.573                  
  24970739.462 8 131222148.370 8     -1912.233 8        48.121                  
  20441624.558 9 107421419.015 9       856.276 9        59.414                  
 02  5 18 00 01  9.0000000  0  8G01G10G23G16G21G27G07G08                        
  23746812.563 8 124790342.577 8      3394.747 8        48.088                  
  21317634.092 9 112024927.875 9      -813.334 9        55.935                  
  23015105.038 8 120945198.689 8     -2831.173 8        50.544                  
  23489344.708 8 123437342.381 8     -3663.516 8        48.595                  
  21774779.791 8 114427241.442 8      1779.878 8        53.734                  
  20486206.358 9 107655745.954 9     -1384.645 9        55.351                  
  24971108.082 7 131224061.696 7     -1914.325 7        47.623                  
  20441460.038 9 107420562.915 9       856.062 9        57.646                  
 02  5 18 00 01 10.0000000  0  8G01G10G23G16G21G27G07G08                        
  23746168.617 8 124786949.644 8      3393.820 8        49.911                  
  21317788.356 9 112025742.146 9      -814.534 9        54.974                  
  23015645.648 8 120948028.145 8     -2827.936 8        50.357                  
  23490043.655 8 123441011.147 8     -3668.168 8        49.212                  
  21774442.727 8 114425462.080 8      1779.628 8        53.855                  
  20486475.252 9 107657130.928 9     -1386.217 9        55.703                  
  24971468.911 8 131225975.373 8     -1911.222 8        48.166                  
  20441295.267 9 107419707.280 9       855.337 9        57.124                  
 02  5 18 00 01 11.0000000  0  8G01G10G23G16G21G27G07G08                        
  23745521.705 7 124783556.874 7      3393.555 7        47.299                  
  21317943.798 9 112026557.061 9      -815.277 9        55.938                  
  23016181.450 8 120950857.997 8     -2827.782 8        50.649                  
  23490740.333 8 123444680.099 8     -3669.419 8        50.728                  
  21774108.398 8 114423683.024 8      1778.112 8        51.645                  
  20486740.767 9 107658516.377 9     -1385.632 9        56.855                  
  24971834.779 8 131227889.396 8     -1911.729 8        48.346                  
  20441129.550 9 107418852.119 9       855.012 9        56.847                  
 02  5 18 00 01 12.0000000  0  8G01G10G23G16G21G27G07G08                        
  23744875.686 8 124780164.264 8      3391.739 8        49.600                  
  21318098.276 9 112027372.573 9      -816.072 9        57.118                  
  23016721.130 8 120953688.234 8     -2830.704 8        51.034                  
  23491439.780 8 123448349.240 8     -3667.422 8        51.448                  
  21773768.118 8 114421904.279 8      1777.945 8        53.210                  
  20486998.975 9 107659902.305 9     -1386.356 9        56.117                  
  24972197.681 7 131229803.772 7     -1910.296 7        47.589                  
  20440964.565 9 107417997.437 9       855.027 9        57.341                  
 02  5 18 00 01 13.0000000  0  8G01G10G23G16G21G27G07G08                        
  23744230.435 8 124776771.821 8      3392.402 8        49.000                  
  21318253.433 9 112028188.678 9      -816.638 9        57.566                  
  23017260.328 8 120956518.862 8     -2832.052 8        50.506                  
  23492138.244 8 123452018.574 8     -3669.563 8        50.635                  
  21773425.605 8 114420125.820 8      1778.419 8        52.610                  
  20487260.613 9 107661288.709 9     -1386.021 9        57.498                  
  24972563.871 7 131231718.505 7     -1914.233 7        46.650                  
  20440798.759 9 107417143.230 9       854.444 9        55.990                  
 02  5 18 00 01 14.0000000  0  8G01G10G23G16G21G27G07G08                        
  23743586.186 8 124773379.527 8      3390.530 8        48.457                  
  21318409.054 9 112029005.392 9      -818.156 9        54.547                  
  23017797.507 8 120959349.867 8     -2830.196 8        50.616                  
  23492834.922 8 123455688.110 8     -3668.624 8        50.233                  
  21773090.274 8 114418347.666 8      1777.617 8        52.113                  
  20487529.988 9 107662675.590 9     -1386.142 9        56.654                  
  24972928.149 7 131233633.593 7     -1915.652 7        46.455                  
  20440636.437 9 107416289.477 9       852.999 9        54.588                  
 02  5 18 00 01 15.0000000  0  8G01G10G23G16G21G27G07G08                        
  23742939.774 8 124769987.394 8      3393.185 8        48.402                  
  21318564.371 9 112029822.752 9      -817.842 9        55.267                  
  23018338.384 8 120962181.268 8     -2830.886 8        50.225                  
  23493534.744 8 123459357.823 8     -3671.282 8        49.086                  
  21772755.034 8 114416569.803 8      1777.588 8        52.801                  
  20487796.291 9 107664062.947 9     -1387.743 9        56.225                  
  24973289.425 7 131235549.025 7     -1916.869 7        46.970                  
  20440476.455 9 107415436.200 9       853.888 9        55.975                  
 02  5 18 00 01 16.0000000  0  8G01G10G23G16G21G27G07G08                        
  23742293.219 7 124766595.436 7      3391.460 7        47.473                  
  21318720.118 9 112030640.705 9      -818.158 9        55.526                  
  23018874.759 8 120965013.065 8     -2832.919 8        50.722                  
  23494232.583 8 123463027.741 8     -3667.587 8        49.646                  
  21772413.432 8 114414792.252 8      1777.282 8        52.671                  
  20488055.677 9 107665450.782 9     -1387.676 9        57.322                  
  24973656.651 7 131237464.800 7     -1915.740 7        46.612                  
  20440316.045 9 107414583.400 9       853.211 9        56.873                  
 02  5 18 00 01 17.0000000  0  8G01G10G23G16G21G27G07G08                        
  23741649.559 7 124763203.628 7      3393.333 7        46.760                  
  21318875.739 9 112031459.256 9      -818.447 9        55.760                  
  23019415.404 8 120967845.258 8     -2832.011 8        50.330                  
  23494930.601 8 123466697.840 8     -3667.110 8        50.532                  
  21772072.705 8 114413014.985 8      1777.723 8        53.996                  
  20488316.762 9 107666839.094 9     -1389.205 9        58.699                  
  24974018.856 8 131239380.935 8     -1917.829 8        49.362                  
  20440155.921 9 107413731.078 9       851.649 9        57.657                  
 02  5 18 00 01 18.0000000  0  8G01G10G23G16G21G27G07G08                        
  23741004.219 8 124759811.974 8      3389.539 8        48.198                  
  21319031.807 9 112032278.404 9      -819.768 9        55.336                  
  23019953.762 8 120970677.836 8     -2829.962 8        49.881                  
  23495629.959 8 123470368.125 8     -3668.615 8        49.758                  
  21771737.161 8 114411238.020 8      1778.791 8        53.317                  
  20488585.333 9 107668227.882 9     -1387.889 9        57.123                  
  24974387.816 7 131241297.416 7     -1917.035 7        47.985                  
  20439995.314 9 107412879.220 9       851.385 9        57.616                  
 02  5 18 00 01 19.0000000  0  8G01G10G23G16G21G27G07G08                        
  23740357.736 7 124756420.505 7      3394.578 7        47.612                  
  21319187.107 9 112033098.206 9      -821.555 9        54.964                  
  23020492.888 8 120973510.788 8     -2833.230 8        50.412                  
  23496328.208 8 123474038.616 8     -3670.302 8        50.876                  
  21771402.241 8 114409461.368 8      1776.606 8        52.888                  
  20488852.939 9 107669617.147 9     -1389.820 9        57.026                  
  24974749.824 8 131243214.253 8     -1918.716 8        48.254                  
  20439836.226 9 107412027.828 9       851.413 9        56.800                  
 02  5 18 00 01 20.0000000  0  8G01G10G23G16G21G27G07G08                        
  23739713.254 7 124753029.119 7      3388.723 7        46.936                  
  21319344.569 8 112033918.642 8      -821.276 8        53.314                  
  23021032.961 8 120976344.321 8     -2833.946 8        50.908                  
  23497025.583 8 123477708.980 8     -3667.804 8        50.341                  
  21771060.764 8 114407685.005 8      1776.987 8        50.934                  
  20489114.185 9 107671006.828 9     -1389.176 9        55.760                  
  24975115.174 7 131245131.524 7     -1921.286 7        47.058                  
  20439675.726 9 107411176.972 9       850.111 9        56.965                  
 02  5 18 00 01 21.0000000  0  8G01G10G23G16G21G27G07G08                        
  23739067.985 7 124749635.300 7      3393.849 7        46.829                  
  21319501.137 9 112034740.996 9      -824.501 9        54.529                  
  23021572.606 8 120979186.406 8     -2848.712 8        51.015                  
  23497722.778 8 123481366.053 8     -3645.269 8        50.182                  
  21770720.735 8 114405908.586 8      1776.807 8        51.622                  
  20489374.000 9 107672393.935 9     -1385.535 9        55.615                  
  24975482.597 7 131247053.079 7     -1926.580 7        46.547                  
  20439512.672 9 107410328.990 9       846.206 9        56.193                  
 02  5 18 00 01 22.0000000  0  8G01G10G23G16G21G27G07G08                        
  23738418.982 7 124746237.248 7      3401.182 7        47.540                  
  21319659.475 8 112035566.197 8      -826.485 8        53.647                  
  23022116.628 8 120982042.770 8     -2862.706 8        50.762                  
  23498414.274 8 123485000.452 8     -3626.734 8        49.954                  
  21770385.512 8 114404131.830 8      1776.070 8        53.968                  
  20489640.231 9 107673776.334 9     -1380.712 9        56.509                  
  24975847.393 7 131248981.648 7     -1930.368 7        46.072                  
  20439350.385 9 107409485.537 9       841.489 9        56.189                  
 02  5 18 00 01 23.0000000  0  8G01G10G23G16G21G27G07G08                        
  23737771.981 7 124742834.967 7      3403.649 7        47.995                  
  21319817.490 9 112036394.283 9      -830.098 9        54.833                  
  23022663.134 8 120984913.357 8     -2876.513 8        49.273                  
  23499100.998 8 123488612.138 8     -3603.339 8        49.525                  
  21770049.860 8 114402354.750 8      1777.759 8        52.805                  
  20489906.497 9 107675154.034 9     -1376.084 9        55.917                  
  24976220.213 7 131250917.256 7     -1940.268 7        45.966                  
  20439188.813 9 107408646.624 9       836.511 9        56.845                  
 02  5 18 00 01 24.0000000  0  8G01G10G23G16G21G27G07G08                        
  23737127.249 8 124739429.595 8      3403.926 8        49.155                  
  21319975.953 9 112037224.671 9      -830.342 9        56.634                  
  23023209.355 8 120987794.634 8     -2881.563 8        50.626                  
  23499786.490 8 123492207.006 8     -3595.065 8        50.586                  
  21769707.919 8 114400577.510 8      1777.779 8        53.910                  
  20490165.383 9 107676528.342 9     -1375.021 9        56.135                  
  24976584.508 7 131252858.138 7     -1943.353 7        45.532                  
  20439028.028 9 107407811.191 9       835.859 9        54.859                  
 02  5 18 00 01 25.0000000  0  8G01G10G23G16G21G27G07G08                        
  23736474.726 8 124736024.126 8      3404.252 8        48.915                  
  21320134.308 9 112038055.810 9      -830.852 9        55.861                  
  23023759.899 8 120990677.041 8     -2881.485 8        49.876                  
  23500470.981 8 123495800.823 8     -3592.864 8        49.945                  
  21769367.800 8 114398800.551 8      1775.836 8        53.419                  
  20490422.465 9 107677902.825 9     -1374.985 9        55.549                  
  24976956.863 7 131254799.715 7     -1943.986 7        47.111                  
  20438867.939 9 107406976.429 9       835.865 9        56.576                  
 02  5 18 00 01 26.0000000  0  8G01G10G23G16G21G27G07G08                        
  23735826.652 8 124732618.854 8      3404.256 8        50.263                  
  21320292.735 9 112038887.580 9      -830.988 9        56.909                  
  23024308.889 8 120993559.880 8     -2882.516 8        51.635                  
  23501154.953 8 123499394.814 8     -3594.455 8        49.077                  
  21769033.613 8 114397023.916 8      1776.992 8        53.860                  
  20490687.552 9 107679277.761 9     -1375.108 9        55.480                  
  24977323.553 7 131256741.621 7     -1943.625 7        47.864                  
  20438706.582 9 107406142.141 9       833.968 9        57.309                  
 02  5 18 00 01 27.0000000  0  8G01G10G23G16G21G27G07G08                        
  23735180.329 7 124729213.789 7      3403.293 7        47.701                  
  21320451.483 9 112039719.960 9      -833.467 9        55.923                  
  23024855.789 8 120996443.092 8     -2881.782 8        50.835                  
  23501835.781 7 123502988.998 7     -3594.239 7        47.945                  
  21768697.354 8 114395247.613 8      1776.221 8        51.996                  
  20490953.086 9 107680653.160 9     -1374.230 9        55.735                  
  24977695.122 8 131258683.881 8     -1941.255 8        49.740                  
  20438546.529 9 107405308.298 9       833.537 9        55.856                  
 02  5 18 00 01 28.0000000  0  8G01G10G23G16G21G27G07G08                        
  23734531.934 7 124725809.023 7      3404.599 7        45.160                  
  21320610.267 9 112040552.899 9      -831.748 9        55.109                  
  23025405.833 8 120999326.611 8     -2885.068 8        52.056                  
  23502520.969 7 123506583.360 7     -3594.450 7        47.311                  
  21768355.680 8 114393471.730 8      1774.825 8        53.974                  
  20491211.472 9 107682028.968 9     -1375.112 9        55.226                  
  24978061.687 8 131260626.622 8     -1945.117 8        49.461                  
  20438388.424 9 107404474.941 9       832.865 9        56.354                  
 02  5 18 00 01 29.0000000  0  8G01G10G23G16G21G27G07G08                        
  23733884.843 7 124722405.210 7      3402.120 7        47.169                  
  21320767.962 8 112041386.014 8      -831.793 8        53.835                  
  23025955.502 8 121002209.919 8     -2884.220 8        49.453                  
  23503204.191 8 123510178.071 8     -3594.479 8        49.183                  
  21768016.383 8 114391696.713 8      1776.058 8        52.701                  
  20491469.322 9 107683405.024 9     -1375.034 9        55.961                  
  24978435.060 8 131262570.427 8     -1943.676 8        48.455                  
  20438231.498 9 107403642.229 9       831.926 9        57.057                  
 02  5 18 00 01 30.0000000  0  8G01G10G23G16G21G27G07G08                        
  23733238.985 8 124719006.540 8      3391.770 8        49.922                  
  21320925.423 9 112042216.986 9      -827.943 9        54.650                  
  23026500.865 8 121005085.016 8     -2868.103 8        50.136                  
  23503891.719 8 123513783.903 8     -3618.099 8        49.873                  
  21767682.786 8 114389924.528 8      1771.051 8        53.068                  
  20491735.445 9 107684783.063 9     -1379.955 9        55.185                  
  24978801.572 7 131264514.500 7     -1940.925 7        46.420                  
  20438074.180 9 107402808.823 9       834.390 9        58.192                  
 02  5 18 00 01 31.0000000  0  8G01G10G23G16G21G27G07G08                        
  23732593.288 8 124715617.811 8      3384.934 8        49.158                  
  21321081.438 8 112043043.119 8      -824.408 8        52.621                  
  23027045.334 8 121007942.340 8     -2849.501 8        51.076                  
  23504582.839 8 123517414.038 8     -3642.329 8        51.145                  
  21767347.617 8 114388157.214 8      1765.188 8        52.517                  
  20492002.176 9 107686165.355 9     -1385.485 9        56.119                  
  24979174.873 7 131266457.438 7     -1942.808 7        45.519                  
  20437915.967 9 107401973.046 9       837.689 9        55.799                  
 02  5 18 00 01 32.0000000  0  8G01G10G23G16G21G27G07G08                        
  23731949.914 8 124712237.555 8      3374.327 8        48.504                  
  21321237.452 8 112043865.256 8      -819.167 8        53.183                  
  23027586.819 8 121010785.256 8     -2839.067 8        50.563                  
  23505275.478 8 123521063.594 8     -3653.322 8        50.728                  
  21767008.910 9 114386394.211 9      1759.125 9        54.498                  
  20492262.492 9 107687550.966 9     -1384.438 9        55.793                  
  24979543.029 7 131268400.037 7     -1952.236 7        44.922                  
  20437759.095 9 107401135.617 9       836.326 9        55.886                  
 02  5 18 00 01 33.0000000  0  8G01G10G23G16G21G27G07G08                        
  23731312.633 8 124708874.229 8      3352.174 8        49.655                  
  21321391.769 9 112044678.070 9      -806.909 9        54.166                  
  23028124.748 8 121013618.448 8     -2827.169 8        49.552                  
  23505969.243 8 123524710.322 8     -3644.396 8        49.073                  
  21766674.009 8 114384644.661 8      1738.720 8        52.066                  
  20492520.985 9 107688930.657 9     -1375.240 9        55.487                  
  24979917.063 7 131270362.543 7     -1972.923 7        46.929                  
  20437602.187 9 107400304.014 9       827.268 9        56.387                  
 02  5 18 00 01 34.0000000  0  8G01G10G23G16G21G27G07G08                        
  23730675.048 8 124705533.461 8      3331.919 8        48.710                  
  21321543.995 8 112045478.193 8      -795.421 8        52.837                  
  23028663.374 8 121016439.434 8     -2816.443 8        51.486                  
  23506663.222 8 123528351.285 8     -3639.279 8        49.688                  
  21766346.559 8 114382913.155 8      1724.342 8        52.470                  
  20492785.483 9 107690301.673 9     -1367.199 9        57.264                  
  24980294.207 7 131272352.441 7     -1998.506 7        46.912                  
  20437446.905 9 107399480.421 9       819.544 9        56.333                  
 02  5 18 00 01 35.0000000  0  8G01G10G23G16G21G27G07G08                        
  23730040.626 8 124702204.951 8      3329.828 8        48.528                  
  21321694.971 9 112046271.798 9      -793.883 9        54.080                  
  23029196.442 8 121019253.789 8     -2815.949 8        52.233                  
  23507355.183 8 123531989.679 8     -3638.065 8        48.901                  
  21766022.576 8 114381191.443 8      1721.464 8        52.260                  
  20493049.390 9 107691668.374 9     -1366.215 9        57.627                  
  24980677.229 7 131274357.002 7     -2004.990 7        47.359                  
  20437291.606 9 107398661.272 9       818.261 9        57.264                  
 02  5 18 00 01 36.0000000  0  8G01G10G23G16G21G27G07G08                        
  23729406.723 8 124698877.370 8      3327.797 8        48.188                  
  21321846.714 9 112047065.542 9      -794.915 9        54.072                  
  23029733.853 8 121022067.662 8     -2811.963 8        51.947                  
  23508049.037 8 123535628.908 8     -3638.069 8        49.403                  
  21765695.322 8 114379470.537 8      1720.312 8        51.576                  
  20493305.489 9 107693035.478 9     -1366.565 9        54.880                  
  24981056.839 7 131276362.425 7     -2009.071 7        46.594                  
  20437136.610 9 107397842.662 9       817.444 9        54.841                  
 02  5 18 00 01 37.0000000  0  8G01G10G23G16G21G27G07G08                        
  23728775.374 7 124695550.060 7      3324.749 7        47.662                  
  21321997.064 9 112047859.832 9      -793.494 9        55.524                  
  23030267.637 8 121024881.791 8     -2813.585 8        50.298                  
  23508739.639 8 123539268.457 8     -3638.208 8        49.602                  
  21765364.013 8 114377750.032 8      1720.784 8        52.817                  
  20493561.874 9 107694403.035 9     -1367.704 9        54.728                  
  24981441.827 7 131278368.229 7     -2005.361 7        46.212                  
  20436982.722 9 107397024.490 9       818.947 9        54.699                  
 02  5 18 00 01 38.0000000  0  8G01G10G23G16G21G27G07G08                        
  23728142.972 8 124692222.948 8      3328.276 8        48.284                  
  21322148.004 9 112048654.755 9      -795.059 9        56.169                  
  23030805.030 8 121027696.288 8     -2813.450 8        49.758                  
  23509433.064 8 123542908.204 8     -3638.592 8        49.545                  
  21765034.740 8 114376029.827 8      1720.386 8        53.702                  
  20493827.318 9 107695771.046 9     -1368.515 9        55.974                  
  24981819.810 7 131280374.385 7     -2006.877 7        47.103                  
  20436827.797 9 107396206.765 9       817.163 9        55.498                  
 02  5 18 00 01 39.0000000  0  8G01G10G23G16G21G27G07G08                        
  23727507.389 7 124688896.000 7      3327.312 7        47.836                  
  21322299.658 9 112049450.301 9      -795.653 9        56.434                  
  23031340.957 8 121030511.146 8     -2814.381 8        49.883                  
  23510127.579 8 123546548.145 8     -3639.897 8        49.796                  
  21764708.559 8 114374309.919 8      1720.646 8        53.036                  
  20494090.529 9 107697139.509 9     -1368.485 9        56.698                  
  24982205.817 8 131282380.905 8     -2007.416 8        48.083                  
  20436670.621 9 107395389.500 9       817.620 9        55.785                  
 02  5 18 00 01 40.0000000  0  8G01G10G23G16G21G27G07G08                        
  23726874.432 7 124685569.250 7      3323.915 7        47.168                  
  21322450.866 9 112050246.439 9      -796.659 9        55.395                  
  23031875.491 8 121033326.418 8     -2814.499 8        50.694                  
  23510818.914 8 123550188.299 8     -3641.872 8        51.047                  
  21764384.111 8 114372590.339 8      1718.199 8        53.251                  
  20494345.555 9 107698508.425 9     -1368.858 9        56.829                  
  24982584.265 8 131284387.781 8     -2004.851 8        48.195                  
  20436514.643 9 107394572.679 9       815.959 9        56.584                  
 02  5 18 00 01 41.0000000  0  8G01G10G23G16G21G27G07G08                        
  23726241.940 8 124682242.740 8      3323.953 8        48.102                  
  21322602.628 9 112051043.150 9      -796.624 9        56.630                  
  23032412.956 8 121036141.988 8     -2814.926 8        50.431                  
  23511510.731 8 123553828.706 8     -3639.911 8        50.039                  
  21764058.698 8 114370871.080 8      1718.475 8        53.217                  
  20494603.959 9 107699877.806 9     -1369.132 9        56.275                  
  24982968.145 7 131286395.027 7     -2008.939 7        46.816                  
  20436358.039 9 107393756.309 9       816.662 9        56.581                  
 02  5 18 00 01 42.0000000  0  8G01G10G23G16G21G27G07G08                        
  23725609.895 7 124678916.786 7      3323.822 7        47.209                  
  21322754.389 9 112051840.270 9      -797.524 9        57.156                  
  23032945.220 8 121038957.428 8     -2815.744 8        51.270                  
  23512204.478 8 123557469.798 8     -3644.108 8        51.116                  
  21763729.694 8 114369152.354 8      1718.462 8        53.684                  
  20494870.261 9 107701247.651 9     -1369.762 9        58.111                  
  24983348.916 7 131288402.773 7     -2007.246 7        44.863                  
  20436202.006 9 107392940.370 9       816.023 9        55.938                  
 02  5 18 00 01 43.0000000  0  8G01G10G23G16G21G27G07G08                        
  23724978.064 7 124675592.346 7      3324.454 7        47.821                  
  21322905.972 8 112052637.229 8      -795.517 8        52.299                  
  23033483.382 8 121041771.567 8     -2815.950 8        50.234                  
  23512897.117 8 123561112.744 8     -3642.711 8        50.613                  
  21763398.545 8 114367434.761 8      1718.220 8        53.400                  
  20495133.311 9 107702618.010 9     -1369.937 9        57.214                  
  24983731.760 7 131290411.487 7     -2012.057 7        45.975                  
  20436045.885 9 107392124.895 9       814.394 9        54.815                  
 02  5 18 00 01 44.0000000  0  8G01G10G23G16G21G27G07G08                        
  23724345.805 8 124672268.866 8      3318.578 8        48.491                  
  21323057.734 9 112053434.344 9      -797.246 9        54.343                  
  23034018.505 8 121044585.046 8     -2811.719 8        48.345                  
  23513591.346 8 123564756.891 8     -3644.998 8        50.143                  
  21763072.239 9 114365717.933 9      1717.437 9        54.051                  
  20495388.106 9 107703988.869 9     -1371.301 9        57.117                  
  24984114.157 7 131292420.901 7     -2012.123 7        47.022                  
  20435890.049 9 107391309.825 9       814.809 9        57.277                  
 02  5 18 00 01 45.0000000  0  8G01G10G23G16G21G27G07G08                        
  23723711.526 8 124668945.691 8      3326.532 8        48.822                  
  21323209.835 8 112054231.986 8      -797.729 8        52.741                  
  23034552.396 8 121047398.732 8     -2814.519 8        49.258                  
  23514282.770 8 123568401.411 8     -3643.635 8        50.541                  
  21762748.417 8 114364001.475 8      1716.149 8        53.400                  
  20495647.832 9 107705360.194 9     -1371.395 9        56.899                  
  24984495.554 7 131294430.710 7     -2008.313 7        46.611                  
  20435733.516 9 107390495.208 9       814.375 9        55.930                  
 02  5 18 00 01 46.0000000  0  8G01G10G23G16G21G27G07G08                        
  23723079.463 8 124665622.709 8      3320.940 8        48.704                  
  21323360.918 9 112055030.262 9      -797.974 9        54.231                  
  23035087.734 8 121050212.782 8     -2816.039 8        51.222                  
  23514978.411 8 123572046.154 8     -3643.884 8        50.175                  
  21762424.773 8 114362285.338 8      1716.313 8        52.046                  
  20495914.867 8 107706731.947 8     -1370.981 8        53.978                  
  24984879.648 7 131296440.900 7     -2009.068 7        47.423                  
  20435577.806 9 107389681.058 9       813.676 9        54.212                  
 02  5 18 00 01 47.0000000  0  8G01G10G23G16G21G27G07G08                        
  23722448.186 7 124662299.877 7      3323.609 7        47.825                  
  21323513.215 9 112055829.105 9      -800.011 9        55.801                  
  23035624.073 8 121053027.248 8     -2813.385 8        50.839                  
  23515674.964 8 123575691.062 8     -3645.183 8        50.557                  
  21762097.931 8 114360569.509 8      1716.988 8        52.182                  
  20496176.362 9 107708104.153 9     -1372.921 9        55.950                  
  24985260.348 7 131298451.434 7     -2008.478 7        45.756                  
  20435421.130 9 107388867.369 9       813.510 9        55.394                  
 02  5 18 00 01 48.0000000  0  8G01G10G23G16G21G27G07G08                        
  23721814.318 8 124658977.229 8      3322.243 8        49.284                  
  21323665.138 9 112056628.569 9      -800.534 9        54.138                  
  23036163.253 8 121055842.077 8     -2815.273 8        49.449                  
  23516364.708 8 123579336.162 8     -3645.159 8        48.647                  
  21761768.890 9 114358853.957 9      1715.517 9        54.371                  
  20496431.657 9 107709476.835 9     -1374.061 9        54.462                  
  24985645.372 7 131300462.312 7     -2015.626 7        44.817                  
  20435265.937 9 107388054.112 9       813.851 9        54.132                  
 02  5 18 00 01 49.0000000  0  8G01G10G23G16G21G27G07G08                        
  23721181.129 7 124655654.726 7      3323.872 7        47.344                  
  21323817.435 9 112057428.691 9      -800.504 9        55.477                  
  23036695.124 8 121058657.348 8     -2814.154 8        50.814                  
  23517060.724 8 123582981.389 8     -3644.091 8        48.245                  
  21761439.350 8 114357138.694 8      1714.919 8        52.296                  
  20496693.080 9 107710849.973 9     -1374.020 9        55.739                  
  24986025.303 7 131302473.490 7     -2012.452 7        44.747                  
  20435109.726 9 107387241.305 9       812.958 9        55.017                  
 02  5 18 00 01 50.0000000  0  8G01G10G23G16G21G27G07G08                        
  23720550.138 7 124652332.207 7      3323.509 7        47.613                  
  21323969.965 9 112058229.516 9      -802.451 9        57.042                  
  23037232.160 8 121061473.234 8     -2816.012 8        51.364                  
  23517751.130 8 123586626.608 8     -3643.258 8        48.934                  
  21761113.758 8 114355423.628 8      1713.956 8        53.028                  
  20496960.115 9 107712223.549 9     -1373.207 9        55.084                  
  24986411.167 7 131304484.968 7     -2013.033 7        45.836                  
  20434955.499 9 107386428.991 9       812.341 9        57.354                  
 02  5 18 00 01 51.0000000  0  8G01G10G23G16G21G27G07G08                        
  23719918.289 8 124649007.789 8      3327.940 8        48.841                  
  21324122.495 9 112059032.159 9      -806.796 9        54.868                  
  23037768.302 8 121064291.156 8     -2820.397 8        50.879                  
  23518446.128 8 123590271.468 8     -3647.680 8        49.259                  
  21760789.739 8 114353707.352 8      1720.038 8        49.924                  
  20497221.217 9 107713598.132 9     -1377.485 9        55.084                  
  24986791.384 7 131306494.800 7     -2004.613 7        45.778                  
  20434799.359 9 107385616.612 9       814.456 9        54.660                  
 02  5 18 00 01 52.0000000  0  8G01G10G23G16G21G27G07G08                        
  23719284.833 8 124645667.156 8      3350.359 8        48.733                  
  21324277.384 8 112059845.138 8      -819.128 8        53.726                  
  23038305.892 8 121067119.043 8     -2833.245 8        52.292                  
  23519139.821 8 123593920.162 8     -3648.554 8        49.712                  
  21760463.719 8 114351978.474 8      1734.373 8        52.491                  
  20497478.621 9 107714979.646 9     -1384.454 9        55.014                  
  24987171.833 7 131308485.565 7     -1980.044 7        46.445                  
  20434644.256 9 107384799.387 9       819.867 9        54.386                  
 02  5 18 00 01 53.0000000  0  8G01G10G23G16G21G27G07G08                        
  23718645.354 8 124642318.686 8      3343.867 8        48.191                  
  21324432.487 9 112060663.420 9      -816.769 9        54.443                  
  23038847.198 8 121069955.512 8     -2840.892 8        50.529                  
  23519833.622 8 123597563.360 8     -3635.413 8        49.964                  
  21760131.999 9 114350244.491 9      1730.216 9        54.433                  
  20497742.224 9 107716362.635 9     -1380.546 9        55.299                  
  24987548.726 7 131310470.826 7     -1991.134 7        46.162                  
  20434489.082 9 107383981.687 9       814.401 9        55.542                  
 02  5 18 00 01 54.0000000  0  8G01G10G23G16G21G27G07G08                        
  23718006.929 8 124638977.261 8      3344.226 8        48.440                  
  21324588.430 9 112061478.123 9      -813.879 9        54.928                  
  23039384.787 8 121072794.725 8     -2841.151 8        49.756                  
  23520525.117 8 123601191.933 8     -3625.727 8        51.910                  
  21759800.064 9 114348517.771 9      1727.150 9        54.121                  
  20498009.652 9 107717739.446 9     -1375.714 9        55.472                  
  24987929.283 7 131312471.144 7     -2004.698 7        45.298                  
  20434335.372 9 107383169.678 9       810.555 9        55.833                  
 02  5 18 00 01 55.0000000  0  8G01G10G23G16G21G27G07G08                        
  23717374.312 8 124635636.183 8      3341.097 8        48.711                  
  21324744.159 9 112062293.322 9      -815.124 9        55.948                  
  23039928.006 8 121075635.539 8     -2841.218 8        50.498                  
  23521214.272 8 123604817.861 8     -3626.490 8        51.197                  
  21759471.720 8 114346791.871 8      1727.492 8        53.046                  
  20498271.308 9 107719115.824 9     -1376.238 9        57.439                  
  24988310.608 7 131314473.382 7     -2004.607 7        46.211                  
  20434181.985 9 107382358.828 9       809.788 9        56.311                  
 02  5 18 00 01 56.0000000  0  8G01G10G23G16G21G27G07G08                        
  23716738.604 8 124632295.026 8      3338.738 8        48.864                  
  21324900.245 9 112063109.288 9      -815.645 9        56.945                  
  23040467.704 8 121078477.047 8     -2840.277 8        50.446                  
  23521903.712 8 123608443.729 8     -3623.728 8        49.539                  
  21759145.718 8 114345066.082 8      1724.929 8        51.053                  
  20498527.532 9 107720492.680 9     -1377.559 9        58.279                  
  24988690.861 7 131316475.762 7     -2002.834 7        47.901                  
  20434028.454 9 107381548.408 9       809.974 9        55.380                  
 02  5 18 00 01 57.0000000  0  8G01G10G23G16G21G27G07G08                        
  23716098.893 8 124628953.977 8      3341.905 8        49.066                  
  21325056.116 9 112063925.931 9      -817.803 9        56.640                  
  23041007.813 8 121081318.983 8     -2842.964 8        49.686                  
  23522595.297 8 123612069.722 8     -3627.478 8        49.428                  
  21758819.751 8 114343340.537 8      1725.314 8        52.353                  
  20498790.546 9 107721870.001 9     -1377.498 9        55.371                  
  24989073.633 8 131318478.466 8     -2003.267 8        48.054                  
  20433874.691 9 107380738.428 9       809.970 9        55.005                  
 02  5 18 00 01 58.0000000  0  8G01G10G23G16G21G27G07G08                        
  23715463.292 8 124625613.092 8      3341.567 8        48.433                  
  21325212.148 9 112064743.159 9      -817.880 9        54.914                  
  23041550.531 8 121084161.314 8     -2841.081 8        49.843                  
  23523284.005 8 123615695.889 8     -3628.935 8        49.245                  
  21758490.479 8 114341615.318 8      1725.609 8        53.866                  
  20499057.921 9 107723247.785 9     -1377.378 9        57.058                  
  24989452.975 7 131320481.481 7     -2002.720 7        47.900                  
  20433721.268 9 107379928.902 9       809.429 9        57.377                  
 02  5 18 00 01 59.0000000  0  8G01G10G23G16G21G27G07G08                        
  23714833.981 7 124622272.358 7      3340.006 7        47.930                  
  21325368.091 9 112065561.005 9      -817.481 9        54.973                  
  23042089.550 8 121087004.050 8     -2842.980 8        50.533                  
  23523974.518 8 123619322.249 8     -3627.292 8        49.825                  
  21758158.579 8 114339890.395 8      1725.772 8        51.924                  
  20499319.791 9 107724626.024 9     -1378.951 9        56.835                  
  24989837.552 7 131322484.841 7     -2002.067 7        44.405                  
  20433568.041 9 107379119.841 9       809.320 9        56.541                  
 02  5 18 00 02  0.0000000  0  8G01G10G23G16G21G27G07G08                        
  23714197.164 7 124618931.813 7      3341.861 7        47.199                  
  21325524.195 9 112066379.485 9      -819.080 9        54.519                  
  23042632.590 8 121089847.196 8     -2844.047 8        50.500                  
  23524664.941 8 123622948.785 8     -3627.006 8        50.841                  
  21757829.343 9 114338165.781 9      1723.997 9        54.292                  
  20499576.605 9 107726004.716 9     -1380.006 9        57.652                  
  24990215.767 7 131324488.535 7     -2002.265 7        46.481                  
  20433414.850 9 107378311.231 9       809.096 9        57.569                  
 02  5 18 00 02  1.0000000  0  8G01G10G23G16G21G27G07G08                        
  23713556.756 8 124615591.429 8      3339.652 8        48.040                  
  21325680.192 8 112067198.584 8      -819.433 8        51.923                  
  23043172.824 8 121092690.739 8     -2841.222 8        49.153                  
  23525354.078 8 123626575.502 8     -3626.333 8        50.350                  
  21757503.126 8 114336441.467 8      1724.833 8        53.201                  
  20499839.976 9 107727383.860 9     -1379.909 9        54.750                  
  24990599.058 7 131326492.577 7     -2007.728 7        45.326                  
  20433261.480 9 107377503.052 9       807.326 9        54.038                  
 02  5 18 00 02  2.0000000  0  8G01G10G23G16G21G27G07G08                        
  23712921.924 8 124612251.234 8      3339.702 8        49.217                  
  21325835.992 8 112068018.315 8      -820.640 8        52.552                  
  23043713.058 8 121095534.678 8     -2843.807 8        48.544                  
  23526045.448 8 123630202.381 8     -3624.388 8        50.233                  
  21757178.785 9 114334717.449 9      1723.053 9        54.716                  
  20500107.511 9 107728763.444 9     -1379.475 9        56.591                  
  24990977.631 7 131328496.944 7     -2003.836 7        45.914                  
  20433108.682 9 107376695.326 9       807.336 9        54.587                  
 02  5 18 00 02  3.0000000  0  8G01G10G23G16G21G27G07G08                        
  23712288.270 8 124608911.203 8      3340.395 8        51.308                  
  21325992.471 9 112068838.665 9      -820.743 9        55.499                  
  23044255.615 8 121098378.997 8     -2843.097 8        48.232                  
  23526734.906 8 123633829.445 8     -3627.685 8        50.328                  
  21756850.621 8 114332993.731 8      1721.993 8        52.918                  
  20500369.989 9 107730143.483 9     -1381.378 9        58.018                  
  24991361.994 7 131330501.654 7     -2001.843 7        46.666                  
  20432955.544 9 107375888.088 9       806.811 9        56.894                  
 02  5 18 00 02  4.0000000  0  8G01G10G23G16G21G27G07G08                        
  23711650.775 7 124605571.361 7      3340.270 7        47.835                  
  21326148.932 9 112069659.637 9      -821.627 9        54.315                  
  23044795.528 8 121101223.713 8     -2845.248 8        49.155                  
  23527424.954 8 123637456.686 8     -3627.301 8        50.826                  
  21756519.525 8 114331270.301 8      1723.339 8        51.157                  
  20500627.017 9 107731523.962 9     -1380.387 9        57.891                  
  24991741.407 7 131332506.697 7     -2008.259 7        47.543                  
  20432802.478 9 107375081.279 9       807.216 9        57.300                  
 02  5 18 00 02  5.0000000  0  8G01G10G23G16G21G27G07G08                        
  23711014.263 7 124602231.661 7      3340.169 7        47.844                  
  21326305.429 9 112070481.238 9      -822.121 9        54.609                  
  23045338.121 8 121104068.845 8     -2847.313 8        50.207                  
  23528116.057 8 123641084.073 8     -3628.255 8        50.849                  
  21756189.377 8 114329547.175 8      1724.890 8        51.733                  
  20500890.174 9 107732904.919 9     -1380.941 9        57.025                  
  24992123.643 8 131334512.083 8     -2006.192 8        49.250                  
  20432649.662 9 107374274.913 9       806.712 9        56.203                  
 02  5 18 00 02  6.0000000  0  8G01G10G23G16G21G27G07G08                        
  23710381.109 7 124598892.017 7      3338.429 7        47.822                  
  21326461.729 9 112071303.521 9      -823.585 9        56.306                  
  23045881.035 8 121106914.466 8     -2844.149 8        50.452                  
  23528805.604 8 123644711.600 8     -3628.142 8        51.135                  
  21755862.624 9 114327824.304 9      1722.641 9        54.363                  
  20501158.281 9 107734286.328 9     -1381.845 9        55.610                  
  24992505.665 7 131336517.708 7     -2008.235 7        46.046                  
  20432497.311 9 107373468.974 9       806.035 9        55.489                  
 02  5 18 00 02  7.0000000  0  8G01G10G23G16G21G27G07G08                        
  23709747.992 8 124595552.057 8      3344.007 8        49.508                  
  21326617.547 9 112072126.710 9      -823.148 9        54.504                  
  23046419.464 8 121109761.007 8     -2847.285 8        48.855                  
  23529497.279 8 123648338.885 8     -3630.225 8        50.583                  
  21755538.820 8 114326101.394 8      1723.255 8        53.729                  
  20501421.421 9 107735668.227 9     -1381.734 9        57.019                  
  24992886.990 7 131338523.342 7     -2004.474 7        45.934                  
  20432344.942 9 107372663.441 9       805.944 9        55.712                  
 02  5 18 00 02  8.0000000  0  8G01G10G23G16G21G27G07G08                        
  23709109.067 8 124592205.467 8      3355.153 8        48.411                  
  21326774.062 9 112072954.574 9      -832.444 9        56.291                  
  23046964.166 8 121112610.757 8     -2853.891 8        49.197                  
  23530187.309 8 123651970.281 8     -3639.699 8        49.677                  
  21755210.012 9 114324373.164 9      1735.167 9        55.031                  
  20501679.789 9 107737054.003 9     -1390.034 9        54.729                  
  24993268.350 7 131340520.078 7     -1982.884 7        45.297                  
  20432191.697 9 107371855.628 9       811.168 9        56.670                  
 02  5 18 00 02  9.0000000  0  8G01G10G23G16G21G27G07G08                        
  23708469.088 8 124588843.318 8      3364.188 8        49.238                  
  21326932.560 9 112073792.419 9      -841.500 9        54.540                  
  23047504.954 8 121115466.673 8     -2861.545 8        49.376                  
  23530881.074 8 123655612.440 8     -3643.016 8        49.592                  
  21754876.272 8 114322632.031 8      1745.409 8        53.670                  
  20501944.089 8 107738448.593 8     -1397.098 8        53.034                  
  24993642.707 7 131342495.083 7     -1967.153 7        44.257                  
  20432037.630 9 107371041.613 9       814.542 9        55.145                  
 02  5 18 00 02 10.0000000  0  8G01G10G23G16G21G27G07G08                        
  23707826.214 8 124585474.353 8      3365.946 8        48.111                  
  21327092.273 9 112074634.965 9      -842.304 9        54.397                  
  23048051.424 7 121118332.085 7     -2867.895 7        47.792                  
  23531572.909 8 123659245.790 8     -3623.617 8        48.972                  
  21754541.585 8 114320886.958 8      1744.483 8        53.882                  
  20502214.716 8 107739843.302 8     -1392.223 8        53.571                  
  24994018.153 7 131344467.290 7     -1977.458 7        45.633                  
  20431883.403 9 107370228.142 9       810.999 9        56.473                  
 02  5 18 00 02 11.0000000  0  8G01G10G23G16G21G27G07G08                        
  23707186.557 8 124582104.748 8      3369.430 8        49.230                  
  21327252.666 9 112075478.468 9      -844.319 9        56.326                  
  23048600.522 8 121121208.115 8     -2878.645 8        49.021                  
  23532259.204 8 123662859.150 8     -3607.860 8        48.830                  
  21754210.955 9 114319143.983 9      1741.851 9        54.018                  
  20502481.304 9 107741232.856 9     -1389.188 9        55.008                  
  24994394.832 7 131346448.768 7     -1983.567 7        46.204                  
  20431729.497 9 107369419.409 9       808.362 9        57.482                  
 02  5 18 00 02 12.0000000  0  8G01G10G23G16G21G27G07G08                        
  23706545.953 8 124578734.215 8      3368.837 8        49.379                  
  21327413.147 9 112076323.244 9      -845.082 9        54.205                  
  23049147.296 8 121124087.297 8     -2878.845 8        52.078                  
  23532946.465 8 123666468.476 8     -3611.063 8        48.762                  
  21753882.969 8 114317400.954 8      1742.603 8        53.700                  
  20502740.351 9 107742621.990 9     -1388.122 9        56.954                  
  24994773.351 7 131348431.435 7     -1982.906 7        47.276                  
  20431575.430 9 107368611.768 9       806.690 9        56.490                  
 02  5 18 00 02 13.0000000  0  8G01G10G23G16G21G27G07G08                        
  23705903.722 7 124575363.490 7      3370.950 7        46.959                  
  21327573.540 8 112077168.855 8      -846.388 8        53.670                  
  23049695.089 8 121126967.198 8     -2878.047 8        49.587                  
  23533632.885 8 123670077.831 8     -3609.729 8        49.219                  
  21753551.141 8 114315657.993 8      1742.730 8        53.553                  
  20503002.293 9 107744011.661 9     -1388.861 9        56.475                  
  24995148.225 7 131350414.098 7     -1982.010 7        46.846                  
  20431421.256 9 107367804.531 9       807.087 9        56.513                  
 02  5 18 00 02 14.0000000  0  8G01G10G23G16G21G27G07G08                        
  23705261.491 8 124571992.873 8      3369.422 8        49.302                  
  21327735.076 9 112078015.135 9      -847.344 9        54.011                  
  23050243.846 8 121129847.552 8     -2877.630 8        49.979                  
  23534320.110 8 123673687.348 8     -3610.491 8        50.673                  
  21753216.830 8 114313915.301 8      1741.269 8        52.548                  
  20503271.579 9 107745401.808 9     -1389.831 9        56.002                  
  24995528.925 7 131352397.053 7     -1985.865 7        46.894                  
  20431266.636 9 107366997.722 9       806.402 9        54.498                  
 02  5 18 00 02 15.0000000  0  8G01G10G23G16G21G27G07G08                        
  23704620.941 8 124568622.410 8      3367.913 8        50.777                  
  21327897.577 9 112078862.068 9      -847.380 9        54.091                  
  23050791.496 8 121132728.332 8     -2882.705 8        49.447                  
  23535007.049 8 123677297.027 8     -3609.362 8        49.592                  
  21752883.304 8 114312172.914 8      1741.497 8        52.120                  
  20503539.168 9 107746792.396 9     -1390.946 9        55.735                  
  24995903.853 8 131354380.336 8     -1985.499 8        48.876                  
  20431112.444 9 107366191.378 9       805.697 9        55.866                  
 02  5 18 00 02 16.0000000  0  8G01G10G23G16G21G27G07G08                        
  23703981.837 8 124565252.130 8      3374.580 8        48.120                  
  21328060.220 9 112079709.623 9      -848.493 9        54.340                  
  23051339.164 8 121135609.466 8     -2881.734 8        49.361                  
  23535693.452 8 123680906.888 8     -3609.149 8        51.177                  
  21752553.764 8 114310430.802 8      1741.255 8        50.869                  
  20503799.823 9 107748183.448 9     -1390.714 9        54.837                  
  24996283.552 7 131356363.944 7     -1983.581 7        46.654                  
  20430958.681 9 107365385.474 9       805.823 9        56.296                  
 02  5 18 00 02 17.0000000  0  8G01G10G23G16G21G27G07G08                        
  23703338.534 7 124561882.014 7      3369.573 7        47.379                  
  21328221.971 9 112080557.809 9      -848.219 9        54.956                  
  23051889.047 8 121138490.981 8     -2881.819 8        52.451                  
  23536381.284 8 123684516.915 8     -3611.183 8        49.840                  
  21752225.653 8 114308689.020 8      1740.817 8        52.389                  
  20504061.015 9 107749574.931 9     -1392.008 9        54.697                  
  24996658.551 7 131358347.869 7     -1984.592 7        46.678                  
  20430805.007 9 107364580.051 9       805.326 9        56.323                  
 02  5 18 00 02 18.0000000  0  8G01G10G23G16G21G27G07G08                        
  23702697.841 8 124558512.094 8      3370.224 8        49.406                  
  21328383.793 9 112081406.626 9      -848.399 9        55.797                  
  23052436.036 8 121141372.928 8     -2881.090 8        51.296                  
  23537066.865 8 123688127.111 8     -3610.137 8        50.067                  
  21751893.414 8 114306947.540 8      1740.175 8        52.343                  
  20504329.354 9 107750966.879 9     -1392.594 9        54.454                  
  24997039.447 7 131360332.147 7     -1983.489 7        47.683                  
  20430650.851 9 107363775.089 9       804.988 9        54.782                  
 02  5 18 00 02 19.0000000  0  8G01G10G23G16G21G27G07G08                        
  23702057.004 8 124555142.348 8      3368.349 8        49.275                  
  21328546.222 9 112082256.040 9      -849.493 9        56.786                  
  23052985.151 8 121144255.263 8     -2880.551 8        49.291                  
  23537755.197 8 123691737.483 8     -3611.706 8        48.927                  
  21751557.709 8 114305206.369 8      1739.814 8        52.687                  
  20504598.175 9 107752359.278 9     -1392.428 9        55.642                  
  24997413.231 7 131362316.731 7     -1984.328 7        47.334                  
  20430497.374 9 107362970.534 9       804.480 9        57.053                  
 02  5 18 00 02 20.0000000  0  8G01G10G23G16G21G27G07G08                        
  23701414.970 7 124551772.751 7      3368.381 7        47.501                  
  21328707.740 9 112083106.098 9      -850.386 9        55.914                  
  23053533.909 8 121147138.021 8     -2883.745 8        52.254                  
  23538441.511 8 123695348.017 8     -3609.549 8        50.642                  
  21751226.060 8 114303465.494 8      1740.737 8        52.784                  
  20504861.475 9 107753752.143 9     -1391.864 9        56.608                  
  24997794.199 8 131364301.625 8     -1986.417 8        48.493                  
  20430343.701 9 107362166.456 9       802.922 9        57.558                  
 02  5 18 00 02 21.0000000  0  8G01G10G23G16G21G27G07G08                        
  23700772.954 7 124548403.207 7      3369.592 7        47.835                  
  21328868.329 9 112083956.847 9      -851.948 9        55.327                  
  23054081.880 8 121150021.269 8     -2883.745 8        50.070                  
  23539128.378 8 123698958.693 8     -3608.539 8        49.158                  
  21750898.592 8 114301724.859 8      1740.265 8        53.719                  
  20505121.774 9 107755145.475 9     -1393.856 9        55.323                  
  24998168.787 7 131366286.758 7     -1984.742 7        46.519                  
  20430189.884 9 107361362.818 9       803.806 9        56.484                  
 02  5 18 00 02 22.0000000  0  8G01G10G23G16G21G27G07G08                        
  23700132.546 8 124545033.255 8      3369.569 8        49.478                  
  21329028.990 9 112084808.597 9      -851.657 9        54.603                  
  23054631.317 8 121152905.452 8     -2885.410 8        51.482                  
  23539816.550 8 123702569.317 8     -3609.513 8        49.557                  
  21750569.462 9 114299984.092 9      1742.422 9        54.154                  
  20505387.468 9 107756539.413 9     -1394.076 9        55.121                  
  24998549.987 7 131368271.674 7     -1985.574 7        47.131                  
  20430036.729 9 107360559.501 9       802.053 9        55.439                  
 02  5 18 00 02 23.0000000  0  8G01G10G23G16G21G27G07G08                        
  23699491.423 8 124541659.734 8      3376.269 8        49.671                  
  21329190.794 9 112085663.224 9      -857.239 9        54.291                  
  23055180.682 8 121155789.392 8     -2880.222 8        50.541                  
  23540504.847 8 123706186.724 8     -3626.331 8        50.327                  
  21750235.294 8 114298240.023 8      1747.620 8        52.461                  
  20505658.630 9 107757936.991 9     -1401.539 9        55.925                  
  24998923.039 7 131370249.687 7     -1970.988 7        47.111                  
  20429882.626 9 107359754.157 9       808.385 9        56.879                  
 02  5 18 00 02 24.0000000  0  8G01G10G23G16G21G27G07G08                        
  23698846.083 7 124538278.420 7      3383.772 7        47.711                  
  21329354.474 9 112086523.233 9      -861.361 9        54.264                  
  23055727.832 8 121158670.104 8     -2879.083 8        48.960                  
  23541197.254 8 123709823.368 8     -3644.959 8        50.708                  
  21749898.302 8 114296487.957 8      1755.769 8        53.448                  
  20505927.381 9 107759343.314 9     -1410.192 9        55.924                  
  24999299.718 7 131372210.262 7     -1949.869 7        45.818                  
  20429727.559 9 107358942.901 9       815.044 9        56.626                  
 02  5 18 00 02 25.0000000  0  8G01G10G23G16G21G27G07G08                        
  23698201.887 8 124534888.540 8      3394.064 8        48.608                  
  21329518.386 8 112087389.041 8      -870.326 8        53.434                  
  23056276.893 8 121161553.476 8     -2892.441 8        49.959                  
  23541889.821 8 123713468.038 8     -3635.556 8        49.596                  
  21749565.473 9 114294728.651 9      1764.157 9        54.730                  
  20506191.717 9 107760755.344 9     -1412.090 9        55.676                  
  24999666.086 7 131374157.969 7     -1943.559 7        47.247                  
  20429571.419 8 107358128.002 8       814.266 8        53.886                  
 02  5 18 00 02 26.0000000  0  8G01G10G23G16G21G27G07G08                        
  23697554.725 8 124531483.828 8      3411.467 8        48.793                  
  21329685.569 9 112088264.301 9      -880.911 9        54.249                  
  23056829.814 8 121164456.753 8     -2912.506 8        50.974                  
  23542579.673 8 123717093.692 8     -3615.545 8        48.469                  
  21749232.413 9 114292960.563 9      1771.994 9        54.273                  
  20506457.412 9 107762167.175 9     -1411.347 9        55.691                  
  25000039.102 7 131376099.144 7     -1937.644 7        47.587                  
  20429415.226 9 107357313.720 9       813.404 9        55.519                  
 02  5 18 00 02 27.0000000  0  8G01G10G23G16G21G27G07G08                        
  23696903.274 7 124528065.892 7      3419.295 7        47.363                  
  21329855.861 8 112089148.054 8      -885.871 8        53.234                  
  23057383.861 8 121167378.359 8     -2923.881 8        49.365                  
  23543266.969 8 123720701.383 8     -3606.106 8        49.258                  
  21748893.545 8 114291184.791 8      1777.441 8        53.723                  
  20506729.039 9 107763578.602 9     -1411.531 9        56.297                  
  25000404.345 7 131378035.019 7     -1936.428 7        47.965                  
  20429259.337 9 107356500.258 9       813.619 9        54.915                  
 02  5 18 00 02 28.0000000  0  8G01G10G23G16G21G27G07G08                        
  23696252.806 8 124524645.659 8      3420.580 8        48.591                  
  21330025.295 8 112090033.886 8      -886.379 8        53.772                  
  23057941.107 8 121170303.066 8     -2923.239 8        50.512                  
  23543951.710 8 123724307.259 8     -3605.836 8        49.557                  
  21748551.728 8 114289407.667 8      1776.945 8        52.947                  
  20507001.434 9 107764990.744 9     -1411.875 9        54.205                  
  25000776.289 7 131379969.468 7     -1937.005 7        47.018                  
  20429103.984 9 107355687.038 9       812.988 9        55.453                  
 02  5 18 00 02 29.0000000  0  8G01G10G23G16G21G27G07G08                        
  23695602.623 8 124521225.314 8      3421.741 8        49.443                  
  21330194.514 8 112090920.529 8      -887.012 8        53.311                  
  23058499.299 8 121173228.301 8     -2924.782 8        49.174                  
  23544639.221 8 123727913.376 8     -3605.063 8        50.432                  
  21748214.665 8 114287630.660 8      1776.948 8        52.426                  
  20507270.631 9 107766403.456 9     -1412.435 9        55.924                  
  25001140.316 7 131381903.945 7     -1934.824 7        46.803                  
  20428949.095 9 107354874.197 9       811.395 9        55.331                  
 02  5 18 00 02 30.0000000  0  8G01G10G23G16G21G27G07G08                        
  23694950.100 7 124517805.097 7      3423.777 7        47.688                  
  21330362.894 8 112091807.817 8      -887.350 8        52.718                  
  23059054.651 8 121176153.980 8     -2927.062 8        48.982                  
  23545324.694 8 123731519.657 8     -3608.192 8        49.338                  
  21747879.871 8 114285853.942 8      1776.646 8        53.371                  
  20507534.235 9 107767816.624 9     -1413.231 9        55.289                  
  25001511.116 7 131383838.668 7     -1938.150 7        47.079                  
  20428795.118 9 107354061.821 9       811.330 9        56.805                  
 02  5 18 00 02 31.0000000  0  8G01G10G23G16G21G27G07G08                        
  23694300.347 8 124514385.039 8      3419.976 8        48.650                  
  21330529.023 8 112092695.734 8      -888.006 8        53.428                  
  23059611.217 8 121179080.070 8     -2925.427 8        48.129                  
  23546010.829 8 123735126.134 8     -3605.462 8        48.737                  
  21747541.020 8 114284077.534 8      1777.145 8        51.239                  
  20507801.234 9 107769230.279 9     -1413.690 9        56.472                  
  25001877.556 7 131385773.711 7     -1939.793 7        46.128                  
  20428641.605 9 107353249.887 9       811.653 9        56.015                  
 02  5 18 00 02 32.0000000  0  8G01G10G23G16G21G27G07G08                        
  23693650.182 8 124510965.177 8      3422.890 8        49.267                  
  21330698.117 9 112093584.285 9      -888.759 9        55.743                  
  23060169.106 8 121182006.522 8     -2925.234 8        50.420                  
  23546698.000 8 123738732.775 8     -3606.663 8        50.158                  
  21747199.150 8 114282301.435 8      1776.092 8        50.951                  
  20508074.272 9 107770644.399 9     -1413.766 9        56.405                  
  25002248.660 7 131387709.076 7     -1934.762 7        45.920                  
  20428487.860 9 107352438.416 9       811.230 9        55.597                  
 02  5 18 00 02 33.0000000  0  8G01G10G23G16G21G27G07G08                        
  23692997.570 8 124507545.491 8      3420.306 8        50.677                  
  21330866.729 9 112094473.468 9      -888.879 9        55.059                  
  23060726.155 8 121184933.395 8     -2925.989 8        49.594                  
  23547383.670 8 123742339.584 8     -3606.419 8        50.896                  
  21746862.945 8 114280525.669 8      1774.852 8        51.320                  
  20508346.828 9 107772058.996 9     -1414.768 9        56.962                  
  25002615.726 8 131389644.784 8     -1934.325 8        49.558                  
  20428334.222 9 107351627.401 9       810.127 9        56.821                  
 02  5 18 00 02 34.0000000  0  8G01G10G23G16G21G27G07G08                        
  23692347.995 8 124504125.972 8      3419.121 8        49.250                  
  21331036.717 9 112095363.279 9      -890.306 9        54.030                  
  23061281.006 8 121187860.654 8     -2925.322 8        48.965                  
  23548071.002 8 123745946.573 8     -3608.797 8        50.844                  
  21746528.794 8 114278750.201 8      1776.103 8        52.826                  
  20508615.328 8 107773474.046 8     -1415.298 8        52.679                  
  25002984.346 7 131391580.809 7     -1935.562 7        47.466                  
  20428180.530 8 107350816.849 8       810.423 8        53.850                  
 02  5 18 00 02 35.0000000  0  8G01G10G23G16G21G27G07G08                        
  23691698.135 8 124500706.633 8      3417.040 8        48.370                  
  21331208.278 9 112096253.738 9      -890.243 9        54.688                  
  23061839.645 8 121190788.290 8     -2928.158 8        51.670                  
  23548755.707 8 123749553.762 8     -3604.996 8        51.211                  
  21746188.711 9 114276975.066 9      1774.408 9        54.851                  
  20508879.808 9 107774889.549 9     -1415.800 9        55.291                  
  25003353.609 7 131393517.157 7     -1937.169 7        46.803                  
  20428026.928 9 107350006.762 9       809.787 9        56.939                  
 02  5 18 00 02 36.0000000  0  8G01G10G23G16G21G27G07G08                        
  23691045.594 8 124497287.465 8      3418.418 8        48.110                  
  21331378.212 8 112097144.816 8      -891.418 8        53.992                  
  23062397.587 8 121193716.331 8     -2927.782 8        51.663                  
  23549442.825 8 123753161.095 8     -3606.150 8        50.974                  
  21745847.466 9 114275200.258 9      1774.725 9        54.395                  
  20509147.647 8 107776305.517 8     -1415.734 8        53.989                  
  25003722.140 8 131395453.826 8     -1937.661 8        48.013                  
  20427873.541 9 107349197.152 9       810.235 9        55.484                  
 02  5 18 00 02 37.0000000  0  8G01G10G23G16G21G27G07G08                        
  23690396.555 8 124493868.490 8      3417.980 8        48.195                  
  21331548.522 9 112098036.527 9      -892.523 9        54.259                  
  23062953.243 8 121196644.761 8     -2928.891 8        52.185                  
  23550129.817 8 123756768.617 8     -3609.311 8        50.356                  
  21745511.314 8 114273425.764 8      1774.250 8        52.463                  
  20509421.525 9 107777721.950 9     -1416.645 9        55.196                  
  25004088.723 7 131397390.809 7     -1938.768 7        45.746                  
  20427720.385 9 107348388.031 9       808.986 9        55.180                  
 02  5 18 00 02 38.0000000  0  8G01G10G23G16G21G27G07G08                        
  23689746.748 8 124490449.652 8      3417.527 8        48.589                  
  21331717.330 9 112098928.891 9      -892.455 9        55.582                  
  23063509.577 8 121199573.610 8     -2930.481 8        51.864                  
  23550815.791 7 123760376.307 7     -3609.917 7        47.932                  
  21745177.806 8 114271651.540 8      1773.108 8        51.778                  
  20509694.028 9 107779138.823 9     -1417.285 9        56.581                  
  25004457.879 7 131399328.106 7     -1937.158 7        47.414                  
  20427567.051 9 107347579.352 9       808.240 9        55.853                  
 02  5 18 00 02 39.0000000  0  8G01G10G23G16G21G27G07G08                        
  23689094.815 8 124487030.867 8      3419.008 8        49.173                  
  21331885.442 9 112099821.935 9      -894.795 9        54.905                  
  23064068.984 8 121202502.940 8     -2931.820 8        50.290                  
  23551502.891 8 123763984.203 8     -3608.476 8        50.325                  
  21744837.902 8 114269877.559 8      1774.708 8        52.333                  
  20509962.849 9 107780556.210 9     -1417.532 9        55.724                  
  25004827.518 7 131401265.566 7     -1936.891 7        47.472                  
  20427414.164 9 107346771.101 9       807.625 9        56.116                  
 02  5 18 00 02 40.0000000  0  8G01G10G23G16G21G27G07G08                        
  23688444.561 7 124483611.603 7      3419.399 7        47.913                  
  21332055.073 8 112100715.992 8      -895.581 8        52.969                  
  23064626.587 8 121205432.970 8     -2930.749 8        50.771                  
  23552188.293 8 123767592.551 8     -3611.493 8        48.836                  
  21744497.318 8 114268103.356 8      1774.472 8        52.381                  
  20510228.061 9 107781974.397 9     -1418.645 9        55.005                  
  25005193.368 7 131403202.492 7     -1933.923 7        46.943                  
  20427260.937 9 107345963.085 9       808.650 9        55.761                  
 02  5 18 00 02 41.0000000  0  8G01G10G23G16G21G27G07G08                        
  23687794.521 8 124480195.888 8      3414.420 8        49.406                  
  21332224.167 8 112101608.724 8      -891.304 8        50.851                  
  23065180.831 8 121208355.199 8     -2914.752 8        48.032                  
  23552879.145 8 123771213.232 8     -3633.160 8        48.991                  
  21744161.774 8 114266330.579 8      1771.157 8        52.001                  
  20510496.936 9 107783395.517 9     -1424.210 9        54.848                  
  25005565.937 7 131405137.520 7     -1931.868 7        46.476                  
  20427107.335 9 107345153.760 9       809.498 9        54.773                  
 02  5 18 00 02 42.0000000  0  8G01G10G23G16G21G27G07G08                        
  23687145.018 8 124476788.176 8      3402.054 8        48.478                  
  21332395.210 8 112102497.418 8      -886.439 8        53.644                  
  23065735.467 8 121211260.731 8     -2898.249 8        49.989                  
  23553571.838 8 123774858.410 8     -3656.803 8        49.768                  
  21743828.534 8 114264561.168 8      1766.128 8        51.679                  
  20510772.262 9 107784821.676 9     -1428.794 9        55.419                  
  25005929.893 7 131407069.660 7     -1933.478 7        47.695                  
  20426953.357 9 107344341.732 9       813.569 9        54.421                  
 02  5 18 00 02 43.0000000  0  8G01G10G23G16G21G27G07G08                        
  23686497.909 7 124473382.385 7      3413.916 7        47.040                  
  21332566.002 8 112103385.681 8      -894.150 8        53.796                  
  23066288.388 8 121214158.197 8     -2903.627 8        51.243                  
  23554268.051 8 123778518.791 8     -3659.411 8        50.257                  
  21743489.309 8 114262791.621 8      1775.984 8        52.490                  
  20511047.410 9 107786252.176 9     -1433.683 9        57.418                  
  25006298.942 7 131408996.849 7     -1919.223 7        47.743                  
  20426799.988 9 107343527.341 9       816.431 9        54.968                  
 02  5 18 00 02 44.0000000  0  8G01G10G23G16G21G27G07G08                        
  23685846.512 7 124469954.704 7      3441.557 7        45.890                  
  21332738.063 8 112104287.630 8      -909.160 8        53.181                  
  23066842.739 8 121217074.310 8     -2926.430 8        51.582                  
  23554964.996 8 123782173.019 8     -3650.745 8        49.215                  
  21743144.740 8 114261006.433 8      1793.834 8        52.624                  
  20511321.163 9 107787688.709 9     -1440.446 9        56.688                  
  25006660.093 7 131410903.609 7     -1895.426 7        46.968                  
  20426646.564 9 107342708.875 9       821.089 9        56.606                  
 02  5 18 00 02 45.0000000  0  8G01G10G23G16G21G27G07G08                        
  23685187.556 8 124466502.745 8      3457.873 8        48.461                  
  21332912.250 8 112105204.653 8      -921.108 8        52.211                  
  23067400.378 8 121220011.283 8     -2944.014 8        51.894                  
  23555657.510 8 123785819.898 8     -3647.377 8        49.968                  
  21742807.480 8 114259203.952 8      1807.430 8        51.254                  
  20511591.503 9 107789131.675 9     -1445.096 9        55.431                  
  25007017.313 7 131412788.010 7     -1881.444 7        47.103                  
  20426489.263 9 107341885.939 9       823.339 9        56.238                  
 02  5 18 00 02 46.0000000  0  8G01G10G23G16G21G27G07G08                        
  23684530.316 8 124463044.077 8      3456.252 8        48.758                  
  21333084.043 8 112106126.362 8      -922.281 8        53.558                  
  23067959.696 8 121222953.999 8     -2942.104 8        48.884                  
  23556352.204 8 123789465.690 8     -3646.946 8        50.210                  
  21742465.289 8 114257396.748 8      1805.623 8        51.804                  
  20511864.095 9 107790577.062 9     -1445.079 9        55.838                  
  25007378.142 7 131414665.957 7     -1877.560 7        46.619                  
  20426332.409 9 107341061.912 9       824.283 9        55.638                  
 02  5 18 00 02 47.0000000  0  8G01G10G23G16G21G27G07G08                        
  23683871.681 8 124459585.484 8      3458.698 8        49.076                  
  21333260.053 8 112107048.760 8      -922.275 8        53.046                  
  23068521.284 8 121225897.007 8     -2943.092 8        48.998                  
  23557046.094 8 123793112.049 8     -3643.626 8        49.129                  
  21742116.700 8 114255589.746 8      1806.345 8        53.201                  
  20512139.046 9 107792023.095 9     -1445.924 9        56.323                  
  25007732.788 7 131416543.917 7     -1878.210 7        47.737                  
  20426175.465 9 107340238.251 9       823.017 9        56.284                  
 02  5 18 00 02 48.0000000  0  8G01G10G23G16G21G27G07G08                        
  23683214.048 8 124456127.017 8      3459.413 8        48.448                  
  21333435.991 9 112107971.785 9      -923.245 9        54.552                  
  23069080.191 8 121228840.373 8     -2942.124 8        50.703                  
  23557738.483 8 123796758.673 8     -3644.701 8        49.486                  
  21741771.953 9 114253783.032 9      1808.103 9        54.005                  
  20512418.267 9 107793469.629 9     -1447.888 9        56.217                  
  25008092.974 7 131418422.135 7     -1877.279 7        46.554                  
  20426018.093 9 107339415.038 9       823.633 9        56.188                  
 02  5 18 00 02 49.0000000  0  8G01G10G23G16G21G27G07G08                        
  23682556.217 8 124452668.732 8      3457.016 8        48.520                  
  21333614.074 9 112108895.418 9      -923.894 9        56.057                  
  23069640.474 8 121231784.101 8     -2942.731 8        50.716                  
  23558433.785 8 123800405.476 8     -3645.560 8        48.875                  
  21741433.227 9 114251976.618 9      1805.950 9        55.066                  
  20512696.095 9 107794916.651 9     -1447.422 9        54.092                  
  25008450.337 7 131420300.677 7     -1878.374 7        47.327                  
  20425859.952 9 107338592.329 9       822.353 9        56.123                  
 02  5 18 00 02 50.0000000  0  8G01G10G23G16G21G27G07G08                        
  23681896.833 7 124449210.626 7      3456.860 7        47.685                  
  21333790.584 9 112109819.696 9      -924.427 9        55.185                  
  23070201.847 8 121234728.238 8     -2945.131 8        49.276                  
  23559127.353 8 123804052.482 8     -3645.566 8        49.194                  
  21741087.819 8 114250170.526 8      1805.793 8        53.422                  
  20512972.225 9 107796364.149 9     -1447.400 9        55.248                  
  25008804.394 7 131422179.544 7     -1879.759 7        46.592                  
  20425702.276 9 107337770.082 9       821.682 9        56.012                  
 02  5 18 00 02 51.0000000  0  8G01G10G23G16G21G27G07G08                        
  23681240.217 8 124445752.687 8      3459.704 8        48.481                  
  21333966.254 9 112110744.583 9      -924.700 9        56.498                  
  23070762.113 8 121237672.765 8     -2946.405 8        49.877                  
  23559821.136 8 123807699.654 8     -3644.779 8        49.620                  
  21740740.999 8 114248364.744 8      1805.175 8        53.552                  
  20513243.745 9 107797812.125 9     -1448.038 9        56.376                  
  25009165.152 7 131424058.766 7     -1880.489 7        46.820                  
  20425544.599 9 107336948.313 9       821.360 9        56.234                  
 02  5 18 00 02 52.0000000  0  8G01G10G23G16G21G27G07G08                        
  23680581.851 8 124442294.928 8      3456.804 8        48.761                  
  21334139.798 9 112111670.098 9      -925.615 9        54.105                  
  23071320.413 8 121240617.671 8     -2945.845 8        48.763                  
  23560516.491 8 123811347.006 8     -3645.779 8        49.574                  
  21740400.720 8 114246559.301 8      1807.988 8        51.948                  
  20513516.819 9 107799260.601 9     -1449.074 9        55.394                  
  25009520.280 8 131425938.300 8     -1879.559 8        48.360                  
  20425387.209 9 107336127.048 9       820.453 9        55.736                  
 02  5 18 00 02 53.0000000  0  8G01G10G23G16G21G27G07G08                        
  23679923.342 8 124438837.334 8      3455.382 8        50.097                  
  21334315.754 8 112112596.237 8      -925.144 8        52.582                  
  23071882.090 8 121243562.955 8     -2943.822 8        51.059                  
  23561208.719 8 123814994.536 8     -3647.142 8        49.213                  
  21740057.885 8 114244754.168 8      1805.370 8        52.548                  
  20513791.752 8 107800709.567 8     -1449.631 8        53.083                  
  25009878.376 7 131427818.160 7     -1878.654 7        46.309                  
  20425230.480 9 107335306.264 9       820.739 9        56.441                  
 02  5 18 00 02 54.0000000  0  8G01G10G23G16G21G27G07G08                        
  23679266.995 8 124435379.905 8      3456.718 8        48.927                  
  21334493.265 8 112113522.993 8      -926.813 8        51.728                  
  23072443.624 8 121246508.640 8     -2947.244 8        51.117                  
  23561903.788 8 123818642.247 8     -3647.237 8        50.608                  
  21739710.725 9 114242949.366 9      1803.819 9        56.403                  
  20514071.331 9 107802158.996 9     -1449.234 9        55.131                  
  25010240.241 7 131429698.359 7     -1880.293 7        47.525                  
  20425072.035 9 107334485.974 9       820.222 9        56.057                  
 02  5 18 00 02 55.0000000  0  8G01G10G23G16G21G27G07G08                        
  23678607.717 8 124431922.655 8      3458.335 8        48.287                  
  21334671.687 8 112114450.368 8      -927.411 8        52.854                  
  23073003.817 8 121249454.682 8     -2945.777 8        49.349                  
  23562598.893 8 123822290.134 8     -3648.536 8        50.915                  
  21739368.623 9 114241144.869 9      1803.879 9        55.805                  
  20514349.980 9 107803608.891 9     -1450.738 9        54.133                  
  25010593.440 7 131431578.876 7     -1880.837 7        47.898                  
  20424914.377 9 107333666.149 9       819.653 9        55.907                  
 02  5 18 00 02 56.0000000  0  8G01G10G23G16G21G27G07G08                        
  23677950.423 8 124428465.589 8      3456.749 8        48.659                  
  21334849.073 9 112115378.366 9      -928.147 9        54.531                  
  23073563.368 8 121252401.118 8     -2945.499 8        51.233                  
  23563291.318 8 123825938.187 8     -3647.429 8        51.510                  
  21739029.093 9 114239340.706 9      1803.817 9        55.483                  
  20514626.932 9 107805059.299 9     -1450.454 9        56.671                  
  25010953.876 8 131433459.741 8     -1879.486 8        49.862                  
  20424757.790 9 107332846.822 9       819.126 9        56.965                  
 02  5 18 00 02 57.0000000  0  8G01G10G23G16G21G27G07G08                        
  23677292.575 8 124425008.686 8      3455.279 8        49.490                  
  21335023.403 9 112116306.958 9      -928.548 9        55.676                  
  23074124.455 8 121255347.947 8     -2944.522 8        51.442                  
  23563987.012 8 123829586.421 8     -3647.981 8        51.618                  
  21738682.434 9 114237536.840 9      1804.438 9        55.725                  
  20514900.060 9 107806510.171 9     -1450.922 9        57.803                  
  25011310.596 7 131435340.915 7     -1881.935 7        47.980                  
  20424601.937 9 107332027.977 9       817.925 9        57.977                  
 02  5 18 00 02 58.0000000  0  8G01G10G23G16G21G27G07G08                        
  23676634.012 8 124421551.936 8      3459.177 8        48.145                  
  21335199.020 9 112117236.206 9      -928.823 9        55.268                  
  23074687.169 8 121258295.185 8     -2944.636 8        51.104                  
  23564680.634 8 123833234.858 8     -3649.491 8        49.764                  
  21738337.366 9 114235733.328 9      1803.060 9        54.595                  
  20515173.099 9 107807961.519 9     -1450.399 9        54.641                  
  25011668.066 7 131437222.426 7     -1879.085 7        45.983                  
  20424446.584 9 107331209.614 9       817.377 9        57.156                  
 02  5 18 00 02 59.0000000  0  8G01G10G23G16G21G27G07G08                        
  23675977.754 8 124418095.392 8      3456.157 8        49.425                  
  21335375.262 9 112118166.052 9      -930.626 9        56.187                  
  23075246.237 8 121261242.792 8     -2949.597 8        51.337                  
  23565374.310 8 123836883.451 8     -3649.931 8        50.982                  
  21737998.891 8 114233930.119 8      1801.016 8        51.909                  
  20515447.978 9 107809413.334 9     -1451.554 9        55.285                  
  25012029.109 7 131439104.262 7     -1882.367 7        47.749                  
  20424292.070 9 107330391.731 9       817.585 9        58.151                  
 02  5 18 00 03  0.0000000  0  8G01G10G23G16G21G27G07G08                        
  23675318.405 7 124414638.990 7      3451.872 7        47.846                  
  21335554.953 9 112119096.540 9      -930.965 9        54.653                  
  23075806.520 8 121264190.778 8     -2947.407 8        49.743                  
  23566069.844 8 123840532.232 8     -3651.245 8        49.085                  
  21737655.198 8 114232127.221 8      1803.085 8        53.433                  
  20515726.610 9 107810865.638 9     -1452.347 9        55.947                  
  25012383.774 7 131440986.444 7     -1883.172 7        45.931                  
  20424137.807 9 107329574.337 9       817.051 9        58.079                  
 02  5 18 00 03  1.0000000  0  8G01G10G23G16G21G27G07G08                        
  23674661.415 8 124411182.780 8      3454.828 8        48.922                  
  21335733.107 8 112120027.623 8      -930.507 8        52.534                  
  23076369.537 8 121267139.162 8     -2948.075 8        50.691                  
  23566763.483 8 123844181.202 8     -3649.423 8        50.845                  
  21737308.092 9 114230324.651 9      1803.078 9        54.406                  
  20516006.457 9 107812318.441 9     -1452.952 9        56.278                  
  25012743.316 7 131442868.936 7     -1880.038 7        46.407                  
  20423982.793 9 107328757.422 9       816.298 9        56.658                  
 02  5 18 00 03  2.0000000  0  8G01G10G23G16G21G27G07G08                        
  23674004.389 8 124407726.714 8      3453.683 8        48.626                  
  21335910.261 8 112120959.365 8      -932.623 8        51.579                  
  23076930.660 8 121270087.895 8     -2947.956 8        48.871                  
  23567457.302 8 123847830.436 8     -3647.955 8        48.402                  
  21736966.776 9 114228522.381 9      1800.910 9        54.410                  
  20516284.695 9 107813771.746 9     -1454.557 9        56.613                  
  25013103.163 7 131444751.676 7     -1884.353 7        45.938                  
  20423828.423 9 107327940.978 9       816.708 9        57.288                  
 02  5 18 00 03  3.0000000  0  8G01G10G23G16G21G27G07G08                        
  23673345.540 8 124404270.693 8      3456.638 8        49.143                  
  21336085.270 8 112121891.783 8      -932.826 8        53.525                  
  23077490.461 8 121273036.871 8     -2949.837 8        49.616                  
  23568153.729 8 123851480.329 8     -3652.349 8        49.228                  
  21736627.461 9 114226720.259 9      1801.150 9        54.153                  
  20516560.593 9 107815225.728 9     -1454.209 9        56.067                  
  25013458.595 7 131446634.369 7     -1886.696 7        46.370                  
  20423674.141 9 107327124.871 9       815.449 9        58.926                  
 02  5 18 00 03  4.0000000  0  8G01G10G23G16G21G27G07G08                        
  23672690.319 8 124400822.191 8      3438.213 8        49.637                  
  21336261.477 8 112122820.438 8      -923.176 8        53.922                  
  23078049.869 8 121275978.290 8     -2931.437 8        51.569                  
  23568847.744 8 123855136.307 8     -3663.338 8        51.147                  
  21736282.339 8 114224923.321 8      1789.393 8        53.733                  
  20516833.131 9 107816679.473 9     -1452.557 9        54.165                  
  25013821.479 7 131448522.549 7     -1898.804 7        45.497                  
  20423519.682 9 107326309.933 9       814.046 9        57.490                  
 02  5 18 00 03  5.0000000  0  8G01G10G23G16G21G27G07G08                        
  23672038.082 8 124397396.677 8      3415.272 8        48.358                  
  21336438.702 9 112123736.159 9      -908.969 9        56.161                  
  23078601.128 8 121278896.813 8     -2905.234 8        50.508                  
  23569546.637 8 123858808.094 8     -3678.342 8        50.869                  
  21735941.326 9 114223142.046 9      1773.477 9        54.430                  
  20517107.188 8 107818130.667 8     -1448.423 8        52.952                  
  25014178.127 7 131450428.151 7     -1915.654 7        46.645                  
  20423366.187 9 107325498.239 9       810.042 9        58.384                  
 02  5 18 00 03  6.0000000  0  8G01G10G23G16G21G27G07G08                        
  23671388.632 8 124393988.789 8      3409.965 8        49.627                  
  21336610.369 9 112124642.063 9      -907.736 9        55.055                  
  23079159.231 8 121281797.136 8     -2900.859 8        50.664                  
  23570248.908 8 123862493.542 8     -3691.719 8        49.087                  
  21735607.801 8 114221372.674 8      1772.299 8        53.121                  
  20517383.211 8 107819580.462 8     -1452.123 8        53.399                  
  25014548.999 8 131452346.571 8     -1914.933 8        48.092                  
  20423212.585 9 107324688.791 9       811.503 9        57.292                  
 02  5 18 00 03  7.0000000  0  8G01G10G23G16G21G27G07G08                        
  23670739.486 8 124390568.933 8      3431.062 8        48.151                  
  21336785.414 9 112125555.721 9      -920.243 9        55.372                  
  23079709.418 8 121284701.599 8     -2905.420 8        50.802                  
  23570951.446 8 123866188.722 8     -3701.095 8        50.454                  
  21735271.309 8 114219593.321 8      1786.802 8        53.044                  
  20517664.487 9 107821037.712 9     -1462.304 9        56.166                  
  25014908.059 8 131454247.664 8     -1889.324 8        49.077                  
  20423058.143 9 107323874.521 9       818.061 9        56.806                  
 02  5 18 00 03  8.0000000  0  8G01G10G23G16G21G27G07G08                        
  23670083.782 7 124387130.929 7      3444.943 7        46.909                  
  21336960.852 9 112126480.744 9      -928.789 9        56.179                  
  23080264.609 8 121287613.881 8     -2917.274 8        50.809                  
  23571656.022 8 123869894.808 8     -3713.824 8        51.056                  
  21734924.990 8 114217799.201 8      1799.135 8        53.484                  
  20517945.710 9 107822504.842 9     -1471.093 9        58.003                  
  25015263.670 8 131456124.317 8     -1867.978 8        49.352                  
  20422903.897 9 107323053.578 9       822.909 9        56.637                  
 02  5 18 00 03  9.0000000  0  8G01G10G23G16G21G27G07G08                        
  23669428.096 8 124383686.669 8      3441.401 8        48.436                  
  21337135.844 9 112127410.168 9      -928.672 9        54.383                  
  23080820.425 8 121290528.656 8     -2915.740 8        51.133                  
  23572364.135 8 123873605.799 8     -3710.343 8        49.996                  
  21734582.923 8 114215999.992 8      1798.665 8        52.188                  
  20518226.433 9 107823976.061 9     -1472.230 9        56.730                  
  25015622.427 8 131457992.175 8     -1867.593 8        48.327                  
  20422747.525 9 107322230.404 9       822.474 9        55.686                  
 02  5 18 00 03 10.0000000  0  8G01G10G23G16G21G27G07G08                        
  23668774.483 8 124380242.913 8      3442.960 8        48.216                  
  21337311.764 9 112128339.991 9      -930.156 9        55.402                  
  23081373.114 8 121293443.298 8     -2915.073 8        48.608                  
  23573069.390 8 123877317.585 8     -3714.696 8        50.281                  
  21734244.805 9 114214201.276 9      1798.286 9        54.510                  
  20518505.332 9 107825447.842 9     -1471.028 9        56.447                  
  25015975.554 7 131459860.477 7     -1870.503 7        47.889                  
  20422593.030 9 107321407.667 9       821.206 9        56.126                  
 02  5 18 00 03 11.0000000  0  8G01G10G23G16G21G27G07G08                        
  23668117.564 8 124376799.401 8      3441.279 8        48.239                  
  21337489.239 9 112129270.360 9      -930.802 9        56.481                  
  23081929.216 8 121296358.190 8     -2914.203 8        48.621                  
  23573774.841 8 123881029.641 8     -3711.031 8        50.253                  
  21733901.202 9 114212402.909 9      1798.890 9        54.796                  
  20518781.820 9 107826920.114 9     -1473.520 9        57.880                  
  25016331.130 8 131461729.101 8     -1869.792 8        48.178                  
  20422437.212 9 107320585.456 9       822.362 9        57.224                  
 02  5 18 00 03 12.0000000  0  8G01G10G23G16G21G27G07G08                        
  23667463.058 7 124373356.050 7      3445.340 7        47.983                  
  21337668.805 9 112130201.325 9      -930.839 9        57.098                  
  23082483.960 8 121299273.475 8     -2915.443 8        48.102                  
  23574482.615 8 123884741.890 8     -3710.965 8        50.637                  
  21733556.044 8 114210604.855 8      1798.628 8        53.854                  
  20519060.362 9 107828392.885 9     -1473.234 9        55.523                  
  25016689.422 8 131463598.077 8     -1868.078 8        50.895                  
  20422279.411 9 107319763.721 9       821.336 9        56.139                  
 02  5 18 00 03 13.0000000  0  8G01G10G23G16G21G27G07G08                        
  23666808.176 8 124369912.868 8      3443.528 8        48.846                  
  21337847.281 9 112131132.887 9      -931.028 9        54.817                  
  23083037.792 8 121302189.122 8     -2915.863 8        49.470                  
  23575188.942 8 123888454.355 8     -3714.921 8        49.235                  
  21733216.122 9 114208807.082 9      1797.286 9        55.395                  
  20519339.959 9 107829866.169 9     -1473.877 9        56.002                  
  25017042.621 8 131465467.406 8     -1870.124 8        49.192                  
  20422122.413 9 107318942.490 9       821.002 9        56.087                  
 02  5 18 00 03 14.0000000  0  8G01G10G23G16G21G27G07G08                        
  23666151.900 8 124366469.833 8      3441.186 8        49.635                  
  21338022.254 9 112132065.044 9      -932.620 9        55.076                  
  23083592.911 8 121305105.159 8     -2917.304 8        51.186                  
  23575894.626 8 123892166.984 8     -3713.773 8        49.536                  
  21732877.772 9 114207009.658 9      1797.382 9        54.796                  
  20519622.986 9 107831339.917 9     -1473.942 9        56.296                  
  25017399.912 7 131467337.077 7     -1868.042 7        47.620                  
  20421964.040 9 107318121.756 9       820.443 9        58.150                  
 02  5 18 00 03 15.0000000  0  8G01G10G23G16G21G27G07G08                        
  23665497.983 7 124363026.983 7      3441.702 7        46.940                  
  21338197.889 9 112132997.796 9      -933.064 9        56.974                  
  23084149.853 8 121308021.563 8     -2915.348 8        51.448                  
  23576601.077 8 123895879.817 8     -3712.609 8        49.720                  
  21732531.166 9 114205212.553 9      1796.604 9        55.250                  
  20519906.460 9 107832814.190 9     -1474.562 9        56.580                  
  25017755.792 7 131469207.090 7     -1868.880 7        45.693                  
  20421807.668 9 107317301.527 9       819.585 9        58.462                  
 02  5 18 00 03 16.0000000  0  8G01G10G23G16G21G27G07G08                        
  23664842.905 7 124359584.290 7      3441.167 7        47.138                  
  21338376.132 9 112133931.184 9      -933.075 9        54.977                  
  23084707.617 8 121310938.345 8     -2916.571 8        52.661                  
  23577309.084 7 123899592.817 7     -3714.241 7        47.378                  
  21732187.241 9 114203415.734 9      1795.683 9        54.115                  
  20520188.558 9 107834288.940 9     -1475.021 9        55.152                  
  25018108.187 8 131471077.435 8     -1872.176 8        48.174                  
  20421650.314 9 107316481.796 9       819.260 9        57.471                  
 02  5 18 00 03 17.0000000  0  8G01G10G23G16G21G27G07G08                        
  23664186.969 8 124356141.765 8      3440.828 8        50.225                  
  21338555.895 9 112134865.223 9      -934.633 9        54.361                  
  23085257.679 8 121313855.529 8     -2918.297 8        51.883                  
  23578014.660 7 123903306.030 7     -3709.733 7        47.302                  
  21731850.589 8 114201619.285 8      1794.582 8        51.949                  
  20520469.674 9 107835764.239 9     -1476.014 9        56.805                  
  25018469.373 7 131472948.124 7     -1869.223 7        47.873                  
  20421492.816 9 107315662.612 9       817.832 9        57.889                  
 02  5 18 00 03 18.0000000  0  8G01G10G23G16G21G27G07G08                        
  23663532.784 8 124352699.383 8      3443.925 8        48.892                  
  21338734.942 9 112135799.825 9      -934.790 9        55.237                  
  23085814.477 8 121316773.070 8     -2917.471 8        50.595                  
  23578721.058 8 123907019.402 8     -3712.345 8        51.381                  
  21731505.752 8 114199823.075 8      1797.077 8        52.442                  
  20520748.145 9 107837239.990 9     -1477.455 9        56.884                  
  25018820.535 7 131474819.148 7     -1871.000 7        46.972                  
  20421337.141 9 107314843.880 9       819.591 9        56.527                  
 02  5 18 00 03 19.0000000  0  8G01G10G23G16G21G27G07G08                        
  23662877.366 8 124349257.179 8      3437.940 8        48.860                  
  21338911.631 9 112136735.010 9      -936.079 9        55.559                  
  23086369.757 8 121319690.976 8     -2918.280 8        51.566                  
  23579428.475 8 123910732.950 8     -3713.746 8        50.248                  
  21731162.453 9 114198027.188 9      1797.531 9        55.620                  
  20521026.544 9 107838716.230 9     -1476.980 9        55.336                  
  25019180.435 7 131476690.520 7     -1871.968 7        45.291                  
  20421179.805 9 107314025.631 9       817.231 9        57.680                  
 02  5 18 00 03 20.0000000  0  8G01G10G23G16G21G27G07G08                        
  23662223.271 7 124345815.131 7      3439.580 7        47.990                  
  21339087.552 9 112137670.790 9      -936.928 9        55.657                  
  23086923.143 8 121322609.242 8     -2917.565 8        49.439                  
  23580135.338 8 123914446.700 8     -3713.958 8        50.358                  
  21730822.137 9 114196231.621 9      1795.644 9        55.648                  
  20521305.533 9 107840192.959 9     -1476.290 9        54.984                  
  25019537.548 7 131478562.242 7     -1868.680 7        45.775                  
  20421022.593 9 107313207.877 9       816.716 9        57.164                  
 02  5 18 00 03 21.0000000  0  8G01G10G23G16G21G27G07G08                        
  23661568.514 8 124342373.258 8      3441.420 8        50.611                  
  21339265.027 9 112138607.166 9      -936.866 9        55.712                  
  23087480.031 8 121325527.925 8     -2920.021 8        50.350                  
  23580840.735 8 123918160.633 8     -3716.462 8        50.557                  
  21730484.413 8 114194436.353 8      1795.078 8        53.480                  
  20521586.273 9 107841670.189 9     -1477.551 9        55.980                  
  25019889.692 7 131480434.289 7     -1872.383 7        45.513                  
  20420866.132 9 107312390.617 9       816.853 9        56.245                  
 02  5 18 00 03 22.0000000  0  8G01G10G23G16G21G27G07G08                        
  23660910.898 7 124338931.552 7      3443.525 7        47.333                  
  21339445.343 9 112139544.152 9      -937.804 9        55.881                  
  23088036.812 8 121328446.956 8     -2919.222 8        49.785                  
  23581547.866 8 123921874.751 8     -3712.260 8        50.747                  
  21730139.648 8 114192641.408 8      1795.579 8        53.259                  
  20521870.266 9 107843147.932 9     -1477.782 9        57.343                  
  25020249.574 7 131482306.689 7     -1870.093 7        45.933                  
  20420709.331 9 107311573.866 9       817.364 9        55.848                  
 02  5 18 00 03 23.0000000  0  8G01G10G23G16G21G27G07G08                        
  23660258.983 7 124335489.995 7      3436.358 7        47.083                  
  21339625.088 9 112140481.734 9      -937.954 9        54.273                  
  23088591.520 8 121331366.354 8     -2919.980 8        49.818                  
  23582256.033 8 123925589.026 8     -3714.638 8        51.042                  
  21729795.669 8 114190846.771 8      1794.682 8        53.525                  
  20522154.205 9 107844626.150 9     -1478.250 9        56.916                  
  25020603.703 7 131484179.415 7     -1874.031 7        46.497                  
  20420554.031 9 107310757.591 9       815.860 9        55.811                  
 02  5 18 00 03 24.0000000  0  8G01G10G23G16G21G27G07G08                        
  23659602.957 8 124332048.588 8      3439.645 8        49.223                  
  21339804.028 8 112141419.910 8      -939.676 8        53.443                  
  23089146.496 8 121334286.148 8     -2918.814 8        50.747                  
  23582962.414 8 123929303.503 8     -3712.205 8        50.294                  
  21729458.337 8 114189052.443 8      1794.021 8        52.227                  
  20522437.053 9 107846104.859 9     -1478.404 9        57.309                  
  25020959.529 7 131486052.498 7     -1871.001 7        46.743                  
  20420399.875 9 107309941.843 9       814.824 9        55.476                  
 02  5 18 00 03 25.0000000  0  8G01G10G23G16G21G27G07G08                        
  23658946.628 8 124328607.365 8      3439.382 8        49.481                  
  21339979.985 9 112142358.683 9      -939.152 9        55.690                  
  23089703.170 8 121337206.314 8     -2919.701 8        51.250                  
  23583667.901 8 123933018.162 8     -3715.099 8        49.807                  
  21729117.682 8 114187258.406 8      1795.145 8        52.295                  
  20522718.901 9 107847584.066 9     -1478.390 9        56.826                  
  25021319.518 7 131487925.920 7     -1873.617 7        47.913                  
  20420245.362 9 107309126.605 9       814.565 9        56.345                  
 02  5 18 00 03 26.0000000  0  8G01G10G23G16G21G27G07G08                        
  23658293.855 8 124325166.280 8      3437.838 8        49.257                  
  21340157.960 9 112143298.065 9      -940.713 9        55.642                  
  23090258.468 8 121340126.862 8     -2921.388 8        51.876                  
  23584376.247 8 123936733.011 8     -3716.380 8        50.229                  
  21728771.917 8 114185464.699 8      1793.934 8        52.639                  
  20522998.391 9 107849063.776 9     -1479.984 9        57.878                  
  25021672.235 7 131489799.675 7     -1875.625 7        47.338                  
  20420091.349 9 107308311.870 9       813.710 9        57.250                  
 02  5 18 00 03 27.0000000  0  8G01G10G23G16G21G27G07G08                        
  23657637.615 7 124321725.372 7      3442.893 7        47.600                  
  21340337.937 9 112144238.089 9      -940.745 9        55.009                  
  23090812.550 8 121343047.745 8     -2920.608 8        52.441                  
  23585083.270 8 123940448.011 8     -3714.926 8        49.776                  
  21728431.440 9 114183671.279 9      1793.733 9        54.341                  
  20523277.130 9 107850543.973 9     -1480.600 9        57.031                  
  25022029.937 7 131491673.762 7     -1876.821 7        47.039                  
  20419936.853 9 107307497.609 9       814.956 9        57.028                  
 02  5 18 00 03 28.0000000  0  8G01G10G23G16G21G27G07G08                        
  23656983.644 8 124318284.623 8      3440.477 8        48.166                  
  21340518.950 9 112145178.650 9      -941.814 9        54.169                  
  23091370.010 8 121345969.006 8     -2922.346 8        49.904                  
  23585789.222 8 123944163.193 8     -3714.422 8        49.752                  
  21728094.091 9 114181878.129 9      1792.922 9        55.973                  
  20523557.245 9 107852024.611 9     -1481.674 9        56.220                  
  25022389.211 8 131493548.186 8     -1875.418 8        48.540                  
  20419782.894 9 107306683.816 9       813.047 9        56.060                  
 02  5 18 00 03 29.0000000  0  8G01G10G23G16G21G27G07G08                        
  23656329.334 8 124314844.037 8      3439.966 8        48.440                  
  21340698.730 9 112146119.843 9      -941.271 9        54.937                  
  23091926.434 8 121348890.666 8     -2922.671 8        48.864                  
  23586496.174 8 123947878.591 8     -3715.729 8        50.153                  
  21727751.471 9 114180085.356 9      1793.142 9        54.610                  
  20523838.592 9 107853505.800 9     -1481.752 9        55.954                  
  25022742.500 7 131495422.953 7     -1875.187 7        47.542                  
  20419628.970 9 107305870.559 9       813.367 9        57.407                  
 02  5 18 00 03 30.0000000  0  8G01G10G23G16G21G27G07G08                        
  23655673.166 8 124311403.627 8      3434.835 8        48.181                  
  21340875.526 9 112147061.644 9      -941.982 9        55.515                  
  23092481.410 8 121351812.706 8     -2921.832 8        48.919                  
  23587204.770 8 123951594.177 8     -3718.159 8        49.649                  
  21727406.634 8 114178292.889 8      1792.065 8        52.869                  
  20524122.460 9 107854987.476 9     -1481.220 9        58.294                  
  25023102.507 7 131497298.077 7     -1877.752 7        44.118                  
  20419474.796 9 107305057.802 9       811.938 9        57.306                  
 02  5 18 00 03 31.0000000  0  8G01G10G23G16G21G27G07G08                        
  23655019.588 7 124307963.380 7      3435.641 7        47.576                  
  21341053.627 9 112148004.054 9      -943.172 9        56.123                  
  23093036.922 8 121354735.123 8     -2924.193 8        49.468                  
  23587911.204 8 123955309.942 8     -3719.268 8        49.478                  
  21727069.053 9 114176500.720 9      1792.575 9        54.576                  
  20524407.471 9 107856469.653 9     -1482.405 9        56.718                  
  25023457.368 7 131499173.528 7     -1875.594 7        45.882                  
  20419321.373 9 107304245.543 9       812.211 9        58.147                  
 02  5 18 00 03 32.0000000  0  8G01G10G23G16G21G27G07G08                        
  23654364.921 7 124304523.294 7      3439.322 7        47.374                  
  21341233.586 9 112148947.059 9      -943.002 9        57.573                  
  23093594.650 8 121357657.905 8     -2922.966 8        49.868                  
  23588617.316 8 123959025.896 8     -3714.518 8        50.223                  
  21726729.899 8 114174708.874 8      1791.062 8        53.878                  
  20524691.195 9 107857952.320 9     -1485.038 9        54.789                  
  25023813.730 7 131501049.325 7     -1873.646 7        45.657                  
  20419167.806 9 107303433.791 9       811.044 9        56.826                  
 02  5 18 00 03 33.0000000  0  8G01G10G23G16G21G27G07G08                        
  23653709.610 8 124301083.366 8      3436.978 8        49.336                  
  21341415.564 9 112149890.647 9      -944.530 9        57.145                  
  23094150.323 8 121360581.059 8     -2922.325 8        49.306                  
  23589325.216 8 123962742.009 8     -3714.977 8        50.170                  
  21726385.312 9 114172917.325 9      1792.339 9        54.729                  
  20524974.187 9 107859435.484 9     -1482.430 9        54.286                  
  25024173.433 7 131502925.448 7     -1872.302 7        46.621                  
  20419013.739 9 107302622.534 9       810.941 9        57.684                  
 02  5 18 00 03 34.0000000  0  8G01G10G23G16G21G27G07G08                        
  23653056.676 8 124297643.594 8      3436.979 8        48.717                  
  21341596.095 9 112150834.831 9      -945.057 9        54.703                  
  23094705.496 8 121363504.598 8     -2922.625 8        50.985                  
  23590032.918 8 123966458.311 8     -3716.696 8        49.940                  
  21726043.549 8 114171126.096 8      1791.731 8        53.559                  
  20525255.838 9 107860919.164 9     -1485.385 9        55.180                  
  25024528.151 7 131504801.911 7     -1875.016 7        46.005                  
  20418859.780 9 107301811.782 9       811.598 9        56.021                  
 02  5 18 00 03 35.0000000  0  8G01G10G23G16G21G27G07G08                        
  23652401.294 8 124294203.993 8      3435.602 8        48.946                  
  21341772.909 9 112151779.626 9      -944.259 9        54.117                  
  23095263.027 8 121366428.516 8     -2924.161 8        52.558                  
  23590739.281 8 123970174.782 8     -3719.141 8        48.854                  
  21725707.076 8 114169335.166 8      1791.857 8        52.337                  
  20525534.970 9 107862403.319 9     -1484.533 9        55.840                  
  25024886.461 7 131506678.707 7     -1873.554 7        45.686                  
  20418707.089 9 107301001.517 9       809.937 9        56.415                  
 02  5 18 00 03 36.0000000  0  8G01G10G23G16G21G27G07G08                        
  23651745.662 7 124290764.529 7      3437.308 7        46.961                  
  21341951.974 9 112152725.075 9      -946.341 9        55.363                  
  23095820.255 8 121369352.868 8     -2925.397 8        50.572                  
  23591446.126 7 123973891.367 7     -3715.129 7        47.845                  
  21725366.832 8 114167544.516 8      1791.536 8        53.793                  
  20525815.478 9 107863887.963 9     -1484.803 9        56.461                  
  25025245.682 7 131508555.837 7     -1877.674 7        44.282                  
  20418553.398 9 107300191.746 9       809.932 9        56.092                  
 02  5 18 00 03 37.0000000  0  8G01G10G23G16G21G27G07G08                        
  23651092.102 8 124287325.025 8      3441.023 8        48.659                  
  21342132.416 9 112153671.216 9      -947.232 9        56.256                  
  23096376.410 8 121372277.866 8     -2926.760 8        51.427                  
  23592154.382 8 123977607.837 8     -3718.440 8        49.406                  
  21725020.387 8 114165754.084 8      1791.676 8        53.044                  
  20526097.165 9 107865373.074 9     -1485.190 9        55.639                  
  25025597.719 7 131510433.247 7     -1877.310 7        45.813                  
  20418400.725 9 107299382.522 9       808.437 9        54.930                  
 02  5 18 00 03 38.0000000  0  8G01G10G23G16G21G27G07G08                        
  23650436.720 8 124283884.707 8      3442.083 8        49.098                  
  21342315.269 9 112154618.525 9      -948.059 9        54.919                  
  23096932.030 8 121375204.699 8     -2927.681 8        50.794                  
  23592861.316 8 123981322.789 8     -3711.875 8        51.682                  
  21724682.519 8 114163963.434 8      1790.425 8        53.162                  
  20526379.907 9 107866858.505 9     -1485.622 9        57.318                  
  25025958.995 7 131512310.765 7     -1876.357 7        44.735                  
  20418247.551 9 107298573.876 9       808.816 9        55.298                  
 02  5 18 00 03 39.0000000  0  8G01G10G23G16G21G27G07G08                        
  23649781.820 8 124280440.667 8      3445.652 8        48.059                  
  21342496.479 9 112155568.873 9      -951.554 9        54.782                  
  23097493.081 8 121378138.444 8     -2938.002 8        50.724                  
  23593565.678 8 123985030.113 8     -3702.300 8        51.672                  
  21724344.062 8 114162171.084 8      1793.680 8        53.565                  
  20526665.365 9 107868343.399 9     -1484.453 9        57.063                  
  25026314.232 7 131514188.032 7     -1875.638 7        46.290                  
  20418094.253 9 107297766.340 9       806.093 9        55.677                  
 02  5 18 00 03 40.0000000  0  8G01G10G23G16G21G27G07G08                        
  23649127.207 7 124276993.707 7      3446.973 7        47.830                  
  21342675.527 9 112156521.711 9      -953.376 9        55.811                  
  23098052.489 8 121381078.292 8     -2940.595 8        50.515                  
  23594270.200 8 123988730.232 8     -3699.681 8        49.626                  
  21724001.156 9 114160377.595 9      1793.898 9        55.684                  
  20526949.982 9 107869827.579 9     -1484.434 9        58.606                  
  25026671.594 7 131516065.773 7     -1879.425 7        46.807                  
  20417940.973 9 107296960.033 9       804.425 9        55.948                  
 02  5 18 00 03 41.0000000  0  8G01G10G23G16G21G27G07G08                        
  23648469.073 7 124273546.364 7      3447.420 7        47.194                  
  21342855.843 9 112157475.508 9      -954.660 9        55.551                  
  23098609.430 8 121384019.638 8     -2945.339 8        49.999                  
  23594975.204 8 123992428.986 8     -3699.594 8        48.612                  
  21723655.354 8 114158584.169 8      1793.481 8        52.497                  
  20527233.903 9 107871311.997 9     -1484.835 9        55.056                  
  25027031.619 7 131517943.961 7     -1877.660 7        45.217                  
  20417787.317 9 107296154.408 9       805.814 9        56.258                  
 02  5 18 00 03 42.0000000  0  8G01G10G23G16G21G27G07G08                        
  23647814.387 8 124270099.093 8      3446.487 8        48.404                  
  21343039.697 9 112158429.977 9      -954.040 9        54.032                  
  23099168.802 8 121386961.564 8     -2941.275 8        50.019                  
  23595678.082 8 123996127.644 8     -3697.709 8        50.131                  
  21723317.469 8 114156791.021 8      1793.580 8        51.643                  
  20527516.734 9 107872796.843 9     -1484.907 9        54.840                  
  25027384.711 7 131519822.510 7     -1880.222 7        46.112                  
  20417633.608 9 107295349.315 9       804.137 9        56.496                  
 02  5 18 00 03 43.0000000  0  8G01G10G23G16G21G27G07G08                        
  23647158.558 8 124266651.970 8      3443.205 8        48.828                  
  21343222.301 8 112159385.059 8      -956.141 8        53.970                  
  23099730.265 8 121389903.895 8     -2941.866 8        50.239                  
  23596381.585 8 123999826.437 8     -3699.830 8        50.219                  
  21722979.065 9 114154998.201 9      1792.283 9        56.653                  
  20527797.725 9 107874282.203 9     -1485.827 9        54.176                  
  25027745.308 7 131521701.404 7     -1879.000 7        46.915                  
  20417480.131 9 107294544.687 9       803.764 9        56.083                  
 02  5 18 00 03 44.0000000  0  8G01G10G23G16G21G27G07G08                        
  23646501.711 8 124263204.994 8      3449.477 8        49.599                  
  21343404.636 9 112160340.761 9      -955.877 9        56.555                  
  23100291.406 8 121392846.628 8     -2943.612 8        48.431                  
  23597086.643 8 124003525.404 8     -3699.080 8        49.988                  
  21722634.461 9 114153205.676 9      1792.670 9        55.498                  
  20528077.357 9 107875768.028 9     -1485.392 9        58.286                  
  25028102.724 7 131523580.618 7     -1877.787 7        45.949                  
  20417326.332 9 107293740.570 9       804.176 9        56.794                  
 02  5 18 00 03 45.0000000  0  8G01G10G23G16G21G27G07G08                        
  23645846.007 8 124259758.186 8      3445.950 8        48.466                  
  21343583.702 9 112161297.059 9      -955.776 9        54.368                  
  23100849.116 8 121395789.728 8     -2944.304 8        50.100                  
  23597788.289 8 124007224.538 8     -3699.442 8        48.409                  
  21722290.215 9 114151413.482 9      1792.673 9        55.781                  
  20528358.687 9 107877254.353 9     -1486.396 9        57.242                  
  25028460.337 7 131525460.191 7     -1880.715 7        46.901                  
  20417174.159 9 107292936.958 9       803.147 9        55.200                  
 02  5 18 00 03 46.0000000  0  8G01G10G23G16G21G27G07G08                        
  23645190.536 7 124256311.564 7      3444.734 7        47.934                  
  21343765.233 9 112162253.972 9      -956.013 9        54.975                  
  23101409.864 8 121398733.197 8     -2943.833 8        50.500                  
  23598493.168 8 124010923.854 8     -3699.745 8        51.267                  
  21721955.796 8 114149621.572 8      1790.942 8        53.492                  
  20528640.571 9 107878741.144 9     -1486.914 9        57.529                  
  25028819.772 7 131527340.072 7     -1879.762 7        46.641                  
  20417019.449 9 107292133.837 9       802.775 9        55.182                  
 02  5 18 00 03 47.0000000  0  8G01G10G23G16G21G27G07G08                        
  23644535.207 8 124252865.118 8      3443.513 8        48.400                  
  21343950.142 9 112163211.462 9      -957.523 9        55.919                  
  23101971.326 8 121401677.052 8     -2943.048 8        50.906                  
  23599198.637 8 124014623.333 8     -3697.448 8        51.292                  
  21721612.389 8 114147830.001 8      1791.859 8        53.047                  
  20528924.581 9 107880228.423 9     -1487.399 9        57.926                  
  25029174.794 7 131529220.293 7     -1881.862 7        45.140                  
  20416867.295 9 107291331.223 9       801.432 9        56.828                  
 02  5 18 00 03 48.0000000  0  8G01G10G23G16G21G27G07G08                        
  23643879.253 8 124249418.836 8      3445.718 8        49.193                  
  21344133.407 9 112164169.585 9      -959.513 9        54.882                  
  23102531.038 8 121404621.290 8     -2944.786 8        49.418                  
  23599901.640 8 124018323.009 8     -3702.558 8        51.231                  
  21721267.142 8 114146038.740 8      1790.016 8        53.120                  
  20529210.682 9 107881716.203 9     -1488.883 9        58.075                  
  25029534.229 7 131531100.849 7     -1880.593 7        44.026                  
  20416714.211 9 107290529.110 9       802.447 9        56.001                  
 02  5 18 00 03 49.0000000  0  8G01G10G23G16G21G27G07G08                        
  23643222.191 8 124245972.722 8      3443.636 8        49.579                  
  21344314.491 9 112165128.312 9      -958.618 9        54.511                  
  23103090.159 8 121407565.904 8     -2945.806 8        50.429                  
  23600604.858 8 124022022.848 8     -3699.828 8        51.652                  
  21720929.864 8 114144247.802 8      1791.371 8        53.704                  
  20529495.693 9 107883204.483 9     -1488.300 9        58.704                  
  25029892.521 7 131532981.747 7     -1880.884 7        43.578                  
  20416560.251 9 107289727.489 9       800.957 9        55.078                  
 02  5 18 00 03 50.0000000  0  8G01G10G23G16G21G27G07G08                        
  23642568.006 8 124242526.774 8      3449.378 8        48.220                  
  21344494.915 9 112166087.697 9      -960.449 9        55.881                  
  23103652.176 8 121410510.907 8     -2945.281 8        50.270                  
  23601310.166 8 124025722.888 8     -3700.000 8        50.297                  
  21720592.586 9 114142457.193 9      1790.379 9        54.944                  
  20529780.239 9 107884693.275 9     -1489.325 9        56.813                  
  25030247.525 7 131534862.977 7     -1879.709 7        44.231                  
  20416407.739 9 107288926.436 9       800.476 9        58.195                  
 02  5 18 00 03 51.0000000  0  8G01G10G23G16G21G27G07G08                        
  23641911.570 8 124239080.981 8      3445.378 8        49.703                  
  21344678.180 9 112167047.617 9      -960.642 9        55.055                  
  23104213.531 8 121413456.266 8     -2947.082 8        49.476                  
  23602014.187 8 124029423.086 8     -3699.537 8        51.856                  
  21720248.840 9 114140666.882 9      1789.318 9        54.868                  
  20530063.803 9 107886182.510 9     -1490.314 9        54.568                  
  25030608.336 7 131536744.541 7     -1882.040 7        45.486                  
  20416254.619 9 107288125.839 9       801.496 9        55.549                  
 02  5 18 00 03 52.0000000  0  8G01G10G23G16G21G27G07G08                        
  23641255.455 8 124235635.344 8      3441.923 8        49.912                  
  21344863.392 9 112168008.159 9      -960.925 9        55.965                  
  23104771.795 8 121416401.991 8     -2945.974 8        49.790                  
  23602717.584 8 124033123.471 8     -3697.926 8        50.172                  
  21719905.754 9 114138876.871 9      1789.517 9        56.225                  
  20530345.651 9 107887672.243 9     -1488.626 9        56.268                  
  25030964.395 8 131538626.439 8     -1882.972 8        48.145                  
  20416101.678 9 107287325.707 9       799.354 9        58.098                  
 02  5 18 00 03 53.0000000  0  8G01G10G23G16G21G27G07G08                        
  23640600.859 8 124232189.894 8      3446.133 8        49.431                  
  21345046.800 9 112168969.283 9      -960.869 9        55.274                  
  23105333.312 8 121419348.102 8     -2945.683 8        50.358                  
  23603422.213 8 124036824.040 8     -3699.730 8        48.274                  
  21719569.459 9 114137087.181 9      1789.006 9        55.987                  
  20530626.516 9 107889162.468 9     -1491.257 9        56.391                  
  25031324.491 8 131540508.674 8     -1884.643 8        48.102                  
  20415948.416 9 107286526.088 9       799.181 9        56.638                  
 02  5 18 00 03 54.0000000  0  8G01G10G23G16G21G27G07G08                        
  23639943.780 8 124228744.613 8      3446.757 8        49.606                  
  21345227.473 9 112169931.055 9      -962.958 9        55.600                  
  23105895.024 8 121422294.571 8     -2944.698 8        51.494                  
  23604127.378 8 124040524.773 8     -3703.944 8        50.696                  
  21719231.520 8 114135297.810 8      1789.152 8        53.658                  
  20530908.561 9 107890653.179 9     -1490.856 9        57.342                  
  25031683.444 7 131542391.238 7     -1884.719 7        46.855                  
  20415796.368 9 107285726.971 9       798.731 9        58.596                  
 02  5 18 00 03 55.0000000  0  8G01G10G23G16G21G27G07G08                        
  23639289.434 8 124225299.503 8      3444.029 8        49.103                  
  21345409.380 9 112170893.417 9      -962.596 9        55.654                  
  23106455.039 8 121425241.453 8     -2946.281 8        50.428                  
  23604831.382 8 124044225.673 8     -3701.986 8        48.890                  
  21718884.861 8 114133508.751 8      1787.376 8        52.584                  
  20531191.302 9 107892144.391 9     -1490.549 9        55.392                  
  25032037.715 7 131544274.132 7     -1883.335 7        44.653                  
  20415644.017 9 107284928.334 9       798.318 9        56.121                  
 02  5 18 00 03 56.0000000  0  8G01G10G23G16G21G27G07G08                        
  23638634.123 8 124221854.548 8      3442.344 8        49.452                  
  21345594.592 9 112171856.378 9      -962.687 9        57.286                  
  23107014.965 8 121428188.669 8     -2948.212 8        52.369                  
  23605534.349 8 124047926.778 8     -3701.878 8        50.378                  
  21718544.403 8 114131719.988 8      1790.212 8        52.890                  
  20531475.545 9 107893636.082 9     -1492.136 9        55.641                  
  25032399.563 7 131546157.368 7     -1876.564 7        43.384                  
  20415492.095 9 107284130.194 9       796.920 9        58.492                  
 02  5 18 00 03 57.0000000  0  8G01G10G23G16G21G27G07G08                        
  23637977.169 8 124218409.780 8      3443.865 8        51.241                  
  21345779.215 9 112172819.936 9      -964.123 9        55.397                  
  23107575.070 8 121431136.286 8     -2946.946 8        49.148                  
  23606239.979 8 124051628.034 8     -3701.967 8        49.145                  
  21718209.287 8 114129931.560 8      1786.655 8        52.245                  
  20531762.200 9 107895128.285 9     -1491.986 9        57.985                  
  25032757.015 7 131548040.920 7     -1881.709 7        43.616                  
  20415339.833 9 107283332.554 9       797.455 9        57.759                  
 02  5 18 00 03 58.0000000  0  8G01G10G23G16G21G27G07G08                        
  23637323.109 8 124214965.171 8      3440.338 8        50.374                  
  21345961.157 9 112173784.111 9      -963.535 9        55.064                  
  23108137.587 7 121434084.256 7     -2946.733 7        47.642                  
  23606943.858 8 124055329.469 8     -3702.313 8        48.401                  
  21717868.221 8 114128143.434 8      1787.331 8        52.832                  
  20532048.408 9 107896620.952 9     -1493.251 9        57.098                  
  25033114.431 7 131549924.816 7     -1884.817 7        44.301                  
  20415188.053 9 107282535.400 9       797.704 9        58.085                  
 02  5 18 00 03 59.0000000  0  8G01G10G23G16G21G27G07G08                        
  23636667.137 8 124211520.699 8      3442.307 8        50.721                  
  21346143.618 9 112174748.837 9      -963.276 9        54.107                  
  23108699.210 8 121437032.577 8     -2947.184 8        48.568                  
  23607647.844 8 124059031.073 8     -3698.902 8        49.374                  
  21717523.796 8 114126355.591 8      1787.256 8        53.729                  
  20532333.865 9 107898114.072 9     -1492.072 9        55.595                  
  25033475.975 7 131551809.044 7     -1884.711 7        44.370                  
  20415035.880 9 107281738.727 9       796.547 9        56.428                  
 02  5 18 00 04  0.0000000  0  8G01G10G23G16G21G27G07G08                        
  23636011.076 8 124208076.429 8      3447.666 8        49.621                  
  21346326.972 9 112175714.204 9      -965.739 9        56.105                  
  23109258.564 8 121439981.281 8     -2950.027 8        52.458                  
  23608353.223 8 124062732.854 8     -3701.623 8        49.074                  
  21717184.945 9 114124568.111 9      1786.896 9        55.382                  
  20532618.680 8 107899607.740 8     -1492.988 8        53.670                  
  25033831.461 7 131553693.600 7     -1886.074 7        44.927                  
  20414884.709 9 107280942.585 9       795.389 9        55.822                  
 02  5 18 00 04  1.0000000  0  8G01G10G23G16G21G27G07G08                        
  23635358.249 8 124204632.306 8      3443.398 8        49.061                  
  21346513.453 9 112176680.195 9      -966.558 9        55.002                  
  23109819.312 8 121442930.376 8     -2948.358 8        49.591                  
  23609057.299 8 124066434.839 8     -3701.708 8        49.759                  
  21716848.293 9 114122780.923 9      1786.891 9        54.781                  
  20532902.458 9 107901101.899 9     -1494.487 9        56.457                  
  25034192.416 7 131555578.488 7     -1885.098 7        47.449                  
  20414732.768 9 107280146.947 9       796.270 9        56.906                  
 02  5 18 00 04  2.0000000  0  8G01G10G23G16G21G27G07G08                        
  23634700.562 7 124201188.375 7      3444.595 7        46.283                  
  21346697.522 8 112177646.791 8      -966.660 8        51.876                  
  23110383.348 8 121445879.860 8     -2950.513 8        50.446                  
  23609760.963 8 124070136.991 8     -3700.605 8        50.793                  
  21716505.797 9 114120994.062 9      1786.571 9        54.506                  
  20533184.091 9 107902596.532 9     -1495.240 9        56.872                  
  25034549.903 7 131557463.714 7     -1886.647 7        47.753                  
  20414581.167 9 107279351.784 9       794.492 9        54.175                  
 02  5 18 00 04  3.0000000  0  8G01G10G23G16G21G27G07G08                        
  23634045.501 7 124197744.600 7      3442.842 7        47.496                  
  21346879.375 9 112178613.997 9      -967.858 9        54.454                  
  23110944.542 8 121448829.693 8     -2951.074 8        49.301                  
  23610466.450 8 124073839.336 8     -3703.257 8        51.759                  
  21716162.909 9 114119207.513 9      1786.828 9        55.492                  
  20533466.654 9 107904091.655 9     -1495.109 9        56.174                  
  25034907.248 7 131559349.268 7     -1884.152 7        47.351                  
  20414429.084 9 107278557.127 9       794.193 9        56.287                  
 02  5 18 00 04  4.0000000  0  8G01G10G23G16G21G27G07G08                        
  23633390.941 8 124194300.987 8      3443.705 8        48.502                  
  21347062.390 9 112179581.796 9      -967.242 9        57.038                  
  23111502.717 8 121451779.904 8     -2948.835 8        50.446                  
  23611171.633 8 124077541.844 8     -3703.694 8        50.397                  
  21715827.722 8 114117421.291 8      1785.367 8        53.343                  
  20533750.003 9 107905587.278 9     -1495.897 9        56.670                  
  25035269.435 7 131561235.163 7     -1887.060 7        45.174                  
  20414276.822 9 107277762.962 9       793.719 9        55.692                  
 02  5 18 00 04  5.0000000  0  8G01G10G23G16G21G27G07G08                        
  23632734.397 7 124190857.556 7      3443.126 7        47.999                  
  21347249.514 9 112180550.192 9      -968.398 9        58.638                  
  23112065.091 8 121454730.522 8     -2949.966 8        49.450                  
  23611874.993 8 124081244.522 8     -3703.549 8        51.267                  
  21715488.085 9 114115635.365 9      1785.705 9        54.255                  
  20534034.067 9 107907083.392 9     -1496.477 9        56.603                  
  25035625.493 7 131563121.384 7     -1885.153 7        44.365                  
  20414126.294 9 107276969.303 9       792.804 9        57.865                  
 02  5 18 00 04  6.0000000  0  8G01G10G23G16G21G27G07G08                        
  23632080.230 8 124187414.281 8      3442.893 8        49.448                  
  21347435.048 9 112181519.207 9      -970.308 9        54.993                  
  23112629.180 8 121457681.501 8     -2952.212 8        49.628                  
  23612579.658 8 124084947.400 8     -3702.369 8        49.152                  
  21715144.785 8 114113849.756 8      1786.906 8        53.033                  
  20534319.864 9 107908579.993 9     -1497.130 9        55.880                  
  25035988.217 7 131565007.948 7     -1888.212 7        45.103                  
  20413975.390 9 107276176.133 9       792.625 9        57.029                  
 02  5 18 00 04  7.0000000  0  8G01G10G23G16G21G27G07G08                        
  23631424.491 8 124183971.209 8      3443.150 8        48.382                  
  21347617.419 9 112182488.819 9      -968.204 9        54.681                  
  23113190.053 8 121460632.802 8     -2948.829 8        50.754                  
  23613284.859 8 124088650.483 8     -3705.088 8        49.689                  
  21714804.792 9 114112064.463 9      1784.905 9        54.039                  
  20534607.270 9 107910077.118 9     -1498.092 9        54.789                  
  25036345.186 7 131566894.810 7     -1890.452 7        43.681                  
  20413823.217 9 107275383.487 9       792.853 9        58.466                  
 02  5 18 00 04  8.0000000  0  8G01G10G23G16G21G27G07G08                        
  23630768.340 8 124180528.346 8      3439.903 8        49.598                  
  21347800.237 9 112183458.971 9      -969.735 9        54.143                  
  23113750.622 8 121463584.342 8     -2953.627 8        49.325                  
  23613989.667 8 124092353.921 8     -3702.509 8        49.082                  
  21714469.158 8 114110279.516 8      1785.349 8        52.655                  
  20534894.300 8 107911574.744 8     -1497.479 8        53.473                  
  25036703.264 7 131568782.004 7     -1887.542 7        46.099                  
  20413672.796 9 107274591.305 9       792.449 9        57.542                  
 02  5 18 00 04  9.0000000  0  8G01G10G23G16G21G27G07G08                        
  23630114.441 8 124177086.771 8      3440.680 8        48.701                  
  21347986.433 9 112184429.077 9      -967.842 9        54.745                  
  23114313.478 8 121466535.035 8     -2944.920 8        49.150                  
  23614693.742 8 124096058.530 8     -3704.007 8        49.035                  
  21714129.021 8 114108495.605 8      1782.500 8        53.221                  
  20535180.704 8 107913072.797 8     -1497.816 8        53.987                  
  25037065.165 7 131570670.263 7     -1893.996 7        46.700                  
  20413523.089 9 107273799.697 9       790.327 9        58.414                  
 02  5 18 00 04 10.0000000  0  8G01G10G23G16G21G27G07G08                        
  23629461.972 7 124173662.376 7      3414.462 7        47.550                  
  21348171.037 9 112185389.665 9      -954.719 9        56.018                  
  23114872.171 8 121469473.059 8     -2927.725 8        49.266                  
  23615400.391 8 124099765.926 8     -3707.804 8        50.860                  
  21713788.294 8 114106724.444 8      1761.911 8        53.594                  
  20535465.394 9 107914566.274 9     -1490.866 9        56.014                  
  25037424.797 7 131572575.963 7     -1917.030 7        46.167                  
  20413372.685 9 107273012.463 9       784.833 9        57.409                  
 02  5 18 00 04 11.0000000  0  8G01G10G23G16G21G27G07G08                        
  23628814.934 7 124170259.740 7      3397.558 7        46.708                  
  21348351.372 8 112186337.936 8      -946.255 8        53.594                  
  23115427.219 8 121472394.418 8     -2919.228 8        51.102                  
  23616106.843 8 124103477.833 8     -3715.732 8        50.071                  
  21713454.126 8 114104969.288 8      1753.042 8        52.663                  
  20535747.581 9 107916054.106 9     -1488.737 9        56.291                  
  25037793.667 7 131574503.329 7     -1931.316 7        46.119                  
  20413223.193 9 107272230.435 9       782.119 9        55.507                  
 02  5 18 00 04 12.0000000  0  8G01G10G23G16G21G27G07G08                        
  23628167.736 8 124166853.486 8      3411.861 8        48.792                  
  21348529.758 9 112187288.874 9      -955.212 9        54.855                  
  23115984.429 8 121475313.005 8     -2919.910 8        50.450                  
  23616814.295 8 124107201.588 8     -3730.178 8        50.430                  
  21713121.405 9 114103210.209 9      1764.291 9        54.321                  
  20536028.697 9 107917547.325 9     -1498.193 9        57.424                  
  25038156.390 7 131576421.553 7     -1912.594 7        45.038                  
  20413075.434 9 107271445.535 9       788.688 9        57.093                  
 02  5 18 00 04 13.0000000  0  8G01G10G23G16G21G27G07G08                        
  23627516.089 8 124163434.925 8      3420.973 8        48.963                  
  21348710.878 9 112188247.549 9      -960.229 9        55.342                  
  23116539.655 8 121478233.795 8     -2920.664 8        48.999                  
  23617526.215 8 124110939.377 8     -3742.191 8        49.921                  
  21712787.736 9 114101440.481 9      1772.217 9        55.231                  
  20536312.653 9 107919049.572 9     -1505.043 9        56.800                  
  25038520.150 7 131578320.344 7     -1891.265 7        46.392                  
  20412924.244 9 107270655.109 9       791.957 9        57.630                  
 02  5 18 00 04 14.0000000  0  8G01G10G23G16G21G27G07G08                        
  23626864.495 7 124160014.869 7      3422.856 7        47.309                  
  21348896.573 9 112189207.755 9      -959.598 9        54.799                  
  23117095.417 8 121481154.388 8     -2919.273 8        49.687                  
  23618238.367 8 124114680.807 8     -3739.924 8        49.238                  
  21712444.061 9 114099669.402 9      1771.144 9        54.073                  
  20536597.647 9 107920553.936 9     -1504.964 9        57.281                  
  25038878.942 7 131580216.134 7     -1895.537 7        47.228                  
  20412772.215 9 107269864.014 9       791.374 9        57.633                  
 02  5 18 00 04 15.0000000  0  8G01G10G23G16G21G27G07G08                        
  23626216.028 8 124156595.254 8      3418.704 8        48.453                  
  21349080.678 8 112190168.367 8      -958.712 8        53.774                  
  23117648.481 8 121484075.020 8     -2919.957 8        50.573                  
  23618950.519 8 124118422.716 8     -3743.029 8        48.106                  
  21712107.874 8 114097898.797 8      1770.211 8        53.457                  
  20536883.301 9 107922058.796 9     -1505.080 9        57.791                  
  25039238.342 7 131582112.407 7     -1897.461 7        46.350                  
  20412623.312 9 107269073.442 9       790.394 9        58.190                  
 02  5 18 00 04 16.0000000  0  8G01G10G23G16G21G27G07G08                        
  23625564.023 7 124153175.845 7      3416.846 7        47.411                  
  21349262.317 9 112191129.566 9      -961.483 9        54.286                  
  23118204.815 8 121486995.967 8     -2920.542 8        49.989                  
  23619661.903 8 124122164.863 8     -3740.830 8        51.300                  
  21711775.671 8 114096128.539 8      1770.472 8        52.715                  
  20537170.635 9 107923564.148 9     -1505.431 9        56.528                  
  25039603.906 7 131584009.021 7     -1893.127 7        46.837                  
  20412471.551 9 107268283.382 9       790.111 9        57.775                  
 02  5 18 00 04 17.0000000  0  8G01G10G23G16G21G27G07G08                        
  23624913.037 8 124149756.609 8      3419.895 8        48.516                  
  21349443.562 9 112192091.346 9      -962.932 9        54.448                  
  23118762.847 8 121489917.273 8     -2920.965 8        48.580                  
  23620374.448 8 124125907.200 8     -3742.925 8        49.893                  
  21711440.591 9 114094358.592 9      1769.845 9        54.066                  
  20537459.773 9 107925069.987 9     -1505.784 9        54.595                  
  25039961.769 7 131585905.990 7     -1899.630 7        45.765                  
  20412322.201 9 107267493.835 9       790.077 9        56.470                  
 02  5 18 00 04 18.0000000  0  8G01G10G23G16G21G27G07G08                        
  23624263.801 7 124146337.526 7      3415.895 7        47.561                  
  21349627.113 8 112193053.719 8      -962.641 8        53.781                  
  23119317.180 8 121492838.943 8     -2923.318 8        49.128                  
  23621087.422 8 124129649.714 8     -3741.447 8        49.738                  
  21711101.222 9 114092588.917 9      1769.373 9        54.771                  
  20537748.215 9 107926576.314 9     -1506.711 9        56.691                  
  25040324.421 7 131587803.297 7     -1898.834 7        45.954                  
  20412171.154 9 107266704.776 9       789.480 9        55.144                  
 02  5 18 00 04 19.0000000  0  8G01G10G23G16G21G27G07G08                        
  23623611.886 8 124142918.611 8      3417.442 8        50.903                  
  21349812.718 8 112194016.694 8      -964.467 8        51.912                  
  23119874.854 8 121495760.961 8     -2919.697 8        48.943                  
  23621799.073 8 124133392.398 8     -3740.184 8        50.515                  
  21710759.977 8 114090819.558 8      1768.948 8        52.812                  
  20538036.818 9 107928083.158 9     -1507.107 9        55.082                  
  25040685.358 7 131589700.961 7     -1896.043 7        45.243                  
  20412021.734 9 107265916.230 9       788.642 9        55.732                  
 02  5 18 00 04 20.0000000  0  8G01G10G23G16G21G27G07G08                        
  23622961.686 8 124139499.868 8      3418.859 8        48.723                  
  21349996.537 8 112194980.262 8      -965.089 8        52.660                  
  23120430.885 8 121498683.362 8     -2922.419 8        49.813                  
  23622510.654 8 124137135.272 8     -3743.741 8        50.832                  
  21710427.578 8 114089050.540 8      1768.899 8        53.734                  
  20538323.758 9 107929590.464 9     -1507.789 9        55.557                  
  25041044.078 7 131591598.966 7     -1900.138 7        44.974                  
  20411872.170 9 107265128.160 9       787.905 9        57.385                  
 02  5 18 00 04 21.0000000  0  8G01G10G23G16G21G27G07G08                        
  23622311.664 8 124136081.267 8      3418.854 8        49.548                  
  21350176.764 9 112195944.428 9      -963.861 9        54.882                  
  23120986.218 8 121501606.127 8     -2920.997 8        49.365                  
  23623223.056 8 124140878.338 8     -3742.309 8        52.434                  
  21710093.391 8 114087281.807 8      1769.152 8        52.895                  
  20538611.432 9 107931098.294 9     -1507.738 9        57.091                  
  25041410.786 7 131593497.292 7     -1897.650 7        44.603                  
  20411722.320 9 107264340.614 9       786.568 9        56.627                  
 02  5 18 00 04 22.0000000  0  8G01G10G23G16G21G27G07G08                        
  23621660.463 8 124132662.835 8      3420.257 8        51.836                  
  21350359.743 9 112196909.190 9      -966.603 9        54.065                  
  23121541.623 8 121504529.259 8     -2923.204 8        50.692                  
  23623936.209 8 124144621.557 8     -3743.627 8        50.485                  
  21709753.862 9 114085513.356 9      1768.183 9        54.953                  
  20538897.622 9 107932606.624 9     -1507.908 9        56.419                  
  25041767.559 7 131595395.940 7     -1899.319 7        45.669                  
  20411572.078 9 107263553.586 9       787.070 9        54.859                  
 02  5 18 00 04 23.0000000  0  8G01G10G23G16G21G27G07G08                        
  23621010.692 8 124129244.593 8      3419.223 8        49.150                  
  21350545.866 9 112197874.595 9      -965.048 9        55.513                  
  23122097.832 8 121507452.779 8     -2920.984 8        49.747                  
  23624647.914 8 124148364.991 8     -3743.634 8        49.591                  
  21709414.583 9 114083745.270 9      1767.618 9        55.661                  
  20539182.401 9 107934115.482 9     -1510.193 9        55.817                  
  25042130.282 7 131597294.940 7     -1901.339 7        46.729                  
  20411422.496 9 107262767.079 9       785.815 9        57.218                  
 02  5 18 00 04 24.0000000  0  8G01G10G23G16G21G27G07G08                        
  23620359.688 8 124125826.465 8      3419.865 8        49.568                  
  21350731.025 9 112198840.544 9      -964.424 9        55.036                  
  23122655.578 8 121510376.652 8     -2925.574 8        48.595                  
  23625359.834 8 124152108.580 8     -3744.013 8        50.977                  
  21709080.879 8 114081977.443 8      1766.875 8        52.914                  
  20539467.555 9 107935624.801 9     -1509.020 9        54.616                  
  25042491.755 7 131599194.290 7     -1898.418 7        45.383                  
  20411273.040 9 107261981.037 9       786.228 9        56.966                  
 02  5 18 00 04 25.0000000  0  8G01G10G23G16G21G27G07G08                        
  23619708.469 8 124122408.533 8      3418.212 8        51.683                  
  21350912.503 8 112199807.069 8      -966.876 8        53.312                  
  23123212.055 8 121513300.867 8     -2924.101 8        50.843                  
  23626072.468 8 124155852.349 8     -3743.239 8        49.880                  
  21708747.711 9 114080209.927 9      1767.408 9        55.245                  
  20539753.602 9 107937134.624 9     -1509.653 9        54.142                  
  25042851.905 8 131601093.980 8     -1899.930 8        48.363                  
  20411123.780 9 107261195.507 9       784.651 9        56.276                  
 02  5 18 00 04 26.0000000  0  8G01G10G23G16G21G27G07G08                        
  23619058.912 8 124118990.731 8      3420.372 8        49.293                  
  21351095.696 9 112200774.179 9      -968.923 9        54.691                  
  23123767.407 8 121516225.465 8     -2925.575 8        49.789                  
  23626785.639 8 124159596.282 8     -3744.792 8        48.461                  
  21708408.825 9 114078442.699 9      1766.142 9        55.379                  
  20540040.275 9 107938644.934 9     -1510.983 9        54.963                  
  25043217.023 7 131602993.997 7     -1901.463 7        47.526                  
  20410974.359 9 107260410.475 9       785.329 9        57.143                  
 02  5 18 00 04 27.0000000  0  8G01G10G23G16G21G27G07G08                        
  23618409.659 8 124115573.109 8      3414.409 8        49.184                  
  21351280.694 9 112201741.895 9      -967.510 9        55.737                  
  23124326.010 8 121519150.434 8     -2922.808 8        48.626                  
  23627498.184 8 124163340.420 8     -3743.035 8        49.324                  
  21708069.457 9 114076675.789 9      1767.069 9        54.697                  
  20540327.537 9 107940155.745 9     -1511.435 9        57.232                  
  25043574.153 7 131604894.359 7     -1898.642 7        47.308                  
  20410825.045 9 107259625.949 9       783.850 9        57.716                  
 02  5 18 00 04 28.0000000  0  8G01G10G23G16G21G27G07G08                        
  23617757.905 8 124112155.654 8      3416.769 8        49.094                  
  21351466.872 9 112202710.187 9      -969.569 9        54.279                  
  23124882.255 8 121522075.770 8     -2927.480 8        50.903                  
  23628209.514 8 124167084.735 8     -3745.495 8        49.608                  
  21707735.288 9 114074909.188 9      1765.927 9        54.338                  
  20540616.157 9 107941667.055 9     -1511.589 9        58.094                  
  25043938.628 7 131606795.058 7     -1903.670 7        45.870                  
  20410676.000 9 107258841.923 9       783.875 9        56.663                  
 02  5 18 00 04 29.0000000  0  8G01G10G23G16G21G27G07G08                        
  23617108.062 8 124108738.364 8      3417.309 8        49.755                  
  21351651.065 9 112203679.083 9      -967.949 9        55.554                  
  23125437.285 8 121525001.464 8     -2926.323 8        50.305                  
  23628922.291 8 124170829.220 8     -3746.209 8        50.654                  
  21707402.942 9 114073142.885 9      1766.126 9        54.285                  
  20540905.779 9 107943178.867 9     -1512.589 9        56.994                  
  25044299.957 7 131608696.100 7     -1902.873 7        46.514                  
  20410527.294 9 107258058.384 9       783.618 9        58.593                  
 02  5 18 00 04 30.0000000  0  8G01G10G23G16G21G27G07G08                        
  23616458.773 8 124105321.229 8      3417.395 8        48.310                  
  21351833.186 9 112204648.577 9      -970.076 9        55.510                  
  23125995.477 8 121527927.527 8     -2924.607 8        49.785                  
  23629635.927 8 124174573.879 8     -3745.053 8        48.718                  
  21707065.074 9 114071376.911 9      1766.366 9        54.042                  
  20541195.489 9 107944691.157 9     -1513.268 9        56.060                  
  25044660.965 8 131610597.488 8     -1902.578 8        48.403                  
  20410378.606 9 107257275.369 9       783.501 9        58.367                  
 02  5 18 00 04 31.0000000  0  8G01G10G23G16G21G27G07G08                        
  23615807.125 8 124101904.262 8      3417.544 8        48.722                  
  21352016.987 9 112205618.664 9      -971.198 9        55.330                  
  23126554.259 8 121530853.961 8     -2924.096 8        49.939                  
  23630348.704 8 124178318.736 8     -3745.314 8        50.048                  
  21706724.795 8 114069611.255 8      1765.235 8        53.987                  
  20541484.789 9 107946203.947 9     -1512.183 9        57.110                  
  25045024.743 7 131612499.189 7     -1903.717 7        47.335                  
  20410229.381 9 107256492.854 9       782.039 9        58.844                  
 02  5 18 00 04 32.0000000  0  8G01G10G23G16G21G27G07G08                        
  23615157.122 8 124098487.424 8      3418.247 8        50.156                  
  21352204.398 9 112206589.294 9      -971.705 9        55.120                  
  23127108.717 8 121533780.728 8     -2927.329 8        49.963                  
  23631059.480 8 124182063.731 8     -3747.799 8        49.064                  
  21706390.823 9 114067845.862 9      1765.108 9        54.512                  
  20541773.266 9 107947717.202 9     -1514.111 9        55.978                  
  25045383.463 7 131614401.245 7     -1905.826 7        45.992                  
  20410081.158 9 107255710.769 9       781.378 9        58.868                  
 02  5 18 00 04 33.0000000  0  8G01G10G23G16G21G27G07G08                        
  23614508.047 8 124095070.783 8      3416.840 8        50.030                  
  21352390.736 9 112207560.549 9      -971.243 9        54.254                  
  23127665.069 8 121536707.886 8     -2928.343 8        50.086                  
  23631772.847 8 124185808.942 8     -3747.750 8        50.730                  
  21706059.084 9 114066080.796 9      1765.243 9        56.050                  
  20542061.493 9 107949230.993 9     -1515.120 9        58.073                  
  25045748.206 7 131616303.624 7     -1904.420 7        46.713                  
  20409932.791 9 107254929.260 9       780.306 9        57.141                  
 02  5 18 00 04 34.0000000  0  8G01G10G23G16G21G27G07G08                        
  23613856.775 7 124091654.303 7      3419.325 7        47.808                  
  21352572.267 9 112208532.404 9      -972.372 9        54.293                  
  23128224.048 8 121539635.412 8     -2925.994 8        48.895                  
  23632486.893 8 124189554.315 8     -3742.599 8        48.943                  
  21705722.986 8 114064316.035 8      1763.230 8        53.351                  
  20542349.631 9 107950745.273 9     -1514.561 9        55.781                  
  25046108.409 7 131618206.353 7     -1902.721 7        47.498                  
  20409784.675 9 107254148.262 9       781.013 9        57.966                  
 02  5 18 00 04 35.0000000  0  8G01G10G23G16G21G27G07G08                        
  23613207.611 8 124088237.989 8      3414.757 8        49.628                  
  21352755.961 9 112209504.854 9      -972.745 9        55.622                  
  23128781.079 8 121542563.316 8     -2926.505 8        48.838                  
  23633199.653 8 124193299.862 8     -3748.414 8        50.597                  
  21705380.848 9 114062551.577 9      1763.536 9        54.214                  
  20542636.161 9 107952260.042 9     -1514.780 9        56.335                  
  25046471.794 7 131620109.423 7     -1901.468 7        44.979                  
  20409636.970 9 107253367.758 9       780.387 9        57.734                  
 02  5 18 00 04 36.0000000  0  8G01G10G23G16G21G27G07G08                        
  23612557.358 8 124084821.845 8      3416.149 8        48.779                  
  21352944.175 9 112210477.898 9      -973.571 9        55.521                  
  23129336.323 8 121545491.573 8     -2927.185 8        51.567                  
  23633910.947 8 124197045.583 8     -3745.279 8        49.318                  
  21705046.715 9 114060787.433 9      1763.229 9        55.107                  
  20542922.494 9 107953775.310 9     -1514.754 9        56.126                  
  25046834.160 7 131622012.825 7     -1902.598 7        44.420                  
  20409488.710 9 107252587.761 9       779.101 9        58.536                  
 02  5 18 00 04 37.0000000  0  8G01G10G23G16G21G27G07G08                        
  23611907.086 8 124081405.845 8      3418.530 8        48.291                  
  21353130.960 9 112211451.541 9      -974.175 9        55.768                  
  23129893.890 8 121548420.188 8     -2929.675 8        49.611                  
  23634623.850 8 124200791.486 8     -3747.565 8        49.883                  
  21704715.620 9 114059023.596 9      1763.898 9        54.438                  
  20543209.650 9 107955291.081 9     -1515.897 9        56.873                  
  25047194.685 7 131623916.560 7     -1899.356 7        43.341                  
  20409340.683 9 107251808.277 9       778.534 9        57.366                  
 02  5 18 00 04 38.0000000  0  8G01G10G23G16G21G27G07G08                        
  23611257.154 7 124077990.007 7      3416.657 7        47.813                  
  21353313.421 9 112212425.779 9      -974.326 9        54.992                  
  23130453.852 8 121551349.181 8     -2928.466 8        50.645                  
  23635337.592 8 124204537.589 8     -3745.693 8        50.048                  
  21704379.575 8 114057260.069 8      1763.652 8        53.647                  
  20543497.394 9 107956807.338 9     -1516.052 9        57.283                  
  25047559.499 7 131625820.642 7     -1904.807 7        44.823                  
  20409192.478 9 107251029.276 9       778.458 9        57.415                  
 02  5 18 00 04 39.0000000  0  8G01G10G23G16G21G27G07G08                        
  23610607.293 8 124074574.364 8      3413.408 8        48.279                  
  21353498.025 8 112213400.614 8      -974.030 8        53.957                  
  23131009.418 8 121554278.511 8     -2928.579 8        52.103                  
  23636050.834 8 124208283.872 8     -3744.784 8        49.744                  
  21704040.331 8 114055496.840 8      1762.694 8        53.605                  
  20543784.871 9 107958324.110 9     -1516.174 9        57.313                  
  25047919.953 7 131627725.054 7     -1904.415 7        46.648                  
  20409044.647 9 107250250.796 9       778.264 9        56.585                  
 02  5 18 00 04 40.0000000  0  8G01G10G23G16G21G27G07G08                        
  23609955.699 8 124071158.914 8      3416.338 8        48.502                  
  21353685.614 8 112214376.007 8      -976.530 8        53.247                  
  23131566.270 8 121557208.142 8     -2930.935 8        50.337                  
  23636762.611 8 124212030.395 8     -3746.397 8        49.561                  
  21703706.002 9 114053733.984 9      1762.912 9        55.231                  
  20544073.974 9 107959841.383 9     -1516.948 9        57.311                  
  25048284.034 7 131629629.826 7     -1905.663 7        47.220                  
  20408896.334 9 107249472.809 9       777.005 9        58.714                  
 02  5 18 00 04 41.0000000  0  8G01G10G23G16G21G27G07G08                        
  23609306.643 8 124067743.900 8      3414.694 8        49.654                  
  21353872.739 8 112215351.819 8      -975.992 8        52.979                  
  23132125.303 8 121560137.829 8     -2930.364 8        49.348                  
  23637475.424 8 124215777.381 8     -3745.588 8        49.518                  
  21703373.048 8 114051971.569 8      1762.607 8        53.499                  
  20544363.399 9 107961359.132 9     -1518.284 9        58.001                  
  25048643.863 7 131631535.099 7     -1902.975 7        45.413                  
  20408748.915 9 107248695.338 9       778.508 9        57.137                  
 02  5 18 00 04 42.0000000  0  8G01G10G23G16G21G27G07G08                        
  23608658.837 7 124064332.995 7      3401.703 7        47.991                  
  21354056.951 8 112216325.909 8      -970.317 8        52.032                  
  23132682.298 8 121563065.409 8     -2923.844 8        48.458                  
  23638189.113 8 124219524.029 8     -3743.526 8        50.950                  
  21703039.434 9 114050212.469 9      1753.049 9        55.357                  
  20544654.235 9 107962875.852 9     -1513.530 9        56.261                  
  25049008.802 7 131633445.232 7     -1920.875 7        46.382                  
  20408601.406 9 107247919.491 9       774.259 9        56.448                  
 02  5 18 00 04 43.0000000  0  8G01G10G23G16G21G27G07G08                        
  23608011.961 8 124060940.092 8      3385.049 8        48.147                  
  21354238.696 8 112217290.134 8      -957.143 8        52.021                  
  23133235.880 8 121565984.588 8     -2914.629 8        49.142                  
  23638901.497 8 124223263.630 8     -3737.908 8        50.381                  
  21702703.585 9 114048467.849 9      1736.728 9        54.128                  
  20544942.730 9 107964384.649 9     -1505.790 9        57.768                  
  25049374.063 7 131635378.177 7     -1938.015 7        44.105                  
  20408456.077 9 107247150.139 9       766.312 9        57.398                  
 02  5 18 00 04 44.0000000  0  8G01G10G23G16G21G27G07G08                        
  23607369.194 8 124057558.355 8      3381.453 8        48.770                  
  21354421.157 8 112218248.331 8      -959.082 8        50.239                  
  23133792.482 8 121568895.169 8     -2908.208 8        49.375                  
  23639611.898 8 124227006.075 8     -3754.913 8        49.110                  
  21702371.508 8 114046731.448 8      1737.803 8        50.715                  
  20545230.797 9 107965890.937 9     -1509.625 9        57.649                  
  25049743.362 7 131637322.174 7     -1937.914 7        45.584                  
  20408310.981 9 107246383.548 9       768.197 9        55.959                  
 02  5 18 00 04 45.0000000  0  8G01G10G23G16G21G27G07G08                        
  23606725.248 8 124054173.768 8      3386.922 8        49.136                  
  21354606.030 8 112219208.466 8      -961.003 8        49.330                  
  23134344.528 8 121571798.479 8     -2898.972 8        50.189                  
  23640328.160 8 124230768.431 8     -3771.866 8        50.875                  
  21702042.235 8 114044990.782 8      1743.287 8        53.377                  
  20545519.417 9 107967404.844 9     -1517.388 9        57.642                  
  25050114.912 7 131639254.320 7     -1927.386 7        44.756                  
  20408165.223 9 107245612.764 9       772.212 9        56.088                  
 02  5 18 00 04 46.0000000  0  8G01G10G23G16G21G27G07G08                        
  23606080.587 8 124050788.343 8      3384.670 8        49.596                  
  21354789.616 8 112220169.567 8      -960.945 8        50.883                  
  23134894.304 8 121574698.338 8     -2900.252 8        49.233                  
  23641046.584 8 124234540.042 8     -3769.711 8        49.617                  
  21701713.552 8 114043248.611 8      1741.808 8        53.384                  
  20545809.342 9 107968922.448 9     -1517.383 9        56.832                  
  25050479.601 7 131641181.651 7     -1928.793 7        45.977                  
  20408018.947 9 107244840.431 9       771.995 9        57.284                  
 02  5 18 00 04 47.0000000  0  8G01G10G23G16G21G27G07G08                        
  23605435.766 8 124047403.673 8      3383.800 8        49.503                  
  21354969.700 8 112221130.906 8      -960.933 8        52.891                  
  23135447.190 8 121577597.986 8     -2898.592 8        49.655                  
  23641764.705 8 124238312.194 8     -3776.364 8        49.393                  
  21701382.261 8 114041507.140 8      1741.149 8        52.059                  
  20546097.498 9 107970440.436 9     -1518.269 9        55.751                  
  25050850.205 7 131643109.759 7     -1929.854 7        43.743                  
  20407872.046 9 107244068.672 9       771.537 9        57.001                  
 02  5 18 00 04 48.0000000  0  8G01G10G23G16G21G27G07G08                        
  23604793.267 8 124044019.258 8      3383.663 8        50.343                  
  21355151.875 9 112222092.760 9      -961.614 9        56.242                  
  23136001.076 8 121580497.859 8     -2901.971 8        50.427                  
  23642483.307 8 124242084.606 8     -3771.884 8        48.148                  
  21701048.789 9 114039766.018 9      1740.891 9        54.787                  
  20546384.761 9 107971958.888 9     -1518.240 9        57.320                  
  25051212.285 7 131645038.317 7     -1930.550 7        43.460                  
  20407725.252 9 107243297.446 9       771.463 9        58.763                  
 02  5 18 00 04 49.0000000  0  8G01G10G23G16G21G27G07G08                        
  23604148.892 8 124040635.027 8      3383.265 8        48.921                  
  21355337.016 8 112223055.184 8      -962.930 8        53.879                  
  23136550.655 8 121583398.075 8     -2900.161 8        50.095                  
  23643200.355 8 124245857.212 8     -3773.582 8        49.094                  
  21700714.066 8 114038025.202 8      1739.823 8        50.337                  
  20546671.755 9 107973477.841 9     -1520.021 9        56.358                  
  25051581.906 7 131646967.232 7     -1926.919 7        44.491                  
  20407579.977 9 107242526.724 9       770.001 9        56.777                  
 02  5 18 00 04 50.0000000  0  8G01G10G23G16G21G27G07G08                        
  23603503.535 7 124037250.948 7      3383.209 7        47.426                  
  21355522.014 9 112224018.155 9      -963.776 9        55.457                  
  23137101.611 8 121586298.663 8     -2899.972 8        51.638                  
  23643917.511 8 124249630.007 8     -3772.723 8        49.450                  
  21700386.474 8 114036284.688 8      1740.066 8        52.999                  
  20546959.786 9 107974997.283 9     -1520.267 9        57.557                  
  25051947.416 7 131648896.495 7     -1924.509 7        44.375                  
  20407434.219 9 107241756.514 9       770.146 9        57.924                  
 02  5 18 00 04 51.0000000  0  8G01G10G23G16G21G27G07G08                        
  23602860.911 7 124033867.037 7      3384.032 7        47.258                  
  21355704.600 9 112224981.724 9      -962.831 9        54.398                  
  23137654.961 8 121589199.625 8     -2901.431 8        50.695                  
  23644636.471 7 124253402.968 7     -3769.867 7        47.259                  
  21700058.327 8 114034544.459 8      1740.649 8        53.892                  
  20547248.049 9 107976517.224 9     -1519.446 9        56.226                  
  25052315.411 7 131650826.100 7     -1928.661 7        45.303                  
  20407288.176 9 107240986.789 9       769.541 9        56.769                  
 02  5 18 00 04 52.0000000  0  8G01G10G23G16G21G27G07G08                        
  23602217.233 7 124030483.295 7      3384.039 7        46.887                  
  21355885.809 8 112225945.891 8      -964.510 8        52.848                  
  23138207.114 8 121592100.943 8     -2902.303 8        49.591                  
  23645354.913 8 124257176.097 8     -3772.635 8        49.365                  
  21699725.284 8 114032804.539 8      1740.370 8        53.028                  
  20547536.919 9 107978037.657 9     -1521.229 9        57.485                  
  25052683.763 7 131652756.042 7     -1931.858 7        45.878                  
  20407143.008 9 107240217.580 9       768.603 9        56.685                  
 02  5 18 00 04 53.0000000  0  8G01G10G23G16G21G27G07G08                        
  23601573.001 7 124027099.718 7      3382.012 7        47.128                  
  21356069.610 8 112226910.686 8      -966.004 8        53.062                  
  23138757.694 8 121595002.622 8     -2902.592 8        51.138                  
  23646071.854 8 124260949.440 8     -3771.350 8        49.713                  
  21699389.990 8 114031064.955 8      1738.943 8        53.588                  
  20547825.897 9 107979558.636 9     -1520.388 9        56.958                  
  25053048.202 7 131654686.343 7     -1926.948 7        44.977                  
  20406997.322 9 107239448.917 9       768.203 9        56.280                  
 02  5 18 00 04 54.0000000  0  8G01G10G23G16G21G27G07G08                        
  23600928.394 7 124023716.284 7      3382.262 7        46.857                  
  21356255.573 8 112227876.028 8      -964.238 8        53.191                  
  23139312.295 8 121597904.641 8     -2900.736 8        52.172                  
  23646789.599 8 124264722.953 8     -3776.489 8        50.002                  
  21699059.699 8 114029325.654 8      1739.805 8        51.795                  
  20548116.215 9 107981080.081 9     -1521.658 9        56.781                  
  25053418.609 7 131656616.962 7     -1929.860 7        46.023                  
  20406851.386 9 107238680.720 9       767.361 9        55.817                  
 02  5 18 00 04 55.0000000  0  8G01G10G23G16G21G27G07G08                        
  23600286.825 7 124020332.994 7      3380.687 7        47.210                  
  21356439.981 8 112228841.923 8      -966.887 8        52.119                  
  23139864.627 8 121600807.043 8     -2902.807 8        49.413                  
  23647507.165 8 124268496.645 8     -3775.439 8        49.269                  
  21698732.195 8 114027586.654 8      1738.523 8        51.090                  
  20548406.658 9 107982602.013 9     -1522.138 9        56.361                  
  25053784.781 7 131658547.958 7     -1934.570 7        44.951                  
  20406704.395 9 107237913.014 9       768.603 9        55.061                  
 02  5 18 00 04 56.0000000  0  8G01G10G23G16G21G27G07G08                        
  23599641.270 8 124016949.889 8      3386.867 8        48.755                  
  21356621.120 8 112229808.413 8      -967.316 8        53.839                  
  23140415.421 8 121603709.785 8     -2899.543 8        48.776                  
  23648226.554 8 124272270.510 8     -3776.230 8        48.783                  
  21698403.030 8 114025847.963 8      1737.818 8        52.955                  
  20548696.851 9 107984124.445 9     -1522.315 9        58.046                  
  25054154.973 7 131660479.275 7     -1929.992 7        46.819                  
  20406558.905 9 107237145.808 9       766.647 9        55.599                  
 02  5 18 00 04 57.0000000  0  8G01G10G23G16G21G27G07G08                        
  23598996.699 8 124013566.922 8      3382.532 8        48.823                  
  21356804.081 8 112230775.498 8      -967.052 8        52.486                  
  23140969.093 8 121606612.892 8     -2903.159 8        49.121                  
  23648945.175 8 124276044.544 8     -3773.956 8        49.686                  
  21698070.023 8 114024109.557 8      1738.502 8        53.799                  
  20548988.152 9 107985647.367 9     -1523.565 9        55.480                  
  25054519.287 7 131662410.931 7     -1929.707 7        47.357                  
  20406411.861 9 107236379.090 9       765.965 9        56.768                  
 02  5 18 00 04 58.0000000  0  8G01G10G23G16G21G27G07G08                        
  23598354.093 8 124010184.125 8      3378.749 8        48.845                  
  21356990.955 9 112231743.181 9      -969.068 9        54.559                  
  23141521.978 8 121609516.356 8     -2904.754 8        51.691                  
  23649662.670 8 124279818.756 8     -3772.405 8        49.780                  
  21697736.015 8 114022371.450 8      1737.633 8        53.676                  
  20549279.649 9 107987170.804 9     -1523.428 9        56.188                  
  25054890.409 8 131664342.940 8     -1934.490 8        48.101                  
  20406265.585 9 107235612.897 9       765.221 9        58.907                  
 02  5 18 00 04 59.0000000  0  8G01G10G23G16G21G27G07G08                        
  23597711.148 8 124006801.475 8      3383.233 8        49.738                  
  21357176.578 8 112232711.446 8      -968.785 8        52.891                  
  23142072.380 8 121612420.172 8     -2902.150 8        49.998                  
  23650380.129 8 124283593.152 8     -3773.320 8        49.869                  
  21697405.885 8 114020633.628 8      1738.565 8        53.668                  
  20549569.664 9 107988694.737 9     -1524.017 9        56.718                  
  25055255.133 7 131666275.287 7     -1929.414 7        47.896                  
  20406118.309 9 107234847.202 9       764.550 9        55.515                  
