     2.11           OBSERVATION DATA    G                   RINEX VERSION / TYPE
BLANK OR G = GPS,  R = GLONASS,  E = GALILEO,  M = MIXED    COMMENT             
GNSS-SDR            joel                17-APR-25 07:34     PGM / RUN BY / DATE 
GPS OBSERVATION DATA FILE GENERATED BY GNSS-SDR             COMMENT             
GNSS-SDR VERSION 0.0.16                                     COMMENT             
See https://gnss-sdr.org                                    COMMENT             
DEFAULT MARKER NAME                                         MARKER NAME         
joel                CTTC                                    OBSERVER / AGENCY   
GNSS-SDR            Software Receiver   0.0.16              REC # / TYPE / VERS 
Antenna number      Antenna type                            ANT # / TYPE        
        0.0000        0.0000        0.0000                  APPROX POSITION XYZ 
        0.0000        0.0000        0.0000                  ANTENNA: DELTA H/E/N
     1     1                                                WAVELENGTH FACT L1/2
     4    C1    L1    D1    S1                              # / TYPES OF OBSERV 
  2002    05    18    00    00   42.1200000     GPS         TIME OF FIRST OBS   
    18                                                      LEAP SECONDS        
                                                            END OF HEADER       
 02  5 18 00 00 43.0000000  0  6G01G16G10G21G07G08                              
  23763590.557 7 124878514.381 7      3399.696 7        46.684                  
  23471245.193 8 123342230.695 8     -3662.994 8        49.406                  
  21313658.681 9 112004040.667 9      -798.336 9        54.378                  
  21783585.538 8 114473515.344 8      1786.636 8        53.259                  
  24961618.630 7 131174188.514 7     -1906.860 7        45.633                  
  20445704.806 9 107442908.360 9       868.249 9        55.799                  
 02  5 18 00 00 44.0000000  0  6G01G16G10G21G07G08                              
  23762945.592 7 124875117.259 7      3394.655 7        46.770                  
  23471943.854 8 123345894.470 8     -3663.426 8        50.488                  
  21313811.211 8 112004839.024 8      -799.527 8        53.914                  
  21783249.386 9 114471728.133 9      1786.414 9        54.224                  
  24961981.978 7 131176093.041 7     -1909.805 7        46.109                  
  20445541.823 9 107442040.516 9       867.788 9        56.826                  
 02  5 18 00 00 45.0000000  0  6G01G16G10G21G07G08                              
  23762299.002 7 124871720.311 7      3394.041 7        47.505                  
  23472640.764 8 123349558.442 8     -3662.073 8        50.283                  
  21313963.044 9 112005638.022 9      -798.032 9        54.604                  
  21782906.712 8 114469941.232 8      1786.910 8        53.223                  
  24962342.683 7 131177997.923 7     -1904.903 7        46.786                  
  20445380.198 9 107441173.149 9       867.250 9        57.368                  
 02  5 18 00 00 46.0000000  0  6G01G16G10G21G07G08                              
  23761651.160 8 124868323.515 8      3395.465 8        48.418                  
  23473337.673 8 123353222.599 8     -3665.613 8        49.297                  
  21314115.253 9 112006437.619 9      -799.383 9        54.143                  
  21782563.537 8 114468154.641 8      1786.830 8        53.634                  
  24962709.087 7 131179903.164 7     -1905.451 7        45.005                  
  20445215.677 9 107440306.259 9       866.660 9        56.301                  
 02  5 18 00 00 47.0000000  0  6G01G16G10G21G07G08                              
  23761005.713 7 124864926.872 7      3392.839 7        47.628                  
  23474035.637 8 123356886.951 8     -3665.559 8        50.483                  
  21314268.462 8 112007237.812 8      -801.047 8        53.803                  
  21782227.296 8 114466368.352 8      1785.611 8        52.245                  
  24963068.433 7 131181808.745 7     -1907.415 7        45.944                  
  20445048.388 9 107439439.823 9       865.979 9        55.630                  
 02  5 18 00 00 48.0000000  0  7G01G16G23G10G21G07G08                           
  23760360.034 7 124861530.391 7      3396.517 7        47.346                  
  23474732.958 8 123360551.505 8     -3664.551 8        50.439                  
  23003811.941 8 120885847.546 8     -2822.510 8        50.779                  
  21314420.241 9 112008038.612 9      -801.059 9        56.882                  
  21781887.784 8 114464582.358 8      1785.158 8        52.285                  
  24963433.193 7 131183714.683 7     -1905.885 7        46.246                  
  20444880.991 9 107438573.862 9       864.953 9        57.925                  
 02  5 18 00 00 49.0000000  0  7G01G16G23G10G21G07G08                           
  23759712.085 8 124858134.070 8      3396.604 8        49.105                  
  23475429.671 8 123364216.251 8     -3667.134 8        50.711                  
  23004345.867 8 120888668.780 8     -2821.148 8        49.432                  
  21314573.540 9 112008840.055 9      -802.225 9        57.279                  
  21781545.575 8 114462796.662 8      1785.502 8        53.589                  
  24963795.113 7 131185620.983 7     -1907.315 7        46.815                  
  20444713.254 9 107437708.377 9       865.611 9        57.236                  
 02  5 18 00 00 50.0000000  0  7G01G16G23G10G21G07G08                           
  23759066.281 7 124854737.906 7      3396.990 7        47.095                  
  23476128.386 8 123367881.173 8     -3665.728 8        48.834                  
  23004883.850 8 120891490.407 8     -2822.127 8        49.599                  
  21314726.105 9 112009642.095 9      -801.909 9        56.270                  
  21781204.919 8 114461011.265 8      1787.111 8        53.308                  
  24964157.050 7 131187527.626 7     -1905.313 7        47.782                  
  20444545.267 9 107436843.361 9       864.883 9        58.655                  
 02  5 18 00 00 51.0000000  0  7G01G16G23G10G21G07G08                           
  23758421.549 7 124851341.921 7      3393.905 7        47.527                  
  23476824.849 8 123371546.307 8     -3665.762 8        50.493                  
  23005422.261 8 120894312.419 8     -2821.814 8        49.855                  
  21314878.993 9 112010444.732 9      -802.743 9        54.759                  
  21780869.375 8 114459226.167 8      1783.596 8        53.158                  
  24964522.918 7 131189434.629 7     -1906.596 7        47.331                  
  20444381.391 9 107435978.807 9       863.707 9        54.627                  
 02  5 18 00 00 52.0000000  0  7G01G16G23G10G21G07G08                           
  23757774.333 8 124847946.075 8      3397.190 8        48.307                  
  23477522.170 8 123375211.640 8     -3666.343 8        49.674                  
  23005957.188 8 120897134.815 8     -2822.241 8        51.386                  
  21315031.952 9 112011247.989 9      -804.183 9        54.026                  
  21780530.221 8 114457441.364 8      1784.977 8        51.519                  
  24964882.460 7 131191341.991 7     -1911.302 7        46.038                  
  20444219.229 9 107435114.730 9       864.520 9        56.363                  
 02  5 18 00 00 53.0000000  0  7G01G16G23G10G21G07G08                           
  23757127.188 7 124844550.402 7      3393.063 7        47.986                  
  23478220.813 8 123378877.143 8     -3662.367 8        49.494                  
  23006496.976 8 120899957.603 8     -2823.619 8        49.660                  
  21315184.857 9 112012051.876 9      -805.068 9        55.024                  
  21780186.135 8 114455656.858 8      1784.931 8        51.847                  
  24965249.365 7 131193249.699 7     -1908.636 7        46.796                  
  20444056.979 9 107434251.131 9       863.371 9        57.123                  
 02  5 18 00 00 54.0000000  0  7G01G16G23G10G21G07G08                           
  23756482.528 7 124841154.887 7      3394.703 7        46.978                  
  23478916.847 8 123382542.856 8     -3666.087 8        50.114                  
  23007032.207 8 120902780.776 8     -2824.017 8        50.438                  
  21315338.173 9 112012856.360 9      -805.103 9        54.015                  
  21779846.981 8 114453872.667 8      1783.999 8        53.866                  
  24965609.069 7 131195157.759 7     -1906.380 7        46.833                  
  20443895.210 9 107433388.008 9       863.128 9        54.942                  
 02  5 18 00 00 55.0000000  0  7G01G16G23G10G21G07G08                           
  23755836.723 8 124837759.521 8      3394.965 8        48.815                  
  23479614.686 8 123386208.755 8     -3667.159 8        49.606                  
  23007570.725 8 120905604.340 8     -2822.359 8        49.873                  
  21315491.221 9 112013661.441 9      -805.396 9        54.167                  
  21779511.615 8 114452088.796 8      1782.432 8        53.361                  
  24965973.632 7 131197066.174 7     -1908.912 7        47.058                  
  20443734.175 9 107432525.338 9       862.160 9        56.865                  
 02  5 18 00 00 56.0000000  0  7G01G16G23G10G21G07G08                           
  23755189.239 7 124834364.326 7      3392.403 7        46.772                  
  23480314.079 7 123389874.845 7     -3668.050 7        47.428                  
  23008107.922 8 120908428.322 8     -2824.778 8        51.899                  
  21315644.805 9 112014467.138 9      -806.163 9        54.592                  
  21779171.568 9 114450305.209 9      1782.481 9        54.234                  
  24966337.589 7 131198974.942 7     -1904.841 7        46.369                  
  20443571.674 9 107431663.145 9       861.570 9        56.021                  
 02  5 18 00 00 57.0000000  0  7G01G16G23G10G21G07G08                           
  23754544.650 8 124830969.292 8      3395.849 8        48.709                  
  23481009.506 7 123393541.124 7     -3663.732 7        47.422                  
  23008644.403 8 120911252.685 8     -2824.400 8        50.930                  
  21315798.336 9 112015273.470 9      -806.509 9        55.376                  
  21778828.107 8 114448521.933 8      1784.773 8        51.744                  
  24966698.346 7 131200884.067 7     -1912.643 7        45.963                  
  20443405.295 9 107430801.429 9       861.553 9        58.265                  
 02  5 18 00 00 58.0000000  0  7G01G16G23G10G21G07G08                           
  23753898.202 8 124827574.410 8      3397.145 8        48.510                  
  23481707.810 7 123397207.601 7     -3665.604 7        47.739                  
  23009182.940 8 120914077.446 8     -2825.137 8        50.079                  
  21315952.081 9 112016080.397 9      -806.607 9        55.501                  
  21778490.329 8 114446738.946 8      1783.061 8        51.991                  
  24967065.037 7 131202793.535 7     -1911.458 7        45.918                  
  20443239.113 9 107429940.189 9       861.865 9        56.997                  
 02  5 18 00 00 59.0000000  0  7G01G16G23G10G21G07G08                           
  23753251.076 8 124824179.700 8      3395.359 8        49.101                  
  23482406.274 8 123400874.275 8     -3666.557 8        48.523                  
  23009718.796 8 120916902.586 8     -2824.323 8        49.959                  
  21316105.969 9 112016887.921 9      -807.637 9        56.593                  
  21778154.999 8 114444956.266 8      1782.946 8        50.761                  
  24967425.330 7 131204703.368 7     -1910.910 7        44.697                  
  20443072.681 9 107429079.403 9       860.777 9        55.321                  
 02  5 18 00 01  0.0000000  0  7G01G16G23G10G21G07G08                           
  23752605.843 8 124820785.142 8      3397.673 8        49.841                  
  23483102.755 8 123404541.131 8     -3670.428 8        48.699                  
  23010258.709 8 120919728.103 8     -2826.585 8        51.590                  
  21316259.643 9 112017696.078 9      -807.977 9        57.439                  
  21777813.522 8 114443173.873 8      1780.439 8        52.409                  
  24967791.144 7 131206613.536 7     -1908.935 7        46.979                  
  20442905.695 9 107428219.093 9       859.875 9        57.004                  
 02  5 18 00 01  1.0000000  0  7G01G16G23G10G21G07G08                           
  23751959.914 8 124817390.741 8      3396.173 8        50.104                  
  23483801.166 8 123408208.186 8     -3665.098 8        49.382                  
  23010795.155 8 120922554.020 8     -2823.873 8        49.272                  
  21316414.138 9 112018504.852 9      -808.688 9        55.335                  
  21777470.294 8 114441391.790 8      1782.212 8        53.965                  
  24968153.278 7 131208524.075 7     -1912.297 7        47.400                  
  20442740.443 9 107427359.259 9       859.801 9        56.641                  
 02  5 18 00 01  2.0000000  0  7G01G16G23G10G21G07G08                           
  23751313.180 8 124813996.510 8      3395.810 8        49.065                  
  23484499.755 8 123411875.434 8     -3666.529 8        49.124                  
  23011333.263 8 120925380.329 8     -2824.885 8        50.198                  
  21316567.401 9 112019314.225 9      -810.838 9        54.345                  
  21777134.696 8 114439609.991 8      1782.071 8        50.745                  
  24968517.806 7 131210434.945 7     -1912.135 7        45.639                  
  20442578.621 9 107426499.904 9       858.933 9        57.191                  
 02  5 18 00 01  3.0000000  0  7G01G16G23G10G21G07G08                           
  23750667.947 8 124810602.432 8      3396.393 8        48.966                  
  23485196.022 8 123415542.857 8     -3666.903 8        51.017                  
  23011872.085 8 120928207.043 8     -2826.686 8        50.887                  
  21316721.039 9 112020124.192 9      -810.331 9        55.033                  
  21776798.651 8 114437828.515 8      1781.650 8        51.972                  
  24968882.030 7 131212346.184 7     -1910.559 7        44.744                  
  20442416.924 9 107425641.000 9       858.104 9        55.571                  
 02  5 18 00 01  4.0000000  0  7G01G16G23G10G21G07G08                           
  23750023.180 8 124807208.508 8      3390.088 8        49.268                  
  23485895.344 8 123419210.501 8     -3668.043 8        52.162                  
  23012407.602 8 120931034.149 8     -2826.596 8        53.064                  
  21316875.088 9 112020934.780 9      -810.880 9        54.673                  
  21776456.387 9 114436047.350 9      1780.670 9        54.059                  
  24969242.842 7 131214257.774 7     -1910.283 7        45.142                  
  20442255.888 9 107424782.575 9       858.148 9        56.759                  
 02  5 18 00 01  5.0000000  0  7G01G16G23G10G21G07G08                           
  23749375.803 8 124803814.766 8      3389.047 8        48.141                  
  23486593.451 8 123422878.316 8     -3666.011 8        49.209                  
  23012947.782 8 120933861.640 8     -2827.707 8        51.189                  
  21317028.833 9 112021745.999 9      -812.003 9        56.108                  
  21776115.429 8 114434266.482 8      1779.828 8        53.745                  
  24969609.996 7 131216169.713 7     -1912.792 7        45.786                  
  20442094.638 9 107423924.625 9       858.151 9        56.302                  
 02  5 18 00 01  6.0000000  0  7G01G16G23G10G21G07G08                           
  23748729.552 8 124800421.169 8      3392.093 8        48.422                  
  23487290.468 8 123426546.329 8     -3664.422 8        48.790                  
  23013485.015 8 120936689.498 8     -2827.004 8        48.881                  
  21317182.703 9 112022557.814 9      -812.129 9        56.325                  
  21775779.956 8 114432485.913 8      1779.896 8        52.031                  
  24969970.861 7 131218081.992 7     -1910.499 7        46.429                  
  20441934.710 9 107423067.154 9       857.032 9        57.027                  
 02  5 18 00 01  7.0000000  0  7G01G16G23G10G21G07G08                           
  23748085.463 8 124797027.723 8      3392.592 8        49.177                  
  23487989.665 8 123430214.541 8     -3668.269 8        50.152                  
  23014023.247 8 120939517.762 8     -2827.343 8        48.922                  
  21317336.662 9 112023370.226 9      -813.274 9        54.948                  
  21775443.035 8 114430705.640 8      1779.828 8        52.923                  
  24970337.462 7 131219994.640 7     -1914.432 7        46.143                  
  20441772.817 9 107422210.146 9       856.574 9        57.069                  
 02  5 18 00 01  8.0000000  0  7G01G16G23G10G21G07G08                           
  23747438.568 8 124793634.467 8      3393.926 8        48.889                  
  23488687.432 8 123433882.933 8     -3666.715 8        50.796                  
  23014562.427 8 120942346.417 8     -2828.545 8        49.932                  
  21317491.408 9 112024183.271 9      -813.296 9        57.849                  
  21775100.897 8 114428925.669 8      1778.965 8        52.581                  
  24970700.025 8 131221907.639 8     -1914.162 8        48.184                  
  20441607.314 9 107421353.601 9       857.243 9        58.693                  
 02  5 18 00 01  9.0000000  0  7G01G16G23G10G21G07G08                           
  23746792.532 8 124790241.353 8      3391.224 8        48.028                  
  23489384.413 8 123437551.528 8     -3667.219 8        48.443                  
  23015099.338 8 120945175.476 8     -2829.959 8        50.449                  
  21317645.475 9 112024996.930 9      -813.810 9        55.602                  
  21774760.492 8 114427145.990 8      1780.312 8        53.913                  
  24971064.499 8 131223820.982 8     -1912.732 8        48.047                  
  20441442.580 9 107420497.537 9       855.923 9        57.489                  
 02  5 18 00 01 10.0000000  0  7G01G16G23G10G21G07G08                           
  23746148.800 8 124786848.394 8      3397.262 8        49.664                  
  23490083.825 8 123441220.312 8     -3669.609 8        49.564                  
  23015639.447 8 120948004.931 8     -2828.585 8        50.120                  
  21317800.560 9 112025811.190 9      -814.380 9        54.984                  
  21774425.144 8 114425366.613 8      1779.871 8        53.375                  
  24971429.760 8 131225734.682 8     -1914.152 8        48.427                  
  20441277.524 9 107419641.949 9       855.830 9        56.886                  
 02  5 18 00 01 11.0000000  0  7G01G16G23G10G21G07G08                           
  23745502.299 7 124783455.613 7      3393.349 7        47.540                  
  23490781.896 8 123444889.278 8     -3669.683 8        50.920                  
  23016176.500 8 120950834.753 8     -2827.748 8        50.589                  
  21317955.342 9 112026626.045 9      -815.053 9        56.147                  
  21774088.474 8 114423587.533 8      1779.056 8        51.792                  
  24971791.840 8 131227648.729 8     -1913.671 8        48.150                  
  20441111.842 9 107418786.837 9       854.976 9        57.306                  
 02  5 18 00 01 12.0000000  0  7G01G16G23G10G21G07G08                           
  23744855.905 8 124780062.977 8      3389.545 8        50.000                  
  23491479.449 8 123448558.446 8     -3669.312 8        51.405                  
  23016715.734 8 120953664.964 8     -2829.950 8        50.663                  
  21318109.748 9 112027441.519 9      -816.640 9        57.107                  
  21773745.228 8 114421808.764 8      1779.355 8        53.134                  
  24972158.762 7 131229563.130 7     -1918.454 7        47.880                  
  20440946.553 9 107417932.178 9       854.478 9        57.351                  
 02  5 18 00 01 13.0000000  0  7G01G16G23G10G21G07G08                           
  23744211.298 8 124776670.505 8      3391.713 8        48.966                  
  23492178.503 8 123452227.792 8     -3669.395 8        50.377                  
  23017255.253 8 120956495.563 8     -2828.608 8        50.185                  
  21318266.030 9 112028257.629 9      -816.411 9        56.968                  
  21773406.360 8 114420030.306 8      1778.243 8        52.767                  
  24972519.127 7 131231477.871 7     -1913.261 7        46.491                  
  20440784.410 9 107417077.995 9       854.123 9        56.042                  
 02  5 18 00 01 14.0000000  0  7G01G16G23G10G21G07G08                           
  23743565.815 8 124773278.202 8      3392.187 8        48.571                  
  23492876.288 8 123455897.338 8     -3670.833 8        49.976                  
  23017792.396 8 120959326.566 8     -2830.582 8        50.850                  
  21318421.151 9 112029074.330 9      -816.833 9        54.917                  
  21773072.709 8 114418252.155 8      1778.606 8        51.986                  
  24972887.407 7 131233392.973 7     -1915.990 7        46.568                  
  20440624.053 9 107416224.288 9       854.178 9        54.650                  
 02  5 18 00 01 15.0000000  0  7G01G16G23G10G21G07G08                           
  23742918.849 8 124769886.055 8      3390.615 8        48.706                  
  23493573.984 8 123459567.079 8     -3669.919 8        49.046                  
  23018333.863 8 120962157.968 8     -2830.897 8        50.294                  
  21318576.308 9 112029891.630 9      -817.226 9        55.308                  
  21772733.484 8 114416474.292 8      1778.188 8        52.841                  
  24973249.648 7 131235308.428 7     -1916.105 7        46.906                  
  20440463.822 9 107415371.060 9       853.195 9        55.708                  
 02  5 18 00 01 16.0000000  0  7G01G16G23G10G21G07G08                           
  23742273.795 8 124766494.061 8      3395.038 8        48.234                  
  23494273.932 8 123463236.995 8     -3672.083 8        49.587                  
  23018869.988 8 120964989.752 8     -2831.743 8        50.731                  
  21318731.358 9 112030709.537 9      -818.504 9        55.978                  
  21772392.310 8 114414696.739 8      1778.254 8        52.836                  
  24973615.838 7 131237224.229 7     -1915.940 7        46.184                  
  20440303.823 9 107414518.308 9       853.054 9        56.603                  
 02  5 18 00 01 17.0000000  0  7G01G16G23G10G21G07G08                           
  23741629.742 7 124763102.249 7      3388.898 7        46.924                  
  23494971.199 8 123466907.115 8     -3670.897 8        50.234                  
  23019409.257 8 120967821.906 8     -2834.099 8        50.229                  
  21318887.997 9 112031528.086 9      -819.215 9        56.121                  
  21772053.782 9 114412919.472 9      1777.477 9        54.416                  
  24973980.742 8 131239140.390 8     -1916.847 8        48.114                  
  20440143.252 9 107413666.011 9       852.010 9        57.660                  
 02  5 18 00 01 18.0000000  0  7G01G16G23G10G21G07G08                           
  23740983.956 7 124759710.579 7      3392.967 7        47.717                  
  23495669.431 8 123470577.416 8     -3672.516 8        49.393                  
  23019949.169 8 120970654.453 8     -2830.600 8        49.604                  
  21319043.762 9 112032347.234 9      -820.193 9        55.370                  
  21771719.292 8 114411142.520 8      1775.583 8        53.195                  
  24974342.553 7 131241056.889 7     -1914.788 7        47.696                  
  20439983.771 9 107412814.189 9       850.983 9        57.426                  
 02  5 18 00 01 19.0000000  0  7G01G16G23G10G21G07G08                           
  23740337.043 7 124756319.076 7      3392.724 7        47.749                  
  23496368.485 8 123474247.912 8     -3669.740 8        50.747                  
  23020485.776 8 120973487.406 8     -2832.119 8        50.264                  
  21319200.973 9 112033166.976 9      -819.750 9        54.666                  
  21771381.442 8 114409365.842 8      1774.968 8        52.679                  
  24974711.120 8 131242973.739 8     -1916.071 8        48.139                  
  20439822.199 9 107411962.844 9       850.792 9        56.585                  
 02  5 18 00 01 20.0000000  0  7G01G16G23G10G21G07G08                           
  23739693.759 7 124752928.016 7      3388.865 7        47.304                  
  23497066.682 8 123477918.465 8     -3671.918 8        50.061                  
  23021027.333 8 120976320.621 8     -2831.945 8        50.785                  
  21319357.971 8 112033987.142 8      -819.456 8        53.408                  
  21771039.572 8 114407589.714 8      1774.873 8        50.990                  
  24975072.414 7 131244891.312 7     -1918.717 7        47.198                  
  20439658.590 9 107411112.085 9       849.287 9        56.525                  
 02  5 18 00 01 21.0000000  0  7G01G16G23G10G21G07G08                           
  23739050.170 7 124749548.376 7      3370.393 7        47.425                  
  23497764.092 8 123481583.649 8     -3663.582 8        50.416                  
  23021565.101 8 120979149.069 8     -2823.646 8        51.094                  
  21319513.699 9 112034801.198 9      -809.053 9        55.093                  
  21770703.581 8 114405823.141 8      1760.320 8        51.611                  
  24975443.553 7 131246824.132 7     -1944.840 7        46.961                  
  20439496.089 9 107410266.238 9       842.144 9        56.198                  
 02  5 18 00 01 22.0000000  0  7G01G16G23G10G21G07G08                           
  23738408.690 7 124746187.603 7      3351.157 7        47.402                  
  23498461.806 8 123485239.867 8     -3653.118 8        50.415                  
  23022102.262 8 120981969.380 8     -2818.031 8        51.511                  
  21319666.443 8 112035604.693 8      -798.575 8        53.459                  
  21770374.487 8 114404072.219 8      1743.894 8        53.967                  
  24975813.192 7 131248781.962 7     -1971.759 7        46.225                  
  20439334.410 9 107409428.184 9       834.250 9        56.205                  
 02  5 18 00 01 23.0000000  0  7G01G16G23G10G21G07G08                           
  23737773.911 8 124742845.726 8      3335.057 8        48.289                  
  23499152.836 8 123488887.072 8     -3640.440 8        48.990                  
  23022637.010 8 120984781.563 8     -2806.488 8        49.588                  
  21319817.544 9 112036397.626 9      -788.172 9        54.679                  
  21770043.981 8 114402336.939 8      1728.081 8        52.725                  
  24976192.712 7 131250764.826 7     -1995.752 7        46.756                  
  20439175.733 9 107408597.938 9       827.354 9        56.715                  
 02  5 18 00 01 24.0000000  0  7G01G16G23G10G21G07G08                           
  23737141.365 8 124739517.678 8      3330.567 8        49.271                  
  23499846.905 8 123492527.753 8     -3640.719 8        50.553                  
  23023170.525 8 120987587.863 8     -2806.940 8        50.636                  
  21319967.090 9 112037183.007 9      -785.253 9        56.953                  
  21769713.869 8 114400613.199 8      1723.822 8        53.413                  
  24976571.768 7 131252766.092 7     -2003.828 7        45.708                  
  20439017.360 9 107407773.519 9       824.655 9        54.998                  
 02  5 18 00 01 25.0000000  0  7G01G16G23G10G21G07G08                           
  23736508.069 8 124736190.858 8      3326.896 8        48.443                  
  23500542.224 8 123496168.323 8     -3640.093 8        49.726                  
  23023704.648 8 120990394.004 8     -2805.518 8        49.490                  
  21320116.296 9 112037968.368 9      -787.066 9        56.167                  
  21769383.113 8 114398890.575 8      1722.189 8        53.658                  
  24976955.576 7 131254768.976 7     -2002.755 7        47.201                  
  20438858.040 9 107406949.904 9       822.446 9        56.430                  
 02  5 18 00 01 26.0000000  0  7G01G16G23G10G21G07G08                           
  23735874.416 8 124732864.608 8      3325.625 8        49.156                  
  23501230.986 8 123499809.929 8     -3643.240 8        49.102                  
  23024238.039 8 120993199.818 8     -2804.504 8        51.661                  
  21320266.021 9 112038754.139 9      -786.374 9        57.246                  
  21769056.235 9 114397168.452 9      1722.434 9        54.176                  
  24977333.488 7 131256772.203 7     -2001.601 7        47.156                  
  20438700.525 9 107406126.639 9       823.971 9        57.386                  
 02  5 18 00 01 27.0000000  0  7G01G16G23G10G21G07G08                           
  23735241.334 7 124729530.166 7      3339.201 7        47.723                  
  23501927.717 7 123503459.769 7     -3657.351 7        47.647                  
  23024774.360 8 120996007.987 8     -2811.360 8        50.985                  
  21320416.120 9 112039545.560 9      -795.969 9        55.801                  
  21768730.858 8 114395439.294 8      1734.809 8        52.240                  
  24977715.403 8 131258762.802 8     -1976.279 8        49.640                  
  20438542.419 9 107405299.649 9       830.056 9        56.747                  
 02  5 18 00 01 28.0000000  0  7G01G16G23G10G21G07G08                           
  23734604.143 7 124726180.124 7      3355.079 7        45.811                  
  23502624.430 8 123507124.219 8     -3667.427 8        48.706                  
  23025307.035 8 120998820.563 8     -2814.137 8        52.284                  
  21320568.811 9 112040347.101 9      -806.690 9        55.089                  
  21768400.764 9 114393696.701 9      1750.119 9        54.978                  
  24978084.881 8 131260729.636 8     -1955.068 8        50.181                  
  20438384.797 9 107404465.410 9       837.434 9        56.774                  
 02  5 18 00 01 29.0000000  0  7G01G16G23G10G21G07G08                           
  23733963.574 7 124722817.148 7      3359.783 7        46.755                  
  23503323.091 8 123510800.231 8     -3682.587 8        50.020                  
  23025843.606 8 121001637.174 8     -2812.905 8        52.211                  
  21320724.093 9 112041157.153 9      -808.790 9        54.938                  
  21768064.058 9 114391943.087 9      1753.668 9        54.062                  
  24978460.184 8 131262677.090 8     -1947.595 8        48.191                  
  20438226.602 9 107403625.358 9       840.342 9        57.205                  
 02  5 18 00 01 30.0000000  0  7G01G16G23G10G21G07G08                           
  23733325.346 8 124719468.880 8      3338.925 8        48.226                  
  23504026.684 8 123514490.940 8     -3700.951 8        49.738                  
  23026377.908 8 121004437.288 8     -2787.470 8        51.078                  
  21320876.069 9 112041959.415 9      -795.719 9        56.373                  
  21767729.335 8 114390199.142 8      1737.107 8        52.413                  
  24978829.233 7 131264633.331 7     -1965.457 7        46.639                  
  20438068.265 9 107402786.470 9       837.746 9        57.638                  
 02  5 18 00 01 31.0000000  0  7G01G16G23G10G21G07G08                           
  23732692.407 8 124716143.400 8      3316.990 8        49.360                  
  23504732.457 8 123518198.503 8     -3713.731 8        51.552                  
  23026905.723 8 121007214.292 8     -2765.619 8        49.664                  
  21321026.401 8 112042749.145 8      -784.227 8        53.055                  
  21767401.832 8 114388470.736 8      1720.608 8        52.281                  
  24979207.877 7 131266605.985 7     -1980.095 7        45.685                  
  20437910.749 9 107401950.516 9       834.503 9        55.986                  
 02  5 18 00 01 32.0000000  0  7G01G16G23G10G21G07G08                           
  23732063.042 8 124712829.551 8      3314.970 8        48.335                  
  23505437.265 8 123521908.214 8     -3705.176 8        50.402                  
  23027432.555 8 121009982.845 8     -2772.329 8        52.267                  
  21321175.733 8 112043532.693 8      -785.648 8        52.335                  
  21767078.277 9 114386751.107 9      1719.500 9        54.038                  
  24979582.484 7 131268590.374 7     -1985.445 7        45.232                  
  20437753.788 9 107401117.778 9       831.052 9        55.051                  
 02  5 18 00 01 33.0000000  0  7G01G16G23G10G21G07G08                           
  23731429.818 8 124709500.877 8      3339.172 8        49.984                  
  23506140.732 8 123525603.238 8     -3687.850 8        49.401                  
  23027960.978 8 121012769.148 8     -2797.469 8        49.257                  
  21321327.226 8 112044325.520 8      -799.803 8        53.357                  
  21766749.916 8 114385022.139 8      1735.771 8        52.245                  
  24979961.682 7 131270566.378 7     -1964.823 7        46.236                  
  20437596.469 9 107400284.767 9       833.797 9        56.424                  
 02  5 18 00 01 34.0000000  0  7G01G16G23G10G21G07G08                           
  23730791.858 8 124706156.310 8      3343.385 8        49.229                  
  23506842.502 8 123529285.353 8     -3676.604 8        48.620                  
  23028499.854 8 121015573.082 8     -2804.611 8        52.183                  
  21321479.935 8 112045128.266 8      -801.375 8        52.926                  
  21766416.016 8 114383282.785 8      1736.681 8        52.640                  
  24980332.214 7 131272531.958 7     -1970.338 7        46.636                  
  20437439.847 9 107399450.759 9       831.477 9        56.508                  
 02  5 18 00 01 35.0000000  0  7G01G16G23G10G21G07G08                           
  23730156.596 7 124702816.412 7      3341.020 7        47.528                  
  23507540.538 8 123532959.627 8     -3670.201 8        48.662                  
  23029030.814 8 121018378.156 8     -2808.151 8        52.162                  
  21321631.464 8 112045928.857 8      -801.421 8        53.066                  
  21766082.937 8 114381548.126 8      1735.453 8        53.451                  
  24980711.877 7 131274506.748 7     -1977.411 7        47.844                  
  20437283.440 9 107398620.296 9       830.095 9        57.685                  
 02  5 18 00 01 36.0000000  0  7G01G16G23G10G21G07G08                           
  23729522.746 8 124699473.509 8      3346.942 8        48.348                  
  23508237.591 8 123536625.895 8     -3661.359 8        49.815                  
  23029566.438 8 121021189.633 8     -2812.673 8        51.703                  
  21321784.727 9 112046731.803 9      -805.081 9        54.656                  
  21765753.218 8 114379812.352 8      1737.274 8        50.808                  
  24981083.410 7 131276482.561 7     -1974.220 7        47.402                  
  20437126.049 9 107397791.315 9       828.130 9        54.404                  
 02  5 18 00 01 37.0000000  0  7G01G16G23G10G21G07G08                           
  23728881.534 7 124696125.141 7      3348.533 7        47.480                  
  23508938.717 8 123540284.398 8     -3656.201 8        49.867                  
  23030099.990 8 121024009.150 8     -2820.648 8        50.765                  
  21321938.186 9 112047538.576 9      -807.695 9        56.045                  
  21765426.947 8 114378073.534 8      1737.842 8        51.949                  
  24981463.520 7 131278456.625 7     -1974.674 7        46.310                  
  20436966.890 9 107396963.047 9       827.683 9        54.848                  
 02  5 18 00 01 38.0000000  0  7G01G16G23G10G21G07G08                           
  23728245.647 8 124692774.148 8      3352.008 8        48.199                  
  23509629.391 8 123543934.623 8     -3646.355 8        50.170                  
  23030641.492 8 121026835.021 8     -2829.484 8        50.248                  
  21322091.895 9 112048347.531 9      -811.441 9        55.804                  
  21765096.621 8 114376333.885 8      1742.060 8        53.042                  
  24981835.732 7 131280432.168 7     -1970.442 7        47.509                  
  20436808.427 9 107396136.403 9       826.777 9        55.920                  
 02  5 18 00 01 39.0000000  0  7G01G16G23G10G21G07G08                           
  23727606.222 8 124689414.009 8      3368.501 8        48.923                  
  23510323.781 8 123547579.776 8     -3647.471 8        50.066                  
  23031179.761 8 121029670.163 8     -2840.663 8        50.628                  
  21322247.106 9 112049162.533 9      -821.053 9        55.182                  
  21764760.272 8 114374588.068 8      1752.685 8        53.764                  
  24982214.126 7 131282400.669 7     -1957.000 7        47.966                  
  20436649.732 9 107395308.850 9       829.090 9        55.895                  
 02  5 18 00 01 40.0000000  0  7G01G16G23G10G21G07G08                           
  23726963.938 7 124686040.017 7      3372.178 7        47.409                  
  23511016.385 8 123551225.390 8     -3641.529 8        51.580                  
  23031720.227 8 121032515.259 8     -2849.518 8        50.321                  
  21322404.192 9 112049986.431 9      -826.084 9        56.106                  
  21764424.799 8 114372831.830 8      1757.195 8        53.489                  
  24982581.549 8 131284354.295 8     -1953.843 8        49.090                  
  20436490.037 9 107394477.787 9       830.575 9        57.107                  
 02  5 18 00 01 41.0000000  0  7G01G16G23G10G21G07G08                           
  23726321.350 8 124682660.831 8      3383.761 8        48.012                  
  23511704.932 8 123554853.581 8     -3622.046 8        50.312                  
  23032265.572 8 121035372.796 8     -2863.963 8        49.577                  
  21322561.904 9 112050813.877 9      -830.215 9        57.315                  
  21764093.436 8 114371073.930 8      1759.361 8        52.645                  
  24982956.906 7 131286311.217 7     -1955.689 7        47.547                  
  20436331.021 9 107393649.757 9       827.161 9        55.476                  
 02  5 18 00 01 42.0000000  0  7G01G16G23G10G21G07G08                           
  23725676.779 7 124679273.504 7      3393.695 7        47.244                  
  23512397.356 8 123558475.083 8     -3622.049 8        51.208                  
  23032808.648 8 121038239.716 8     -2868.642 8        50.602                  
  21322719.312 9 112051646.777 9      -835.839 9        56.467                  
  21763760.786 8 114369310.848 8      1767.524 8        53.157                  
  24983324.168 7 131288262.927 7     -1949.838 7        44.860                  
  20436171.879 9 107392821.453 9       829.577 9        55.812                  
 02  5 18 00 01 43.0000000  0  7G01G16G23G10G21G07G08                           
  23725031.028 7 124675879.737 7      3396.901 7        47.890                  
  23513084.420 8 123562095.165 8     -3620.002 8        51.246                  
  23033355.207 8 121041112.322 8     -2875.326 8        50.340                  
  21322877.668 8 112052484.197 8      -838.716 8        52.368                  
  21763421.829 8 114367543.229 8      1768.226 8        52.875                  
  24983701.419 7 131290208.653 7     -1942.862 7        45.886                  
  20436012.166 9 107391992.152 9       829.040 9        54.724                  
 02  5 18 00 01 44.0000000  0  7G01G16G23G10G21G07G08                           
  23724385.670 8 124672486.941 8      3387.107 8        49.375                  
  23513775.594 8 123565721.626 8     -3634.847 8        49.637                  
  23033903.340 8 121043981.846 8     -2860.554 8        48.289                  
  21323036.130 8 112053321.843 8      -835.768 8        52.889                  
  21763081.531 8 114365775.776 8      1765.525 8        52.593                  
  24984065.964 7 131292152.525 7     -1945.140 7        47.515                  
  20435852.542 9 107391162.107 9       831.369 9        56.854                  
 02  5 18 00 01 45.0000000  0  7G01G16G23G10G21G07G08                           
  23723740.992 8 124669103.648 8      3379.099 8        49.141                  
  23514469.591 8 123569370.175 8     -3653.806 8        50.698                  
  23034444.521 8 121046834.920 8     -2846.574 8        48.499                  
  21323193.878 8 112054154.855 8      -830.618 8        52.934                  
  21762748.184 9 114364013.124 9      1761.165 9        54.093                  
  24984439.356 7 131294095.947 7     -1938.716 7        46.644                  
  20435694.079 9 107390330.101 9       833.803 9        56.209                  
 02  5 18 00 01 46.0000000  0  7G01G16G23G10G21G07G08                           
  23723099.941 8 124665733.254 8      3357.873 8        48.680                  
  23515162.373 8 123573022.097 8     -3648.135 8        49.607                  
  23034990.437 8 121049678.124 8     -2838.389 8        50.747                  
  21323349.946 9 112054980.991 9      -819.806 9        54.999                  
  21762417.840 8 114362260.085 8      1743.390 8        52.039                  
  24984808.708 7 131296051.821 7     -1970.881 7        47.668                  
  20435537.207 9 107389501.349 9       824.610 9        54.756                  
 02  5 18 00 01 47.0000000  0  7G01G16G23G10G21G07G08                           
  23722464.393 7 124662385.265 7      3339.268 7        47.521                  
  23515859.640 8 123576667.722 8     -3642.521 8        50.295                  
  23035524.578 8 121052509.450 8     -2824.380 8        51.682                  
  21323506.300 9 112055794.513 9      -807.182 9        55.320                  
  21762087.870 8 114360525.019 8      1724.000 8        52.257                  
  24985188.425 7 131298035.129 7     -1995.928 7        45.461                  
  20435382.497 9 107388680.677 9       815.868 9        55.474                  
 02  5 18 00 01 48.0000000  0  7G01G16G23G10G21G07G08                           
  23721830.114 8 124659056.014 8      3328.660 8        48.743                  
  23516549.617 8 123580308.581 8     -3642.820 8        48.530                  
  23036060.810 8 121055330.753 8     -2818.293 8        49.261                  
  21323658.991 9 112056597.645 9      -800.605 9        55.129                  
  21761756.311 8 114358804.952 8      1717.007 8        53.182                  
  24985567.856 7 131300041.161 7     -2009.949 7        45.124                  
  20435228.109 8 107387866.723 8       812.022 8        53.441                  
 02  5 18 00 01 49.0000000  0  7G01G16G23G10G21G07G08                           
  23721196.550 7 124655730.154 7      3324.187 7        47.064                  
  23517243.775 8 123583949.755 8     -3644.391 8        48.931                  
  23036599.257 8 121058150.179 8     -2817.845 8        50.461                  
  21323811.449 9 112057399.507 9      -802.830 9        56.238                  
  21761428.628 8 114357087.610 8      1716.207 8        52.739                  
  24985953.076 7 131302050.968 7     -2010.153 7        45.644                  
  20435074.167 9 107387054.062 9       811.922 9        55.487                  
 02  5 18 00 01 50.0000000  0  7G01G16G23G10G21G07G08                           
  23720563.576 7 124652404.422 7      3323.430 7        47.193                  
  23517936.557 8 123587591.085 8     -3640.916 8        48.844                  
  23037134.506 8 121060970.000 8     -2818.654 8        51.554                  
  21323964.104 9 112058202.000 9      -802.106 9        56.459                  
  21761103.376 8 114355370.566 8      1717.743 8        52.663                  
  24986332.436 7 131304061.102 7     -2013.351 7        44.375                  
  20434920.279 9 107386241.854 9       811.239 9        57.129                  
 02  5 18 00 01 51.0000000  0  7G01G16G23G10G21G07G08                           
  23719930.351 7 124649073.943 7      3338.767 7        47.784                  
  23518628.749 8 123591233.328 8     -3643.843 8        49.779                  
  23037673.471 8 121063793.272 8     -2829.940 8        50.805                  
  21324117.170 9 112059008.005 9      -811.327 9        54.368                  
  21760779.304 8 114353649.983 8      1726.070 8        50.903                  
  24986716.423 7 131306065.944 7     -1997.699 7        45.248                  
  20434766.641 9 107385428.582 9       815.547 9        54.297                  
 02  5 18 00 01 52.0000000  0  7G01G16G23G10G21G07G08                           
  23719293.982 8 124645723.693 8      3362.222 8        48.461                  
  23519324.605 8 123594881.515 8     -3652.288 8        49.462                  
  23038211.543 8 121066627.926 8     -2842.505 8        50.552                  
  21324272.935 8 112059826.486 8      -824.501 8        53.610                  
  21760449.299 8 114351913.879 8      1744.529 8        52.554                  
  24987090.743 7 131308046.841 7     -1966.331 7        46.251                  
  20434611.395 9 107384608.955 9       822.238 9        54.231                  
 02  5 18 00 01 53.0000000  0  7G01G16G23G10G21G07G08                           
  23718649.821 8 124642350.333 8      3383.072 8        48.010                  
  23520020.228 8 123598536.398 8     -3658.543 8        49.831                  
  23038753.278 8 121069475.873 8     -2853.939 8        51.054                  
  21324431.111 9 112060659.386 9      -838.246 9        54.505                  
  21760111.592 9 114350159.624 9      1762.817 9        55.172                  
  24987465.314 7 131309999.866 7     -1938.152 7        46.828                  
  20434454.863 9 107383781.931 9       830.567 9        56.326                  
 02  5 18 00 01 54.0000000  0  7G01G16G23G10G21G07G08                           
  23718005.500 7 124638961.828 7      3398.831 7        47.989                  
  23520715.083 8 123602194.348 8     -3652.900 8        52.349                  
  23039298.033 8 121072333.402 8     -2865.821 8        50.302                  
  21324592.254 9 112061501.959 9      -848.161 9        55.472                  
  21759774.171 8 114348393.656 8      1770.398 8        53.834                  
  24987830.467 7 131311935.359 7     -1934.655 7        45.821                  
  20434298.241 9 107382950.484 9       831.710 9        57.104                  
 02  5 18 00 01 55.0000000  0  7G01G16G23G10G21G07G08                           
  23717358.606 8 124635553.833 8      3420.204 8        48.224                  
  23521408.079 8 123605834.213 8     -3632.665 8        50.819                  
  23039842.681 8 121075213.555 8     -2891.991 8        50.537                  
  21324756.917 9 112062356.606 9      -862.435 9        56.293                  
  21759440.843 8 114346615.220 8      1785.606 8        52.946                  
  24988202.500 7 131313859.004 7     -1914.674 7        46.749                  
  20434141.208 9 107382118.226 9       833.308 9        56.638                  
 02  5 18 00 01 56.0000000  0  7G01G16G23G10G21G07G08                           
  23716704.206 8 124632122.226 8      3441.979 8        48.110                  
  23522097.180 8 123609456.200 8     -3611.220 8        48.852                  
  23040398.962 8 121078119.099 8     -2915.003 8        49.779                  
  21324922.956 9 112063225.774 9      -875.745 9        56.403                  
  21759099.544 8 114344821.192 8      1801.352 8        51.298                  
  24988559.095 7 131315766.254 7     -1899.478 7        47.293                  
  20433984.568 9 107381283.972 9       835.348 9        55.747                  
 02  5 18 00 01 57.0000000  0  7G01G16G23G10G21G07G08                           
  23716046.912 8 124628672.230 8      3457.008 8        49.090                  
  23522783.351 8 123613068.879 8     -3615.776 8        49.505                  
  23040955.528 8 121081042.331 8     -2925.511 8        51.135                  
  21325091.264 9 112064106.426 9      -882.523 9        55.990                  
  21758751.277 8 114343014.532 8      1809.472 8        52.706                  
  24988919.763 7 131317658.572 7     -1887.866 7        47.685                  
  20433825.212 9 107380447.244 9       837.270 9        56.209                  
 02  5 18 00 01 58.0000000  0  7G01G16G23G10G21G07G08                           
  23715391.405 8 124625218.629 8      3447.514 8        48.011                  
  23523474.042 8 123616687.101 8     -3621.586 8        48.927                  
  23041510.129 8 121083966.033 8     -2917.400 8        49.864                  
  21325259.573 9 112064989.997 9      -880.989 9        54.564                  
  21758407.763 8 114341204.682 8      1806.399 8        52.896                  
  24989280.967 7 131319544.532 7     -1888.785 7        46.808                  
  20433663.890 9 107379608.751 9       838.830 9        57.510                  
 02  5 18 00 01 59.0000000  0  7G01G16G23G10G21G07G08                           
  23714735.058 7 124621776.575 7      3441.586 7        47.856                  
  23524164.394 8 123620321.380 8     -3637.834 8        49.823                  
  23042064.069 8 121086874.694 8     -2905.258 8        50.005                  
  21325424.575 9 112065867.603 9      -877.000 9        56.592                  
  21758068.251 8 114339401.889 8      1802.584 8        53.532                  
  24989639.581 7 131321435.293 7     -1889.049 7        45.348                  
  20433502.765 9 107378770.255 9       839.195 9        57.432                  
 02  5 18 00 02  0.0000000  0  7G01G16G23G10G21G07G08                           
  23714079.461 8 124618324.927 8      3463.826 8        48.093                  
  23524857.569 8 123623957.353 8     -3630.882 8        49.991                  
  23042620.421 8 121089789.765 8     -2922.910 8        51.286                  
  21325591.436 9 112066751.602 9      -891.768 9        54.053                  
  21757720.985 9 114337591.816 9      1817.571 9        54.496                  
  24989998.659 8 131323315.127 8     -1868.242 8        48.293                  
  20433340.604 9 107377929.221 9       843.477 9        57.811                  
 02  5 18 00 02  1.0000000  0  7G01G16G23G10G21G07G08                           
  23713419.236 8 124614859.479 8      3466.695 8        48.984                  
  23525548.457 8 123627592.508 8     -3638.798 8        50.430                  
  23043175.147 8 121092715.338 8     -2924.039 8        48.679                  
  21325761.013 8 112067644.487 8      -893.898 8        51.964                  
  21757372.217 8 114335771.556 8      1820.737 8        53.565                  
  24990351.036 7 131325180.740 7     -1863.822 7        46.949                  
  20433178.085 9 107377085.063 9       846.453 9        54.831                  
 02  5 18 00 02  2.0000000  0  7G01G16G23G10G21G07G08                           
  23712758.672 8 124611391.760 8      3469.172 8        48.839                  
  23526241.560 8 123631236.484 8     -3645.349 8        49.049                  
  23043731.445 8 121095638.886 8     -2924.078 8        48.433                  
  21325930.644 9 112068539.496 9      -895.503 9        55.130                  
  21757030.508 9 114333948.750 9      1824.172 9        54.842                  
  24990706.558 7 131327039.834 7     -1855.848 7        46.433                  
  20433014.566 9 107376238.774 9       847.749 9        57.410                  
 02  5 18 00 02  3.0000000  0  7G01G16G23G10G21G07G08                           
  23712100.217 8 124607923.322 8      3470.346 8        49.798                  
  23526938.631 8 123634890.211 8     -3656.638 8        51.053                  
  23044287.904 8 121098558.843 8     -2917.607 8        49.280                  
  21326103.634 9 112069435.735 9      -896.993 9        55.353                  
  21756681.597 8 114332124.430 8      1824.813 8        52.410                  
  24991061.062 7 131328893.619 7     -1850.196 7        47.310                  
  20432851.064 9 107375390.576 9       849.575 9        57.838                  
 02  5 18 00 02  4.0000000  0  7G01G16G23G10G21G07G08                           
  23711439.313 7 124604455.200 7      3468.690 7        47.961                  
  23527634.129 8 123638551.377 8     -3663.375 8        50.977                  
  23044843.256 8 121101475.630 8     -2918.842 8        48.501                  
  21326275.373 8 112070332.549 8      -897.479 8        53.518                  
  21756331.114 8 114330299.702 8      1824.180 8        51.411                  
  24991409.543 7 131330744.370 7     -1852.947 7        46.850                  
  20432690.439 9 107374541.265 9       849.908 9        56.446                  
 02  5 18 00 02  5.0000000  0  7G01G16G23G10G21G07G08                           
  23710779.392 7 124600987.706 7      3466.641 7        47.843                  
  23528331.557 8 123642216.863 8     -3666.842 8        50.953                  
  23045397.481 8 121104390.516 8     -2915.765 8        49.154                  
  21326446.308 9 112071229.739 9      -897.169 9        55.488                  
  21755988.458 8 114328475.161 8      1824.446 8        52.542                  
  24991764.351 7 131332593.928 7     -1846.751 7        45.249                  
  20432530.369 9 107373691.654 9       850.700 9        57.306                  
 02  5 18 00 02  6.0000000  0  7G01G16G23G10G21G07G08                           
  23710120.186 8 124597521.483 8      3463.647 8        49.449                  
  23529030.826 8 123645888.484 8     -3673.155 8        50.767                  
  23045950.510 8 121107302.167 8     -2909.487 8        50.639                  
  21326616.975 9 112072126.910 9      -897.842 9        55.680                  
  21755641.459 9 114326651.057 9      1823.300 9        54.071                  
  24992115.906 7 131334442.149 7     -1849.813 7        44.018                  
  20432370.119 9 107372841.488 9       850.531 9        55.944                  
 02  5 18 00 02  7.0000000  0  7G01G16G23G10G21G07G08                           
  23709461.087 8 124594057.487 8      3461.712 8        49.200                  
  23529730.076 8 123649567.931 8     -3683.657 8        50.718                  
  23046505.075 8 121110209.157 8     -2902.056 8        48.870                  
  21326786.266 9 112073023.542 9      -896.102 9        56.133                  
  21755289.708 9 114324827.929 9      1822.846 9        55.448                  
  24992461.957 7 131336289.152 7     -1843.828 7        44.296                  
  20432210.567 9 107371990.668 9       851.435 9        57.798                  
 02  5 18 00 02  8.0000000  0  7G01G16G23G10G21G07G08                           
  23708802.792 7 124590596.644 7      3459.917 7        47.881                  
  23530431.739 8 123653255.596 8     -3688.242 8        50.556                  
  23047056.638 8 121113110.641 8     -2899.887 8        50.197                  
  21326955.004 9 112073919.067 9      -894.623 9        55.045                  
  21754946.265 9 114323006.412 9      1820.612 9        54.170                  
  24992818.480 7 131338135.831 7     -1848.408 7        44.366                  
  20432050.192 9 107371139.358 9       851.491 9        54.796                  
 02  5 18 00 02  9.0000000  0  7G01G16G23G10G21G07G08                           
  23708143.533 7 124587138.444 7      3453.802 7        47.904                  
  23531135.314 8 123656948.829 8     -3696.009 8        49.429                  
  23047608.755 8 121116008.199 8     -2896.058 8        49.608                  
  21327125.188 9 112074813.769 9      -895.148 9        54.611                  
  21754602.143 8 114321186.470 8      1818.098 8        53.707                  
  24993170.250 7 131339982.855 7     -1849.361 7        44.665                  
  20431890.729 9 107370288.001 9       852.492 9        56.810                  
 02  5 18 00 02 10.0000000  0  7G01G16G23G10G21G07G08                           
  23707487.507 8 124583683.328 8      3455.699 8        48.937                  
  23531838.192 8 123660647.728 8     -3702.692 8        48.835                  
  23048158.567 8 121118901.521 8     -2891.448 8        48.518                  
  21327295.748 9 112075707.384 9      -893.822 9        55.423                  
  21754250.981 8 114319368.385 8      1817.036 8        53.819                  
  24993519.321 7 131341830.713 7     -1847.738 7        45.760                  
  20431730.105 9 107369436.730 9       851.211 9        57.609                  
 02  5 18 00 02 11.0000000  0  7G01G16G23G10G21G07G08                           
  23706831.035 8 124580233.990 8      3445.801 8        48.813                  
  23532543.500 7 123664354.923 7     -3711.619 7        47.897                  
  23048707.754 8 121121787.488 8     -2882.930 8        49.183                  
  21327467.326 9 112076598.323 9      -889.115 9        54.407                  
  21753907.735 8 114317553.900 8      1811.777 8        53.325                  
  24993872.949 7 131343681.036 7     -1855.701 7        46.125                  
  20431566.406 9 107368585.675 9       849.803 9        55.413                  
 02  5 18 00 02 12.0000000  0  7G01G16G23G10G21G07G08                           
  23706176.385 8 124576800.269 8      3426.695 8        48.041                  
  23533250.774 8 123668063.358 8     -3709.262 8        48.960                  
  23049255.332 8 121124662.658 8     -2869.001 8        50.795                  
  21327635.331 9 112077480.740 9      -877.868 9        55.009                  
  21753567.724 8 114315751.335 8      1796.339 8        53.065                  
  24994230.365 7 131345547.801 7     -1876.039 7        47.111                  
  20431403.816 9 107367739.095 9       843.859 9        56.656                  
 02  5 18 00 02 13.0000000  0  7G01G16G23G10G21G07G08                           
  23705526.596 7 124573377.338 7      3420.055 7        47.126                  
  23533956.636 8 123671775.103 8     -3713.598 8        49.494                  
  23049803.268 8 121127529.396 8     -2864.512 8        49.812                  
  21327803.496 9 112078357.483 9      -875.772 9        54.492                  
  21753222.333 8 114313956.790 8      1794.170 8        53.058                  
  24994582.385 7 131347424.861 7     -1875.968 7        46.885                  
  20431241.369 9 107366895.235 9       843.703 9        54.614                  
 02  5 18 00 02 14.0000000  0  7G01G16G23G10G21G07G08                           
  23704875.127 8 124569957.784 8      3419.976 8        48.840                  
  23534661.998 8 123675490.214 8     -3719.347 8        48.585                  
  23050344.270 8 121130392.790 8     -2862.554 8        50.430                  
  21327968.731 9 112079232.950 9      -873.895 9        55.567                  
  21752879.820 8 114312164.612 8      1792.488 8        52.463                  
  24994944.483 7 131349304.198 7     -1880.296 7        46.172                  
  20431078.993 9 107366052.008 9       842.704 9        56.329                  
 02  5 18 00 02 15.0000000  0  7G01G16G23G10G21G07G08                           
  23704224.784 8 124566541.630 8      3411.171 8        49.020                  
  23535371.023 8 123679208.231 8     -3719.053 8        50.314                  
  23050888.882 8 121133253.012 8     -2856.736 8        49.164                  
  21328133.555 9 112080107.123 9      -873.773 9        54.713                  
  21752543.739 8 114310374.833 8      1786.488 8        51.288                  
  24995300.166 7 131351186.021 7     -1885.723 7        46.958                  
  20430915.634 9 107365209.592 9       841.954 9        55.798                  
 02  5 18 00 02 16.0000000  0  7G01G16G23G10G21G07G08                           
  23703576.854 7 124563132.417 7      3407.248 7        46.275                  
  23536080.066 8 123682931.003 8     -3732.509 8        50.126                  
  23051433.905 8 121136106.759 8     -2851.348 8        50.090                  
  21328298.522 8 112080977.889 8      -871.133 8        53.869                  
  21752204.817 8 114308589.976 8      1785.512 8        51.843                  
  24995662.674 7 131353073.283 7     -1886.550 7        45.664                  
  20430753.491 9 107364368.483 9       842.447 9        56.725                  
 02  5 18 00 02 17.0000000  0  7G01G16G23G10G21G07G08                           
  23702927.976 7 124559723.344 7      3408.104 7        47.607                  
  23536791.307 8 123686671.615 8     -3747.508 8        49.514                  
  23051973.657 8 121138952.432 8     -2842.407 8        51.849                  
  21328463.989 9 112081849.342 9      -870.759 9        56.847                  
  21751861.303 8 114306803.334 8      1786.416 8        52.313                  
  24996019.108 7 131354952.348 7     -1878.605 7        46.175                  
  20430593.331 9 107363523.936 9       844.564 9        55.412                  
 02  5 18 00 02 18.0000000  0  7G01G16G23G10G21G07G08                           
  23702279.134 7 124556321.974 7      3394.673 7        47.251                  
  23537503.333 8 123690420.722 8     -3748.953 8        49.564                  
  23052515.678 8 121141789.333 8     -2834.486 8        51.296                  
  21328628.527 9 112082716.983 9      -864.935 9        57.113                  
  21751521.095 8 114305021.694 8      1778.026 8        52.002                  
  24996375.398 7 131356835.794 7     -1885.921 7        47.415                  
  20430434.583 9 107362680.100 9       843.593 9        56.497                  
 02  5 18 00 02 19.0000000  0  7G01G16G23G10G21G07G08                           
  23701634.652 7 124552926.540 7      3396.659 7        47.412                  
  23538218.756 8 123694172.740 8     -3750.458 8        50.292                  
  23053053.000 8 121144621.268 8     -2829.771 8        51.461                  
  21328794.548 9 112083581.766 9      -864.176 9        56.272                  
  21751187.498 8 114303244.457 8      1775.291 8        52.687                  
  24996736.799 8 131358724.545 8     -1888.887 8        48.174                  
  20430275.495 9 107361837.744 9       841.749 9        58.381                  
 02  5 18 00 02 20.0000000  0  7G01G16G23G10G21G07G08                           
  23700989.473 8 124549536.521 8      3384.726 8        48.101                  
  23538933.659 8 123697927.012 8     -3755.861 8        50.366                  
  23053592.019 8 121147449.001 8     -2822.789 8        48.562                  
  21328960.283 9 112084444.062 9      -860.141 9        54.624                  
  21750849.541 8 114301471.232 8      1769.724 8        53.991                  
  24997095.234 8 131360618.333 8     -1899.221 8        48.795                  
  20430117.318 9 107360996.832 9       839.316 9        56.843                  
 02  5 18 00 02 21.0000000  0  7G01G16G23G10G21G07G08                           
  23700344.937 8 124546155.181 8      3381.463 8        48.524                  
  23539647.991 8 123701684.236 8     -3758.677 8        50.100                  
  23054129.644 8 121150269.903 8     -2817.381 8        51.132                  
  21329123.392 9 112085301.907 9      -856.518 9        54.696                  
  21750509.548 9 114299704.454 9      1764.593 9        54.082                  
  24997461.620 7 131362520.300 7     -1905.396 7        47.049                  
  20429959.445 9 107360158.133 9       837.495 9        55.210                  
 02  5 18 00 02 22.0000000  0  7G01G16G23G10G21G07G08                           
  23699702.849 8 124542778.887 8      3376.146 8        48.647                  
  23540362.288 8 123705442.896 8     -3757.683 8        49.518                  
  23054663.696 8 121153087.198 8     -2815.731 8        52.052                  
  21329287.108 9 112086157.449 9      -855.501 9        54.516                  
  21750173.878 8 114297941.516 8      1760.224 8        52.526                  
  24997821.181 7 131364427.306 7     -1908.479 7        46.697                  
  20429801.447 9 107359320.987 9       836.671 9        57.037                  
 02  5 18 00 02 23.0000000  0  7G01G16G23G10G21G07G08                           
  23699062.191 7 124539408.055 7      3368.169 7        47.876                  
  23541078.603 8 123709202.786 8     -3758.724 8        50.161                  
  23055200.445 8 121155900.702 8     -2809.679 8        51.710                  
  21329449.823 8 112087010.412 8      -850.932 8        53.118                  
  21749842.926 8 114296182.800 8      1754.975 8        53.697                  
  24998183.064 7 131366339.909 7     -1917.129 7        47.519                  
  20429644.539 9 107358485.534 9       833.869 9        55.965                  
 02  5 18 00 02 24.0000000  0  7G01G16G23G10G21G07G08                           
  23698421.390 7 124536046.554 7      3360.025 7        47.864                  
  23541794.740 8 123712963.927 8     -3761.132 8        48.786                  
  23055733.264 8 121158707.738 8     -2802.994 8        50.027                  
  21329610.716 8 112087858.574 8      -845.374 8        52.927                  
  21749511.062 8 114294431.184 8      1747.863 8        53.241                  
  24998552.238 7 131368262.207 7     -1925.382 7        47.526                  
  20429487.649 9 107357652.833 9       831.244 9        54.929                  
 02  5 18 00 02 25.0000000  0  7G01G16G23G10G21G07G08                           
  23697783.287 8 124532693.940 8      3350.200 8        48.760                  
  23542510.430 8 123716725.433 8     -3761.301 8        48.926                  
  23056268.012 7 121161509.071 7     -2796.830 7        47.731                  
  21329769.982 9 112088702.160 9      -842.165 9        55.316                  
  21749175.643 8 114292686.447 8      1742.792 8        53.388                  
  24998916.784 7 131370194.187 7     -1933.721 7        45.473                  
  20429329.705 9 107356822.982 9       828.181 9        56.973                  
 02  5 18 00 02 26.0000000  0  7G01G16G23G10G21G07G08                           
  23697147.186 7 124529347.393 7      3347.683 7        46.142                  
  23543224.512 8 123720479.312 8     -3742.140 8        50.172                  
  23056799.526 8 121164310.441 8     -2807.011 8        49.451                  
  21329928.963 8 112089542.804 8      -841.700 8        53.911                  
  21748842.243 8 114290947.432 8      1738.517 8        53.136                  
  24999289.318 7 131372136.687 7     -1943.917 7        45.370                  
  20429171.439 8 107355996.945 8       822.878 8        53.970                  
 02  5 18 00 02 27.0000000  0  7G01G16G23G10G21G07G08                           
  23696509.780 8 124525994.449 8      3360.003 8        48.242                  
  23543933.877 8 123724210.600 8     -3722.381 8        50.700                  
  23057336.705 8 121167127.620 8     -2826.819 8        49.476                  
  21330089.212 9 112090387.844 9      -847.696 9        54.121                  
  21748512.756 8 114289206.437 8      1743.080 8        52.983                  
  24999656.401 7 131374083.532 7     -1947.137 7        45.208                  
  20429013.584 9 107355174.650 9       820.857 9        56.099                  
 02  5 18 00 02 28.0000000  0  7G01G16G23G10G21G07G08                           
  23695868.800 8 124522629.675 8      3371.392 8        48.168                  
  23544640.954 8 123727919.319 8     -3697.778 8        50.661                  
  23057877.261 8 121169964.372 8     -2846.306 8        50.850                  
  21330250.748 8 112091240.479 8      -857.145 8        53.694                  
  21748184.073 9 114287459.316 9      1750.029 9        54.185                  
  25000030.364 7 131376028.798 7     -1944.360 7        47.747                  
  20428856.587 9 107354354.572 9       819.453 9        56.741                  
 02  5 18 00 02 29.0000000  0  7G01G16G23G10G21G07G08                           
  23695225.051 7 124519252.501 7      3383.019 7        47.944                  
  23545342.527 8 123731607.652 8     -3684.881 8        50.577                  
  23058418.460 8 121172820.052 8     -2860.194 8        50.324                  
  21330414.857 8 112092101.104 8      -862.527 8        53.656                  
  21747849.779 8 114285705.451 8      1754.997 8        52.832                  
  25000396.786 7 131377970.848 7     -1940.373 7        47.292                  
  20428699.143 9 107353536.140 9       817.810 9        55.750                  
 02  5 18 00 02 30.0000000  0  7G01G16G23G10G21G07G08                           
  23694583.213 7 124515872.526 7      3379.488 7        47.821                  
  23546042.296 8 123735291.410 8     -3684.899 8        48.930                  
  23058967.628 8 121175680.408 8     -2861.590 8        50.405                  
  21330577.733 9 112092964.064 9      -863.133 9        54.442                  
  21747511.536 8 114283950.217 8      1756.538 8        52.547                  
  25000768.515 8 131379912.342 8     -1942.872 8        49.593                  
  20428542.128 9 107352718.413 9       817.407 9        56.850                  
 02  5 18 00 02 31.0000000  0  7G01G16G23G10G21G07G08                           
  23693940.822 8 124512492.729 8      3379.346 8        49.505                  
  23546744.049 8 123738975.357 8     -3682.630 8        50.191                  
  23059507.237 8 121178541.139 8     -2862.874 8        50.192                  
  21330745.309 9 112093827.640 9      -864.046 9        57.332                  
  21747177.100 8 114282195.278 8      1755.178 8        51.807                  
  25001135.813 8 131381854.173 8     -1936.195 8        48.219                  
  20428386.542 9 107351901.160 9       817.063 9        56.111                  
 02  5 18 00 02 32.0000000  0  7G01G16G23G10G21G07G08                           
  23693295.768 8 124509113.084 8      3379.593 8        48.542                  
  23547445.908 8 123742659.477 8     -3685.040 8        51.594                  
  23060051.992 8 121181402.245 8     -2860.907 8        49.762                  
  21330910.330 9 112094691.849 9      -864.519 9        55.035                  
  21746847.256 8 114280440.633 8      1754.068 8        50.447                  
  25001507.989 7 131383796.357 7     -1943.951 7        47.179                  
  20428230.850 9 107351084.385 9       816.934 9        54.998                  
 02  5 18 00 02 33.0000000  0  7G01G16G23G10G21G07G08                           
  23692653.216 8 124505733.609 8      3377.796 8        49.801                  
  23548145.748 8 123746343.795 8     -3684.765 8        50.553                  
  23060599.874 8 121184263.767 8     -2860.277 8        50.070                  
  21331074.796 9 112095556.649 9      -865.569 9        54.424                  
  21746514.927 8 114278686.291 8      1753.567 8        52.674                  
  25001875.680 7 131385738.888 7     -1943.384 7        45.329                  
  20428073.638 9 107350268.091 9       815.874 9        54.721                  
