     2.11           OBSERVATION DATA    G                   RINEX VERSION / TYPE
BLANK OR G = GPS,  R = GLONASS,  E = GALILEO,  M = MIXED    COMMENT             
GNSS-SDR            joel                 6-MAY-25 12:48     PGM / RUN BY / DATE 
GPS OBSERVATION DATA FILE GENERATED BY GNSS-SDR             COMMENT             
GNSS-SDR VERSION 0.0.16                                     COMMENT             
See https://gnss-sdr.org                                    COMMENT             
DEFAULT MARKER NAME                                         MARKER NAME         
joel                CTTC                                    OBSERVER / AGENCY   
GNSS-SDR            Software Receiver   0.0.16              REC # / TYPE / VERS 
Antenna number      Antenna type                            ANT # / TYPE        
        0.0000        0.0000        0.0000                  APPROX POSITION XYZ 
        0.0000        0.0000        0.0000                  ANTENNA: DELTA H/E/N
     1     1                                                WAVELENGTH FACT L1/2
     4    C1    L1    D1    S1                              # / TYPES OF OBSERV 
  2002    05    18    00    00   42.1400000     GPS         TIME OF FIRST OBS   
    18                                                      LEAP SECONDS        
                                                            END OF HEADER       
 02  5 18 00 00 43.0000000  0  7G01G21G23G10G16G07G08                           
  23763610.517 7 124878615.129 7      3398.650 7        46.768                  
  21783603.639 8 114473612.642 8      1786.582 8        53.411                  
  23001131.962 8 120871770.131 8     -2817.795 8        49.699                  
  21313644.904 9 112003972.881 9      -796.912 9        54.662                  
  23471206.221 8 123342019.968 8     -3664.463 8        49.438                  
  24961662.713 7 131174428.740 7     -1907.850 7        46.016                  
  20445717.404 9 107442977.727 9       867.810 9        56.105                  
 02  5 18 00 00 44.0000000  0  7G01G21G23G10G16G07G08                           
  23762963.622 7 124875218.031 7      3399.226 7        46.472                  
  21783268.363 9 114471825.452 9      1787.026 9        54.192                  
  23001669.570 8 120874589.404 8     -2820.638 8        50.232                  
  21313797.166 8 112004771.285 8      -798.018 8        53.901                  
  23471903.756 8 123345683.723 8     -3662.383 8        50.780                  
  24962022.595 7 131176333.254 7     -1906.793 7        45.618                  
  20445554.921 9 107442109.847 9       867.796 9        56.743                  
 02  5 18 00 00 45.0000000  0  7G01G21G23G10G16G07G08                           
  23762318.872 7 124871821.092 7      3398.201 7        47.325                  
  21782928.780 8 114470038.567 8      1785.729 8        53.305                  
  23002205.247 8 120877409.088 8     -2822.011 8        51.403                  
  21313949.839 9 112005570.286 9      -798.643 9        54.788                  
  23472599.522 8 123349347.679 8     -3664.483 8        50.669                  
  24962386.748 7 131178238.105 7     -1904.828 7        46.912                  
  20445392.098 9 107441242.432 9       867.087 9        58.101                  
 02  5 18 00 00 46.0000000  0  7G01G21G23G10G16G07G08                           
  23761671.245 8 124868424.308 8      3399.860 8        48.364                  
  21782584.319 8 114468251.974 8      1785.666 8        53.362                  
  23002744.535 8 120880229.153 8     -2819.800 8        50.963                  
  21314102.780 9 112006369.884 9      -799.447 9        54.220                  
  23473298.147 8 123353011.828 8     -3665.189 8        49.316                  
  24962749.239 7 131180143.321 7     -1906.189 7        44.882                  
  20445229.705 9 107440375.495 9       866.424 9        56.864                  
 02  5 18 00 00 47.0000000  0  7G01G21G23G10G16G07G08                           
  23761024.529 7 124865027.690 7      3399.025 7        47.804                  
  21782245.075 8 114466465.686 8      1785.691 8        52.045                  
  23003277.996 8 120883049.631 8     -2821.579 8        50.210                  
  21314254.560 8 112007170.135 8      -800.977 8        53.818                  
  23473995.236 8 123356676.152 8     -3664.131 8        50.223                  
  24963110.086 7 131182048.896 7     -1907.638 7        45.342                  
  20445066.114 9 107439509.035 9       866.123 9        56.080                  
 02  5 18 00 00 48.0000000  0  7G01G21G23G10G16G07G08                           
  23760379.190 7 124861631.226 7      3397.901 7        47.221                  
  21781907.601 8 114464679.690 8      1787.299 8        52.471                  
  23003815.479 8 120885870.458 8     -2822.920 8        50.675                  
  21314407.661 9 112007970.982 9      -800.654 9        56.988                  
  23474691.305 8 123360340.693 8     -3665.738 8        50.285                  
  24963476.025 7 131183954.815 7     -1906.181 7        46.095                  
  20444898.842 9 107438643.039 9       865.135 9        57.893                  
 02  5 18 00 00 49.0000000  0  7G01G21G23G10G16G07G08                           
  23759732.671 8 124858234.918 8      3395.701 8        48.667                  
  21781568.089 8 114462893.998 8      1785.603 8        53.413                  
  23004353.408 8 120888691.682 8     -2821.188 8        49.437                  
  21314560.352 9 112008772.427 9      -801.338 9        57.439                  
  23475390.413 8 123364005.427 8     -3665.067 8        50.436                  
  24963835.014 7 131185861.091 7     -1906.671 7        47.051                  
  20444730.891 9 107437777.507 9       865.708 9        56.989                  
 02  5 18 00 00 50.0000000  0  7G01G21G23G10G16G07G08                           
  23759085.508 7 124854838.792 7      3397.150 7        47.182                  
  21781224.843 8 114461108.602 8      1782.092 8        53.946                  
  23004888.942 8 120891513.307 8     -2821.248 8        49.866                  
  21314713.222 9 112009574.491 9      -802.902 9        56.393                  
  23476087.055 8 123367670.340 8     -3664.933 8        48.701                  
  24964200.936 7 131187767.724 7     -1909.258 7        47.907                  
  20444563.851 9 107436912.453 9       864.688 9        58.807                  
 02  5 18 00 00 51.0000000  0  7G01G21G23G10G16G07G08                           
  23758440.276 7 124851442.814 7      3398.398 7        47.350                  
  21780886.976 8 114459323.500 8      1784.639 8        53.308                  
  23005427.765 8 120894335.328 8     -2822.160 8        50.084                  
  21314866.002 9 112010377.185 9      -802.619 9        55.106                  
  23476784.304 8 123371335.452 8     -3667.389 8        50.174                  
  24964561.318 7 131189674.702 7     -1908.738 7        46.808                  
  20444395.757 9 107436047.875 9       864.359 9        54.287                  
 02  5 18 00 00 52.0000000  0  7G01G21G23G10G16G07G08                           
  23757794.650 7 124848046.981 7      3396.860 7        47.995                  
  21780550.556 8 114457538.711 8      1782.856 8        51.691                  
  23005962.853 8 120897157.753 8     -2823.306 8        51.069                  
  21315019.300 9 112011180.477 9      -803.425 9        54.061                  
  23477482.911 8 123375000.757 8     -3667.767 8        49.518                  
  24964925.775 7 131191582.040 7     -1906.371 7        45.613                  
  20444231.970 9 107435183.764 9       863.635 9        56.043                  
 02  5 18 00 00 53.0000000  0  7G01G21G23G10G16G07G08                           
  23757147.237 8 124844651.333 8      3396.064 8        48.444                  
  21780208.382 8 114455754.243 8      1783.239 8        51.520                  
  23006501.532 8 120899980.564 8     -2822.852 8        49.606                  
  21315172.366 9 112011984.366 9      -804.671 9        54.712                  
  23478179.357 8 123378666.260 8     -3665.545 8        49.895                  
  24965289.374 7 131193489.733 7     -1904.287 7        46.894                  
  20444070.148 9 107434320.115 9       863.751 9        57.515                  
 02  5 18 00 00 54.0000000  0  7G01G21G23G10G16G07G08                           
  23756501.415 7 124841255.830 7      3396.245 7        47.154                  
  21779866.190 8 114453970.060 8      1784.921 8        53.936                  
  23007037.460 8 120902803.774 8     -2822.275 8        50.427                  
  21315325.575 9 112012788.873 9      -803.455 9        54.375                  
  23478876.749 8 123382331.952 8     -3664.835 8        50.316                  
  24965649.595 7 131195397.771 7     -1907.711 7        46.866                  
  20443907.915 9 107433456.946 9       862.346 9        55.142                  
 02  5 18 00 00 55.0000000  0  7G01G21G23G10G16G07G08                           
  23755855.611 8 124837860.477 8      3393.451 8        48.755                  
  21779530.163 8 114452186.187 8      1784.359 8        53.446                  
  23007574.531 8 120905627.370 8     -2823.332 8        49.793                  
  21315479.088 9 112013594.013 9      -805.247 9        54.035                  
  23479575.124 8 123385997.825 8     -3667.170 8        49.840                  
  24966016.268 7 131197306.170 7     -1909.653 7        47.615                  
  20443745.700 9 107432594.251 9       862.924 9        56.793                  
 02  5 18 00 00 56.0000000  0  7G01G21G23G10G16G07G08                           
  23755208.734 7 124834465.312 7      3394.548 7        46.673                  
  21779192.885 8 114450402.603 8      1782.869 8        53.995                  
  23008112.836 8 120908451.337 8     -2824.505 8        51.660                  
  21315632.261 9 112014399.749 9      -806.183 9        54.724                  
  23480272.588 7 123389663.913 7     -3661.444 7        47.497                  
  24966376.150 7 131199214.917 7     -1910.073 7        46.597                  
  20443584.861 9 107431732.022 9       862.324 9        56.144                  
 02  5 18 00 00 57.0000000  0  7G01G21G23G10G16G07G08                           
  23754563.091 8 124831070.292 8      3393.081 8        48.607                  
  21778849.425 8 114448619.327 8      1783.567 8        52.041                  
  23008649.443 8 120911275.702 8     -2823.161 8        50.688                  
  21315785.846 9 112015206.081 9      -806.169 9        55.417                  
  23480969.801 7 123393330.175 7     -3665.060 7        47.214                  
  24966742.000 7 131201124.015 7     -1912.657 7        45.768                  
  20443422.557 9 107430870.258 9       861.599 9        58.032                  
 02  5 18 00 00 58.0000000  0  7G01G21G23G10G16G07G08                           
  23753918.037 8 124827675.425 8      3394.410 8        48.339                  
  21778508.537 8 114446836.338 8      1783.292 8        51.964                  
  23009189.016 8 120914100.464 8     -2826.138 8        50.132                  
  21315939.448 9 112016013.032 9      -806.548 9        55.847                  
  23481668.659 8 123396996.632 8     -3664.167 8        48.295                  
  24967103.580 7 131203033.474 7     -1909.070 7        45.899                  
  20443256.589 9 107430008.971 9       861.169 9        57.035                  
 02  5 18 00 00 59.0000000  0  7G01G21G23G10G16G07G08                           
  23753270.982 8 124824280.739 8      3395.338 8        49.282                  
  21778173.458 8 114445053.659 8      1781.684 8        50.871                  
  23009724.782 8 120916925.628 8     -2824.564 8        49.837                  
  21316093.354 9 112016820.615 9      -807.876 9        56.442                  
  23482364.889 8 123400663.298 8     -3666.673 8        48.738                  
  24967467.590 7 131204943.277 7     -1904.334 7        44.999                  
  20443090.604 9 107429148.161 9       859.456 9        55.214                  
 02  5 18 00 01  0.0000000  0  7G01G21G23G10G16G07G08                           
  23752625.195 8 124820886.197 8      3393.682 8        49.527                  
  21777835.036 8 114443271.266 8      1782.130 8        52.536                  
  23010263.426 8 120919751.186 8     -2824.625 8        51.351                  
  21316246.938 9 112017628.795 9      -808.972 9        57.285                  
  23483062.639 8 123404330.127 8     -3664.419 8        48.603                  
  24967832.118 7 131206853.442 7     -1908.844 7        47.149                  
  20442924.118 9 107428287.816 9       859.942 9        56.757                  
 02  5 18 00 01  1.0000000  0  7G01G21G23G10G16G07G08                           
  23751980.302 8 124817491.819 8      3390.789 8        50.020                  
  21777492.398 9 114441489.194 9      1782.201 9        54.308                  
  23010801.945 8 120922577.139 8     -2828.059 8        49.820                  
  21316401.022 9 112018437.570 9      -809.395 9        55.356                  
  23483761.907 8 123407997.172 8     -3669.929 8        49.534                  
  24968193.072 7 131208763.949 7     -1910.829 7        46.929                  
  20442756.989 9 107427427.935 9       858.891 9        56.529                  
 02  5 18 00 01  2.0000000  0  7G01G21G23G10G16G07G08                           
  23751333.533 8 124814097.607 8      3394.172 8        49.311                  
  21777152.708 8 114439707.433 8      1781.608 8        50.999                  
  23011337.748 8 120925403.443 8     -2826.550 8        50.013                  
  21316555.268 9 112019246.968 9      -809.801 9        54.448                  
  23484458.442 8 123411664.410 8     -3668.565 8        49.173                  
  24968560.156 7 131210674.817 7     -1916.559 7        45.271                  
  20442591.486 9 107426568.531 9       859.130 9        57.172                  
 02  5 18 00 01  3.0000000  0  7G01G21G23G10G16G07G08                           
  23750687.049 8 124810703.554 8      3391.547 8        48.944                  
  21776817.913 8 114437925.968 8      1780.388 8        51.796                  
  23011877.946 8 120928230.165 8     -2826.589 8        51.022                  
  21316709.531 9 112020056.993 9      -811.026 9        55.417                  
  23485156.585 8 123415331.821 8     -3665.757 8        51.246                  
  24968920.341 7 131212586.025 7     -1911.025 7        44.475                  
  20442429.772 9 107425709.603 9       859.160 9        55.684                  
 02  5 18 00 01  4.0000000  0  7G01G21G23G10G16G07G08                           
  23750042.621 8 124807309.650 8      3394.321 8        48.979                  
  21776478.420 9 114436144.802 9      1781.070 9        54.135                  
  23012413.391 8 120931057.270 8     -2827.038 8        52.872                  
  21316863.634 9 112020867.618 9      -811.154 9        54.754                  
  23485854.942 8 123418999.437 8     -3667.562 8        52.061                  
  24969286.871 7 131214497.593 7     -1912.936 7        46.212                  
  20442268.397 9 107424851.144 9       857.735 9        56.496                  
 02  5 18 00 01  5.0000000  0  7G01G21G23G10G16G07G08                           
  23749396.102 8 124803915.918 8      3396.749 8        48.192                  
  21776135.067 8 114434363.934 8      1780.514 8        53.827                  
  23012953.036 8 120933884.777 8     -2828.922 8        50.787                  
  21317017.790 9 112021678.834 9      -811.458 9        55.895                  
  23486551.995 8 123422667.246 8     -3667.778 8        49.304                  
  24969649.791 7 131216409.508 7     -1909.746 7        46.536                  
  20442107.450 9 107423993.145 9       857.933 9        56.536                  
 02  5 18 00 01  6.0000000  0  7G01G21G23G10G16G07G08                           
  23748750.119 8 124800522.340 8      3393.288 8        48.329                  
  21775797.521 8 114432583.365 8      1779.856 8        51.950                  
  23013490.911 8 120936712.682 8     -2829.849 8        48.914                  
  21317171.624 9 112022490.673 9      -812.962 9        56.006                  
  23487250.995 8 123426335.245 8     -3668.431 8        49.070                  
  24970012.585 7 131218321.779 7     -1909.617 7        45.746                  
  20441946.379 9 107423135.627 9       856.945 9        57.542                  
 02  5 18 00 01  7.0000000  0  7G01G21G23G10G16G07G08                           
  23748104.797 8 124797128.927 8      3391.391 8        49.544                  
  21775462.369 8 114430803.093 8      1781.404 8        52.902                  
  23014028.751 8 120939540.984 8     -2827.129 8        49.287                  
  21317325.780 9 112023303.143 9      -812.083 9        54.893                  
  23487949.102 8 123430003.433 8     -3667.893 8        50.082                  
  24970379.454 7 131220234.395 7     -1911.840 7        46.185                  
  20441785.790 9 107422278.583 9       856.718 9        57.376                  
 02  5 18 00 01  8.0000000  0  7G01G21G23G10G16G07G08                           
  23747458.903 8 124793735.681 8      3393.284 8        48.590                  
  21775123.269 8 114429023.121 8      1779.382 8        52.523                  
  23014567.931 8 120942369.642 8     -2828.145 8        50.015                  
  21317480.133 9 112024116.211 9      -813.595 9        57.636                  
  23488646.691 8 123433671.814 8     -3668.020 8        50.619                  
  24970739.462 8 131222147.370 8     -1912.231 8        48.121                  
  20441624.540 9 107421422.015 9       856.276 9        59.415                  
 02  5 18 00 01  9.0000000  0  7G01G21G23G10G16G07G08                           
  23746812.563 8 124790342.577 8      3394.747 8        48.089                  
  21774779.791 8 114427243.442 8      1779.878 8        53.734                  
  23015105.038 8 120945198.689 8     -2831.173 8        50.543                  
  21317634.092 9 112024929.875 9      -813.333 9        55.932                  
  23489344.708 8 123437340.381 8     -3663.516 8        48.599                  
  24971108.082 7 131224060.696 7     -1914.325 7        47.623                  
  20441460.038 9 107420565.915 9       856.062 9        57.647                  
 02  5 18 00 01 10.0000000  0  7G01G21G23G10G16G07G08                           
  23746168.617 8 124786949.644 8      3393.819 8        49.918                  
  21774442.709 8 114425464.080 8      1779.628 8        53.855                  
  23015645.665 8 120948028.145 8     -2827.936 8        50.357                  
  21317788.356 9 112025744.146 9      -814.534 9        54.975                  
  23490043.655 8 123441009.147 8     -3668.170 8        49.213                  
  24971468.911 8 131225974.373 8     -1911.222 8        48.166                  
  20441295.267 9 107419710.280 9       855.337 9        57.124                  
 02  5 18 00 01 11.0000000  0  7G01G21G23G10G16G07G08                           
  23745521.705 7 124783556.874 7      3393.555 7        47.298                  
  21774108.398 8 114423685.024 8      1778.112 8        51.645                  
  23016181.450 8 120950857.997 8     -2827.782 8        50.651                  
  21317943.798 9 112026559.061 9      -815.277 9        55.937                  
  23490740.333 8 123444678.099 8     -3669.419 8        50.728                  
  24971834.779 8 131227888.396 8     -1911.729 8        48.346                  
  20441129.550 9 107418855.119 9       855.012 9        56.847                  
 02  5 18 00 01 12.0000000  0  7G01G21G23G10G16G07G08                           
  23744875.686 8 124780164.264 8      3391.739 8        49.599                  
  21773768.118 8 114421906.279 8      1777.945 8        53.210                  
  23016721.130 8 120953688.234 8     -2830.704 8        51.036                  
  21318098.276 9 112027374.573 9      -816.072 9        57.120                  
  23491439.780 8 123448347.240 8     -3667.422 8        51.446                  
  24972197.663 7 131229802.772 7     -1910.296 7        47.590                  
  20440964.565 9 107418000.437 9       855.027 9        57.342                  
 02  5 18 00 01 13.0000000  0  7G01G21G23G10G16G07G08                           
  23744230.435 8 124776771.821 8      3392.403 8        49.001                  
  21773425.605 8 114420127.820 8      1778.419 8        52.610                  
  23017260.328 8 120956518.862 8     -2832.052 8        50.507                  
  21318253.433 9 112028190.678 9      -816.638 9        57.566                  
  23492138.244 8 123452016.574 8     -3669.562 8        50.637                  
  24972563.889 7 131231717.505 7     -1914.233 7        46.650                  
  20440798.759 9 107417146.230 9       854.444 9        55.991                  
 02  5 18 00 01 14.0000000  0  7G01G21G23G10G16G07G08                           
  23743586.186 8 124773379.527 8      3390.529 8        48.458                  
  21773090.274 8 114418349.666 8      1777.617 8        52.112                  
  23017797.507 8 120959349.867 8     -2830.196 8        50.616                  
  21318409.054 9 112029007.392 9      -818.156 9        54.547                  
  23492834.904 8 123455686.110 8     -3668.624 8        50.235                  
  24972928.131 7 131233632.593 7     -1915.645 7        46.454                  
  20440636.437 9 107416292.477 9       852.999 9        54.588                  
 02  5 18 00 01 15.0000000  0  7G01G21G23G10G16G07G08                           
  23742939.774 8 124769987.394 8      3393.185 8        48.404                  
  21772755.034 8 114416571.803 8      1777.586 8        52.801                  
  23018338.384 8 120962181.268 8     -2830.886 8        50.226                  
  21318564.371 9 112029824.752 9      -817.842 9        55.269                  
  23493534.744 8 123459355.823 8     -3671.282 8        49.086                  
  24973289.425 7 131235548.025 7     -1916.869 7        46.968                  
  20440476.455 9 107415439.200 9       853.888 9        55.974                  
 02  5 18 00 01 16.0000000  0  7G01G21G23G10G16G07G08                           
  23742293.219 7 124766595.436 7      3391.444 7        47.473                  
  21772413.414 8 114414794.252 8      1777.284 8        52.673                  
  23018874.759 8 120965013.065 8     -2832.919 8        50.723                  
  21318720.118 9 112030642.705 9      -818.158 9        55.526                  
  23494232.583 8 123463025.741 8     -3667.587 8        49.646                  
  24973656.633 7 131237463.800 7     -1915.728 7        46.611                  
  20440316.045 9 107414586.400 9       853.211 9        56.872                  
 02  5 18 00 01 17.0000000  0  7G01G21G23G10G16G07G08                           
  23741649.559 7 124763203.628 7      3393.333 7        46.760                  
  21772072.705 8 114413016.985 8      1777.723 8        53.994                  
  23019415.422 8 120967845.258 8     -2832.011 8        50.329                  
  21318875.739 9 112031461.256 9      -818.447 9        55.760                  
  23494930.601 8 123466695.840 8     -3667.110 8        50.532                  
  24974018.856 8 131239379.935 8     -1917.829 8        49.362                  
  20440155.921 9 107413734.078 9       851.648 9        57.654                  
 02  5 18 00 01 18.0000000  0  7G01G21G23G10G16G07G08                           
  23741004.255 8 124759811.974 8      3389.539 8        48.197                  
  21771737.161 8 114411240.020 8      1778.791 8        53.317                  
  23019953.762 8 120970677.836 8     -2829.962 8        49.881                  
  21319031.807 9 112032280.404 9      -819.768 9        55.335                  
  23495629.959 8 123470366.125 8     -3668.615 8        49.758                  
  24974387.816 7 131241296.416 7     -1917.036 7        47.981                  
  20439995.314 9 107412882.220 9       851.385 9        57.615                  
 02  5 18 00 01 19.0000000  0  7G01G21G23G10G16G07G08                           
  23740357.736 7 124756420.505 7      3394.578 7        47.614                  
  21771402.241 8 114409463.368 8      1776.606 8        52.888                  
  23020492.870 8 120973510.788 8     -2833.229 8        50.412                  
  21319187.125 9 112033100.206 9      -821.552 9        54.965                  
  23496328.208 8 123474036.616 8     -3670.310 8        50.876                  
  24974749.824 8 131243213.253 8     -1918.716 8        48.254                  
  20439836.226 9 107412030.828 9       851.413 9        56.800                  
 02  5 18 00 01 20.0000000  0  7G01G21G23G10G16G07G08                           
  23739713.254 7 124753029.119 7      3388.726 7        46.937                  
  21771060.764 8 114407687.004 8      1777.023 8        50.934                  
  23021032.961 8 120976344.321 8     -2833.943 8        50.907                  
  21319344.569 8 112033920.642 8      -821.279 8        53.314                  
  23497025.583 8 123477706.980 8     -3667.795 8        50.341                  
  24975115.174 7 131245130.524 7     -1921.285 7        47.061                  
  20439675.726 9 107411179.972 9       850.114 9        56.965                  
 02  5 18 00 01 21.0000000  0  7G01G21G23G10G16G07G08                           
  23739067.789 7 124749635.276 7      3393.378 7        46.754                  
  21770720.753 8 114405910.575 8      1776.878 8        51.614                  
  23021572.731 8 120979186.418 8     -2848.863 8        50.983                  
  21319501.191 9 112034742.996 9      -824.522 9        54.536                  
  23497722.921 8 123481364.005 8     -3644.916 8        50.299                  
  24975482.365 7 131247052.091 7     -1926.626 7        46.516                  
  20439512.654 9 107410331.991 9       846.136 9        56.160                  
 02  5 18 00 01 22.0000000  0  7G01G21G23G10G16G07G08                           
  23738418.929 7 124746237.212 7      3401.875 7        47.503                  
  21770385.530 8 114404133.818 8      1776.012 8        53.949                  
  23022116.610 8 120982042.782 8     -2862.507 8        50.758                  
  21319659.475 8 112035568.221 8      -826.764 8        53.653                  
  23498414.435 8 123484998.392 8     -3626.285 8        49.953                  
  24975847.304 7 131248980.683 7     -1930.088 7        46.094                  
  20439350.349 9 107409488.549 9       841.484 9        56.184                  
 02  5 18 00 01 23.0000000  0  7G01G21G23G10G16G07G08                           
  23737772.177 8 124742834.907 8      3403.614 8        48.021                  
  21770049.824 8 114402356.726 8      1777.641 8        52.704                  
  23022663.367 8 120984913.381 8     -2876.801 8        49.246                  
  21319817.526 9 112036396.307 9      -830.462 9        54.967                  
  23499101.052 8 123488610.043 8     -3602.518 8        49.268                  
  24976218.872 7 131250916.280 7     -1940.253 7        45.978                  
  20439188.796 9 107408649.636 9       836.244 9        56.754                  
 02  5 18 00 01 24.0000000  0  7G01G21G23G10G16G07G08                           
  23737126.784 8 124739429.536 8      3403.896 8        49.088                  
  21769707.954 8 114400579.487 8      1777.879 8        53.853                  
  23023209.373 8 120987794.645 8     -2880.949 8        50.514                  
  21319975.971 9 112037226.683 9      -830.447 9        56.689                  
  23499787.026 8 123492204.898 8     -3594.406 8        50.580                  
  24976584.276 7 131252857.160 7     -1942.709 7        45.570                  
  20439028.117 9 107407814.203 9       835.774 9        54.858                  
 02  5 18 00 01 25.0000000  0  7G01G21G23G10G16G07G08                           
  23736472.867 8 124736024.089 8      3405.065 8        48.915                  
  21769367.746 8 114398802.538 8      1776.214 8        53.396                  
  23023759.971 8 120990677.066 8     -2881.564 8        49.766                  
  21320134.308 9 112038057.834 9      -830.572 9        55.837                  
  23500471.928 8 123495798.715 8     -3593.196 8        49.870                  
  24976956.899 7 131254798.739 7     -1944.821 7        47.222                  
  20438867.957 9 107406979.453 9       835.749 9        56.473                  
 02  5 18 00 01 26.0000000  0  7G01G21G23G10G16G07G08                           
  23735826.866 8 124732618.834 8      3404.142 8        50.095                  
  21769033.613 9 114397025.928 9      1776.781 9        54.065                  
  23024308.836 8 120993559.880 8     -2882.389 8        51.613                  
  21320292.771 9 112038889.616 9      -831.121 9        57.082                  
  23501154.346 8 123499392.693 8     -3595.187 8        49.188                  
  24977323.464 7 131256740.647 7     -1942.822 7        47.857                  
  20438706.618 9 107406145.154 9       834.024 9        57.169                  
 02  5 18 00 01 27.0000000  0  7G01G21G23G10G16G07G08                           
  23735178.096 7 124729213.765 7      3403.310 7        47.631                  
  21768697.354 8 114395249.637 8      1776.640 8        52.146                  
  23024855.699 8 120996443.091 8     -2881.970 8        50.828                  
  21320451.501 9 112039721.996 9      -832.879 9        55.807                  
  23501836.835 8 123502986.878 8     -3594.673 8        48.201                  
  24977694.979 8 131258682.894 8     -1941.597 8        49.656                  
  20438546.494 9 107405311.310 9       833.527 9        55.953                  
 02  5 18 00 01 28.0000000  0  7G01G21G23G10G16G07G08                           
  23734534.114 7 124725809.016 7      3404.834 7        45.093                  
  21768355.645 9 114393473.742 9      1775.016 9        54.171                  
  23025405.761 8 120999326.599 8     -2885.056 8        51.872                  
  21320610.250 9 112040554.958 9      -831.891 9        55.109                  
  23502520.718 7 123506581.240 7     -3596.903 7        47.298                  
  24978061.740 8 131260625.657 8     -1944.518 8        49.544                  
  20438388.424 9 107404477.964 9       833.019 9        56.171                  
 02  5 18 00 01 29.0000000  0  7G01G21G23G10G16G07G08                           
  23733886.809 7 124722405.190 7      3402.287 7        47.258                  
  21768016.383 8 114391698.713 8      1776.009 8        52.841                  
  23025955.752 8 121002209.933 8     -2883.817 8        49.235                  
  21320767.979 9 112041388.109 9      -831.201 9        54.048                  
  23503203.315 8 123510175.924 8     -3595.797 8        49.189                  
  24978435.292 8 131262569.439 8     -1943.586 8        48.445                  
  20438231.481 9 107403645.253 9       831.878 9        56.982                  
 02  5 18 00 01 30.0000000  0  7G01G21G23G10G16G07G08                           
  23733239.324 8 124719006.353 8      3392.696 8        49.592                  
  21767682.929 8 114389926.420 8      1771.066 8        53.094                  
  23026500.346 8 121005085.351 8     -2867.231 8        49.765                  
  21320925.334 9 112042219.164 9      -828.557 9        54.675                  
  23503890.486 8 123513781.338 8     -3615.852 8        49.529                  
  24978801.893 7 131264513.544 7     -1944.426 7        46.288                  
  20438074.126 9 107402811.919 9       834.787 9        58.290                  
 02  5 18 00 01 31.0000000  0  7G01G21G23G10G16G07G08                           
  23732594.074 8 124715617.350 8      3387.365 8        49.240                  
  21767347.867 8 114388158.951 8      1765.292 8        52.189                  
  23027046.584 8 121007943.119 8     -2848.947 8        50.956                  
  21321081.849 8 112043045.478 8      -825.187 8        52.594                  
  23504582.839 8 123517410.963 8     -3642.546 8        51.215                  
  24979173.605 7 131266456.454 7     -1943.657 7        45.581                  
  20437916.164 9 107401976.189 9       837.416 9        55.596                  
 02  5 18 00 01 32.0000000  0  7G01G21G23G10G16G07G08                           
  23731948.770 8 124712236.896 8      3374.397 8        48.803                  
  21767009.035 9 114386395.924 9      1758.505 9        54.070                  
  23027587.122 8 121010786.619 8     -2839.100 8        50.615                  
  21321237.434 8 112043867.696 8      -818.957 8        53.276                  
  23505275.514 8 123521059.530 8     -3646.907 8        50.549                  
  24979540.670 7 131268399.355 7     -1949.303 7        44.730                  
  20437758.845 9 107401138.940 9       835.371 9        56.152                  
 02  5 18 00 01 33.0000000  0  7G01G21G23G10G16G07G08                           
  23731311.346 8 124708873.215 8      3351.971 8        50.070                  
  21766673.884 8 114384646.327 8      1740.560 8        52.395                  
  23028125.159 8 121013620.962 8     -2829.355 8        49.772                  
  21321391.823 9 112044680.690 9      -807.459 9        54.448                  
  23505968.993 8 123524704.282 8     -3643.055 8        49.540                  
  24979917.581 7 131270362.475 7     -1976.311 7        46.946                  
  20437602.759 9 107400307.672 9       826.997 9        56.544                  
 02  5 18 00 01 34.0000000  0  7G01G21G23G10G16G07G08                           
  23730675.030 8 124705531.210 8      3332.011 8        48.709                  
  21766346.612 8 114382914.248 8      1725.377 8        52.702                  
  23028663.803 8 121016444.245 8     -2818.518 8        50.697                  
  21321544.156 8 112045481.529 8      -796.372 8        52.876                  
  23506662.740 8 123528342.144 8     -3635.087 8        49.698                  
  24980294.403 7 131272352.515 7     -2001.634 7        47.239                  
  20437446.548 9 107399484.457 9       820.152 9        56.240                  
 02  5 18 00 01 35.0000000  0  7G01G21G23G10G16G07G08                           
  23730040.287 8 124702200.012 8      3330.898 8        48.368                  
  21766021.807 8 114381190.893 8      1723.679 8        52.544                  
  23029198.605 8 121019261.944 8     -2817.513 8        52.075                  
  21321695.507 9 112046276.659 9      -795.214 9        54.519                  
  23507352.306 8 123531977.318 8     -3637.176 8        48.897                  
  24980677.497 7 131274355.799 7     -2002.640 7        47.519                  
  20437292.213 9 107398665.308 9       819.023 9        57.190                  
 02  5 18 00 01 36.0000000  0  7G01G21G23G10G16G07G08                           
  23729405.919 8 124698869.643 8      3329.973 8        48.072                  
  21765694.071 8 114379468.283 8      1721.437 8        51.430                  
  23029735.497 8 121022079.319 8     -2817.816 8        52.099                  
  21321847.340 8 112047072.036 8      -795.400 8        53.928                  
  23508047.017 8 123535613.257 8     -3635.519 8        49.473                  
  24981056.589 7 131276359.837 7     -2004.305 7        46.945                  
  20437137.217 9 107397846.649 9       818.729 9        54.387                  
 02  5 18 00 01 37.0000000  0  7G01G21G23G10G16G07G08                           
  23728772.962 7 124695539.545 7      3330.874 7        47.742                  
  21765363.495 8 114377746.045 8      1722.637 8        52.891                  
  23030271.532 8 121024896.966 8     -2817.904 8        50.336                  
  21321998.154 9 112047867.947 9      -795.963 9        55.532                  
  23508737.119 8 123539249.526 8     -3637.396 8        49.642                  
  24981441.362 7 131278364.260 7     -2005.556 7        46.510                  
  20436983.329 9 107397028.444 9       816.712 9        54.416                  
 02  5 18 00 01 38.0000000  0  7G01G21G23G10G16G07G08                           
  23728139.487 8 124692209.631 8      3331.986 8        48.381                  
  21765033.346 8 114376024.098 8      1722.178 8        53.924                  
  23030808.764 8 121027714.957 8     -2819.189 8        49.654                  
  21322149.344 9 112048664.456 9      -796.603 9        56.052                  
  23509429.615 8 123542885.991 8     -3636.383 8        49.652                  
  24981820.132 7 131280369.050 7     -2008.795 7        47.233                  
  20436827.297 9 107396210.694 9       817.396 9        55.616                  
 02  5 18 00 01 39.0000000  0  7G01G21G23G10G16G07G08                           
  23727505.745 7 124688879.951 7      3329.415 7        47.958                  
  21764707.773 8 114374302.490 8      1722.115 8        53.537                  
  23031346.854 8 121030533.286 8     -2818.286 8        50.006                  
  21322301.070 9 112049461.575 9      -797.818 9        56.451                  
  23510121.486 8 123546522.686 8     -3637.979 8        49.465                  
  24982204.084 8 131282374.199 8     -2006.628 8        48.697                  
  20436670.675 9 107395393.395 9       816.676 9        55.532                  
 02  5 18 00 01 40.0000000  0  7G01G21G23G10G16G07G08                           
  23726871.001 7 124685550.643 7      3328.395 7        46.986                  
  21764383.075 8 114372581.324 8      1719.436 8        53.308                  
  23031880.227 8 121033351.741 8     -2817.792 8        50.679                  
  21322453.314 9 112050259.179 9      -798.042 9        55.221                  
  23510813.500 8 123550159.784 8     -3636.954 8        50.741                  
  24982582.782 8 131284379.772 8     -2006.305 8        48.119                  
  20436514.178 9 107394576.538 9       816.629 9        56.732                  
 02  5 18 00 01 41.0000000  0  7G01G21G23G10G16G07G08                           
  23726239.010 8 124682220.974 8      3332.561 8        48.184                  
  21764056.804 8 114370859.788 8      1725.148 8        53.225                  
  23032418.352 8 121036169.934 8     -2820.271 8        50.388                  
  21322605.112 9 112051057.744 9      -801.492 9        56.523                  
  23511506.889 8 123553799.214 8     -3642.467 8        50.115                  
  24982967.538 7 131286384.125 7     -1998.153 7        46.335                  
  20436358.074 9 107393759.511 9       817.517 9        56.571                  
 02  5 18 00 01 42.0000000  0  7G01G21G23G10G16G07G08                           
  23725604.016 7 124678880.183 7      3351.527 7        47.476                  
  21763725.102 8 114369128.503 8      1737.796 8        53.574                  
  23032952.618 8 121038990.545 8     -2820.653 8        51.509                  
  21322758.624 9 112051863.715 9      -810.276 9        57.282                  
  23512200.154 8 123557450.951 8     -3660.671 8        51.287                  
  24983342.430 7 131288370.687 7     -1974.427 7        44.743                  
  20436200.755 9 107392937.037 9       826.285 9        55.875                  
 02  5 18 00 01 43.0000000  0  7G01G21G23G10G16G07G08                           
  23724964.627 7 124675529.092 7      3348.203 7        47.928                  
  21763389.486 8 114367387.939 8      1738.820 8        53.376                  
  23033491.798 8 121041812.324 8     -2817.971 8        50.088                  
  21322912.530 8 112052676.664 8      -811.900 8        52.799                  
  23512898.618 8 123561116.410 8     -3669.848 8        50.708                  
  24983718.734 7 131290339.623 7     -1967.768 7        46.547                  
  20436041.346 9 107392109.050 9       827.869 9        54.865                  
 02  5 18 00 01 44.0000000  0  7G01G21G23G10G16G07G08                           
  23724328.811 8 124672193.834 8      3323.491 8        48.647                  
  21763061.571 9 114365658.754 9      1719.588 9        54.106                  
  23034025.224 8 121044620.312 8     -2800.812 8        48.594                  
  21323066.525 9 112053481.053 9      -796.478 9        54.504                  
  23513597.690 8 123564789.178 8     -3678.305 8        50.024                  
  24984093.376 7 131292322.249 7     -1994.003 7        47.362                  
  20435882.633 9 107391284.230 9       822.031 9        57.286                  
 02  5 18 00 01 45.0000000  0  7G01G21G23G10G16G07G08                           
  23723698.678 8 124668882.592 8      3305.929 8        49.341                  
  21762738.946 8 114363947.352 8      1706.012 8        53.728                  
  23034553.361 8 121047409.590 8     -2785.770 8        49.649                  
  21323217.554 8 112054272.003 8      -788.183 8        53.041                  
  23514297.119 8 123568467.772 8     -3681.504 8        50.846                  
  24984477.738 7 131294328.101 7     -2011.643 7        46.032                  
  20435726.101 9 107390465.175 9       817.369 9        56.478                  
 02  5 18 00 01 46.0000000  0  7G01G21G23G10G16G07G08                           
  23723071.457 8 124665577.550 8      3304.608 8        48.617                  
  21762416.875 8 114362240.547 8      1706.520 8        52.010                  
  23035086.894 8 121050193.983 8     -2783.963 8        51.781                  
  21323366.100 9 112055060.024 9      -787.955 9        54.155                  
  23514997.835 8 123572148.813 8     -3681.267 8        50.176                  
  24984860.171 7 131296339.683 7     -2008.865 7        47.461                  
  20435568.996 9 107389647.720 9       816.434 9        54.105                  
 02  5 18 00 01 47.0000000  0  7G01G21G23G10G16G07G08                           
  23722443.433 7 124662272.788 7      3303.477 7        47.389                  
  21762090.569 8 114360534.068 8      1705.288 8        51.665                  
  23035616.925 8 121052978.520 8     -2786.231 8        51.242                  
  21323516.289 9 112055848.590 9      -788.885 9        55.512                  
  23515699.981 8 123575830.476 8     -3681.229 8        50.696                  
  24985242.372 7 131298351.518 7     -2012.474 7        45.825                  
  20435412.374 9 107388830.662 9       815.667 9        55.490                  
 02  5 18 00 01 48.0000000  0  7G01G21G23G10G16G07G08                           
  23721814.354 8 124658968.181 8      3306.347 8        48.998                  
  21761761.707 8 114358827.874 8      1705.783 8        53.998                  
  23036143.901 8 121055763.385 8     -2785.793 8        48.999                  
  21323667.264 9 112056637.759 9      -789.265 9        54.808                  
  23516399.749 8 123579512.394 8     -3684.914 8        48.531                  
  24985627.074 7 131300363.699 7     -2011.122 7        45.279                  
  20435255.788 8 107388014.041 8       816.811 8        53.790                  
 02  5 18 00 01 49.0000000  0  7G01G21G23G10G16G07G08                           
  23721184.703 7 124655663.740 7      3308.395 7        47.089                  
  21761436.062 8 114357121.989 8      1705.933 8        52.390                  
  23036676.576 8 121058548.627 8     -2784.954 8        50.980                  
  21323816.935 9 112057427.509 9      -790.789 9        55.770                  
  23517099.179 8 123583194.503 8     -3683.968 8        48.466                  
  24986007.344 7 131302376.216 7     -2016.714 7        44.460                  
  20435099.505 9 107387197.851 9       816.585 9        55.138                  
 02  5 18 00 01 50.0000000  0  7G01G21G23G10G16G07G08                           
  23720554.552 7 124652359.459 7      3305.692 7        47.329                  
  21761112.651 8 114355416.376 8      1704.880 8        52.520                  
  23037205.642 8 121061334.244 8     -2784.964 8        51.441                  
  21323967.839 9 112058217.903 9      -791.039 9        57.244                  
  23517801.521 8 123586876.818 8     -3684.701 8        49.266                  
  24986393.744 7 131304389.100 7     -2012.287 7        45.267                  
  20434944.617 9 107386382.137 9       815.499 9        57.632                  
 02  5 18 00 01 51.0000000  0  7G01G21G23G10G16G07G08                           
  23719927.331 8 124649055.361 8      3304.265 8        48.479                  
  21760790.544 8 114353711.064 8      1703.436 8        49.936                  
  23037735.048 8 121064120.234 8     -2785.443 8        50.648                  
  21324117.635 9 112059008.879 9      -791.785 9        54.671                  
  23518500.789 8 123590559.336 8     -3680.870 8        49.582                  
  24986773.300 7 131306402.315 7     -2012.372 7        45.871                  
  20434790.210 9 107385566.901 9       813.714 9        54.358                  
 02  5 18 00 01 52.0000000  0  7G01G21G23G10G16G07G08                           
  23719298.878 7 124645751.422 7      3301.521 7        47.573                  
  21760468.508 8 114352006.025 8      1704.759 8        52.591                  
  23038265.776 8 121066906.570 8     -2787.461 8        52.327                  
  21324269.093 8 112059800.468 8      -792.959 8        53.596                  
  23519201.970 8 123594242.072 8     -3683.517 8        48.911                  
  24987159.611 7 131308415.871 7     -2015.856 7        46.855                  
  20434635.733 9 107384752.094 9       814.826 9        54.322                  
 02  5 18 00 01 53.0000000  0  7G01G21G23G10G16G07G08                           
  23718670.496 8 124642447.693 8      3302.479 8        48.202                  
  21760143.578 9 114350301.296 9      1703.626 9        54.319                  
  23038793.394 8 121069693.196 8     -2789.247 8        51.137                  
  21324419.318 9 112060592.610 9      -792.436 9        54.434                  
  23519903.900 8 123597925.198 8     -3683.149 8        50.166                  
  24987540.167 7 131310429.715 7     -2008.892 7        46.950                  
  20434482.059 9 107383937.705 9       813.655 9        55.883                  
 02  5 18 00 01 54.0000000  0  7G01G21G23G10G16G07G08                           
  23718039.594 8 124639144.396 8      3305.568 8        49.036                  
  21759815.967 9 114348596.925 9      1704.031 9        54.133                  
  23039325.123 8 121072479.439 8     -2785.569 8        50.651                  
  21324570.597 9 112061385.219 9      -794.205 9        56.044                  
  23520604.080 8 123601609.695 8     -3687.697 8        52.130                  
  24987925.888 7 131312443.642 7     -2010.951 7        45.948                  
  20434327.510 9 107383123.611 9       814.279 9        56.124                  
 02  5 18 00 01 55.0000000  0  7G01G21G23G10G16G07G08                           
  23717413.553 8 124635842.150 8      3303.944 8        48.329                  
  21759489.143 8 114346892.960 8      1705.430 8        53.231                  
  23039855.243 8 121075263.182 8     -2784.999 8        50.610                  
  21324720.625 9 112062177.964 9      -793.058 9        56.019                  
  23521304.832 8 123605299.098 8     -3692.944 8        51.177                  
  24988307.642 7 131314456.559 7     -2012.047 7        47.051                  
  20434173.014 9 107382309.149 9       815.312 9        56.530                  
 02  5 18 00 01 56.0000000  0  7G01G21G23G10G16G07G08                           
  23716784.313 8 124632540.527 8      3302.007 8        49.154                  
  21759166.214 8 114345189.246 8      1704.531 8        51.065                  
  23040387.508 8 121078045.402 8     -2784.399 8        50.427                  
  21324871.261 9 112062971.038 9      -793.452 9        57.201                  
  23522008.496 8 123608992.058 8     -3691.359 8        49.561                  
  24988689.967 7 131316468.721 7     -2012.823 7        47.946                  
  20434019.109 9 107381494.508 9       814.347 9        55.421                  
 02  5 18 00 01 57.0000000  0  7G01G21G23G10G16G07G08                           
  23716157.486 8 124629239.162 8      3300.806 8        49.527                  
  21758844.732 8 114343485.780 8      1702.152 8        52.369                  
  23040913.876 8 121080827.634 8     -2784.173 8        50.858                  
  21325022.612 9 112063764.675 9      -793.564 9        56.069                  
  23522712.268 8 123612685.847 8     -3696.868 8        49.689                  
  24989074.741 7 131318480.984 7     -2012.425 7        47.774                  
  20433864.935 9 107380680.190 9       814.159 9        54.969                  
 02  5 18 00 01 58.0000000  0  7G01G21G23G10G16G07G08                           
  23715525.959 8 124625937.963 8      3296.558 8        48.413                  
  21758522.804 9 114341782.613 9      1703.444 9        54.745                  
  23041444.585 8 121083610.163 8     -2783.330 8        50.035                  
  21325173.819 9 112064558.906 9      -795.594 9        55.010                  
  23523416.003 8 123616379.959 8     -3690.706 8        48.944                  
  24989455.190 7 131320493.565 7     -2013.349 7        47.519                  
  20433711.064 9 107379866.290 9       813.304 9        57.697                  
 02  5 18 00 01 59.0000000  0  7G01G21G23G10G16G07G08                           
  23714899.971 8 124622636.913 8      3303.527 8        48.001                  
  21758198.660 8 114340079.719 8      1703.168 8        52.171                  
  23041973.830 8 121086393.085 8     -2783.234 8        50.933                  
  21325325.116 9 112065353.759 9      -796.390 9        55.479                  
  23524118.256 8 123620074.282 8     -3692.670 8        49.880                  
  24989840.589 7 131322506.468 7     -2011.463 7        44.647                  
  20433556.926 9 107379052.864 9       813.584 9        57.671                  
 02  5 18 00 02  0.0000000  0  7G01G21G23G10G16G07G08                           
  23714270.963 7 124619336.057 7      3299.467 7        47.209                  
  21757871.817 8 114338377.114 8      1703.162 8        53.837                  
  23042503.843 8 121089176.382 8     -2782.850 8        52.185                  
  21325476.199 9 112066149.193 9      -797.264 9        55.377                  
  23524821.688 8 123623768.792 8     -3695.455 8        50.418                  
  24990220.753 7 131324519.748 7     -2015.018 7        46.585                  
  20433402.663 9 107378239.881 9       814.079 9        56.604                  
 02  5 18 00 02  1.0000000  0  7G01G21G23G10G16G07G08                           
  23713645.566 8 124616035.335 8      3300.046 8        48.037                  
  21757545.922 8 114336674.819 8      1701.364 8        53.729                  
  23043033.570 8 121091960.070 8     -2783.866 8        50.089                  
  21325627.657 8 112066945.212 8      -793.484 8        52.353                  
  23525522.761 8 123627463.475 8     -3695.591 8        50.699                  
  24990608.010 7 131326533.362 7     -2012.492 7        45.531                  
  20433248.686 9 107377427.362 9       813.343 9        54.235                  
 02  5 18 00 02  2.0000000  0  7G01G21G23G10G16G07G08                           
  23713017.094 8 124612734.768 8      3300.828 8        49.798                  
  21757221.707 9 114334972.795 9      1701.217 9        55.608                  
  23043562.601 8 121094744.135 8     -2785.449 8        48.850                  
  21325778.954 8 112067741.829 8      -797.522 8        52.321                  
  23526227.730 8 123631158.361 8     -3695.394 8        50.044                  
  24990988.120 7 131328547.324 7     -2013.476 7        45.923                  
  20433095.673 9 107376615.321 9       812.132 9        54.829                  
 02  5 18 00 02  3.0000000  0  7G01G21G23G10G16G07G08                           
  23712386.836 8 124609434.370 8      3300.821 8        51.198                  
  21756900.136 8 114333271.068 8      1701.116 8        53.670                  
  23044093.078 8 121097528.565 8     -2782.365 8        49.804                  
  21325931.234 9 112068539.076 9      -796.997 9        54.276                  
  23526931.823 8 123634853.422 8     -3696.543 8        50.519                  
  24991372.912 7 131330561.657 7     -2015.378 7        46.682                  
  20432942.250 9 107375803.732 9       811.399 9        55.900                  
 02  5 18 00 02  4.0000000  0  7G01G21G23G10G16G07G08                           
  23711758.043 7 124606134.114 7      3302.431 7        47.995                  
  21756579.065 8 114331569.606 8      1699.871 8        52.738                  
  23044622.949 8 121100313.384 8     -2783.442 8        49.707                  
  21326082.656 8 112069336.935 8      -798.634 8        53.859                  
  23527634.308 8 123638548.669 8     -3693.251 8        51.620                  
  24991755.970 7 131332576.328 7     -2011.792 7        47.584                  
  20432788.665 9 107374992.596 9       810.982 9        57.906                  
 02  5 18 00 02  5.0000000  0  7G01G21G23G10G16G07G08                           
  23711133.395 8 124602834.045 8      3297.539 8        49.263                  
  21756255.725 8 114329868.455 8      1700.243 8        50.822                  
  23045153.980 8 121103098.601 8     -2785.319 8        50.205                  
  21326234.953 9 112070135.386 9      -798.693 9        56.908                  
  23528334.791 8 123642244.105 8     -3697.050 8        51.307                  
  24992138.260 8 131334591.358 8     -2015.089 8        48.874                  
  20432635.135 9 107374181.925 9       809.817 9        57.231                  
 02  5 18 00 02  6.0000000  0  7G01G21G23G10G16G07G08                           
  23710498.563 7 124599534.113 7      3302.720 7        47.518                  
  21755930.348 8 114328167.576 8      1701.202 8        53.331                  
  23045682.063 8 121105884.194 8     -2786.852 8        50.458                  
  21326387.894 9 112070934.432 9      -799.232 9        55.417                  
  23529044.156 8 123645939.733 8     -3694.231 8        51.028                  
  24992524.195 7 131336606.745 7     -2014.021 7        46.249                  
  20432480.818 9 107373371.719 9       810.110 9        55.643                  
 02  5 18 00 02  7.0000000  0  7G01G21G23G10G16G07G08                           
  23709875.273 8 124596234.357 8      3299.714 8        49.656                  
  21755603.023 8 114326466.981 8      1701.910 8        53.871                  
  23046213.059 8 121108670.161 8     -2784.050 8        50.045                  
  21326540.049 8 112071734.087 8      -799.690 8        53.130                  
  23529744.765 8 123649635.524 8     -3697.125 8        50.901                  
  24992904.108 7 131338622.490 7     -2017.272 7        45.581                  
  20432326.698 9 107372561.967 9       810.032 9        55.478                  
 02  5 18 00 02  8.0000000  0  7G01G21G23G10G16G07G08                           
  23709246.623 8 124592934.751 8      3297.975 8        49.115                  
  21755279.236 9 114324766.691 9      1700.348 9        54.452                  
  23046742.590 8 121111456.499 8     -2786.769 8        48.877                  
  21326692.722 9 112072534.341 9      -800.477 9        54.414                  
  23530447.928 8 123653331.527 8     -3697.466 8        49.238                  
  24993292.438 7 131340638.593 7     -2019.113 7        44.472                  
  20432171.791 9 107371752.679 9       809.414 9        57.542                  
 02  5 18 00 02  9.0000000  0  7G01G21G23G10G16G07G08                           
  23708621.314 8 124589635.300 8      3298.652 8        48.512                  
  21754957.558 9 114323066.670 9      1699.399 9        54.318                  
  23047276.070 8 121114243.225 8     -2786.841 8        50.720                  
  21326845.002 8 112073335.191 8      -801.275 8        53.683                  
  23531149.877 8 123657027.707 8     -3698.621 8        49.110                  
  24993672.423 7 131342655.040 7     -2016.180 7        45.021                  
  20432016.974 9 107370943.855 9       808.272 9        55.541                  
 02  5 18 00 02 10.0000000  0  7G01G21G23G10G16G07G08                           
  23707992.593 7 124586336.020 7      3298.962 7        47.703                  
  21754637.185 8 114321366.935 8      1700.107 8        53.027                  
  23047804.010 8 121117030.360 8     -2785.148 8        49.268                  
  21326998.229 9 112074136.636 9      -800.957 9        56.523                  
  23531852.702 8 123660724.059 8     -3694.612 8        48.561                  
  24994059.037 7 131344671.848 7     -2019.151 7        46.022                  
  20431862.746 9 107370135.473 9       808.366 9        57.137                  
 02  5 18 00 02 11.0000000  0  7G01G21G23G10G16G07G08                           
  23707364.104 8 124583036.895 8      3297.926 8        48.862                  
  21754314.470 9 114319667.502 9      1699.429 9        55.124                  
  23048334.988 8 121119817.862 8     -2789.462 8        48.686                  
  21327151.473 9 112074938.674 9      -803.636 9        55.307                  
  23532555.562 8 123664420.633 8     -3696.772 8        48.638                  
  24994440.809 7 131346688.987 7     -2018.260 7        46.084                  
  20431708.072 9 107369327.557 9       807.966 9        57.449                  
 02  5 18 00 02 12.0000000  0  7G01G21G23G10G16G07G08                           
  23706736.043 8 124579737.923 8      3300.940 8        48.747                  
  21753989.718 8 114317968.348 8      1699.755 8        53.181                  
  23048865.198 8 121122605.726 8     -2791.363 8        49.358                  
  21327304.254 8 112075741.334 8      -802.752 8        52.882                  
  23533259.816 8 123668117.390 8     -3695.439 8        48.582                  
  24994824.903 8 131348706.465 8     -2018.010 8        49.559                  
  20431553.737 9 107368520.104 9       807.262 9        55.760                  
 02  5 18 00 02 13.0000000  0  7G01G21G23G10G16G07G08                           
  23706107.179 7 124576439.125 7      3298.454 7        47.273                  
  21753663.376 9 114316269.465 9      1698.957 9        54.362                  
  23049396.158 8 121125393.920 8     -2789.320 8        50.634                  
  21327457.266 8 112076544.565 8      -803.961 8        53.553                  
  23533965.517 8 123671814.454 8     -3698.600 8        51.268                  
  24995210.338 7 131350724.262 7     -2020.180 7        47.065                  
  20431400.064 9 107367713.067 9       807.392 9        55.397                  
 02  5 18 00 02 14.0000000  0  7G01G21G23G10G16G07G08                           
  23705482.692 7 124573140.417 7      3303.498 7        47.292                  
  21753338.893 8 114314570.727 8      1700.075 8        52.530                  
  23049927.690 8 121128182.219 8     -2787.002 8        49.861                  
  21327610.296 9 112077348.457 9      -806.106 9        54.200                  
  23534666.430 8 123675512.382 8     -3699.989 8        49.513                  
  24995591.556 7 131352742.001 7     -2015.679 7        47.134                  
  20431245.407 9 107366906.319 9       806.948 9        54.662                  
 02  5 18 00 02 15.0000000  0  7G01G21G23G10G16G07G08                           
  23704850.236 8 124569829.526 8      3320.320 8        50.220                  
  21753015.356 8 114312862.916 8      1716.542 8        52.920                  
  23050457.399 8 121130979.355 8     -2806.217 8        50.110                  
  21327765.417 9 112078160.253 9      -818.787 9        55.820                  
  23535371.130 8 123679210.566 8     -3699.398 8        51.055                  
  24995975.793 7 131354746.814 7     -1991.199 7        47.817                  
  20431090.447 9 107366096.670 9       812.914 9        56.580                  
 02  5 18 00 02 16.0000000  0  7G01G21G23G10G16G07G08                           
  23704215.296 8 124566499.166 8      3329.885 8        49.473                  
  21752691.159 8 114311140.431 8      1722.562 8        51.578                  
  23050995.417 8 121133790.023 8     -2811.258 8        48.866                  
  21327921.593 9 112078984.225 9      -824.679 9        56.625                  
  23536075.813 8 123682909.730 8     -3702.517 8        51.650                  
  24996352.955 7 131356730.452 7     -1981.185 7        46.581                  
  20430934.522 9 107365281.926 9       815.298 9        55.336                  
 02  5 18 00 02 17.0000000  0  7G01G21G23G10G16G07G08                           
  23703585.877 7 124563180.009 7      3305.891 7        47.378                  
  21752365.442 8 114309425.166 8      1707.619 8        51.040                  
  23051525.109 8 121136587.536 8     -2788.418 8        51.161                  
  21328078.107 9 112079802.346 9      -812.380 9        55.767                  
  23536781.032 8 123686621.374 8     -3719.408 8        50.433                  
  24996731.582 7 131358720.346 7     -1996.575 7        46.382                  
  20430778.865 9 107364467.957 9       811.803 9        55.452                  
 02  5 18 00 02 18.0000000  0  7G01G21G23G10G16G07G08                           
  23702957.138 8 124559877.714 8      3298.075 8        48.461                  
  21752039.100 8 114307721.358 8      1703.270 8        51.956                  
  23052056.033 8 121139368.007 8     -2779.206 8        51.665                  
  21328231.817 9 112080611.271 9      -807.869 9        54.559                  
  23537490.110 8 123690345.644 8     -3726.006 8        49.202                  
  24997109.940 7 131360722.533 7     -2002.194 7        47.231                  
  20430623.887 9 107363656.220 9       812.284 9        55.024                  
 02  5 18 00 02 19.0000000  0  7G01G21G23G10G16G07G08                           
  23702329.381 8 124556576.520 8      3299.253 8        48.289                  
  21751712.705 8 114306018.372 8      1702.472 8        53.127                  
  23052582.330 8 121142147.397 8     -2778.582 8        51.388                  
  21328386.062 9 112081420.190 9      -809.662 9        56.076                  
  23538199.153 8 123694071.770 8     -3726.235 8        49.729                  
  24997493.660 7 131362725.298 7     -2004.228 7        47.388                  
  20430467.783 9 107362844.835 9       811.942 9        57.185                  
 02  5 18 00 02 20.0000000  0  7G01G21G23G10G16G07G08                           
  23701700.213 8 124553275.412 8      3301.424 8        48.248                  
  21751387.274 8 114304315.560 8      1704.021 8        52.755                  
  23053113.951 8 121144927.130 8     -2780.062 8        50.627                  
  21328540.093 9 112082229.788 9      -810.195 9        54.672                  
  23538908.911 8 123697798.252 8     -3727.018 8        49.088                  
  24997872.090 8 131364728.263 8     -2001.138 8        48.436                  
  20430312.394 9 107362033.878 9       811.330 9        57.071                  
 02  5 18 00 02 21.0000000  0  7G01G21G23G10G16G07G08                           
  23701070.866 8 124549974.452 8      3299.417 8        48.377                  
  21751065.614 8 114302613.037 8      1702.061 8        53.162                  
  23053640.194 8 121147707.219 8     -2778.603 8        48.260                  
  21328694.749 9 112083039.969 9      -810.704 9        55.135                  
  23539617.096 8 123701524.937 8     -3725.573 8        50.172                  
  24998256.542 7 131366731.567 7     -2001.928 7        45.865                  
  20430157.237 9 107361223.374 9       810.305 9        57.388                  
 02  5 18 00 02 22.0000000  0  7G01G21G23G10G16G07G08                           
  23700443.842 8 124546673.626 8      3302.965 8        48.763                  
  21750743.864 9 114300910.788 9      1701.265 9        54.114                  
  23054171.475 8 121150487.705 8     -2779.033 8        51.025                  
  21328848.959 9 112083850.772 9      -811.093 9        54.537                  
  23540326.782 8 123705251.838 8     -3726.723 8        50.763                  
  24998635.419 7 131368735.212 7     -2004.118 7        47.854                  
  20430002.563 9 107360413.334 9       809.670 9        56.064                  
 02  5 18 00 02 23.0000000  0  7G01G21G23G10G16G07G08                           
  23699816.872 8 124543372.968 8      3299.699 8        49.041                  
  21750421.400 8 114299208.824 8      1701.991 8        52.811                  
  23054699.934 8 121153268.562 8     -2781.150 8        52.100                  
  21329003.437 9 112084662.170 9      -811.001 9        55.488                  
  23541036.468 8 123708978.926 8     -3727.095 8        50.033                  
  24999018.513 7 131370739.201 7     -2004.813 7        47.078                  
  20429848.425 9 107359603.772 9       809.523 9        58.298                  
 02  5 18 00 02 24.0000000  0  7G01G21G23G10G16G07G08                           
  23699189.151 8 124540072.475 8      3301.990 8        48.138                  
  21750097.202 8 114297507.148 8      1701.390 8        53.188                  
  23055228.964 8 121156049.795 8     -2781.348 8        51.827                  
  21329157.843 9 112085474.140 9      -812.760 9        54.710                  
  23541745.440 8 123712706.196 8     -3729.251 8        49.947                  
  24999399.177 7 131372743.562 7     -2006.037 7        45.421                  
  20429695.091 9 107358794.676 9       808.730 9        56.822                  
 02  5 18 00 02 25.0000000  0  7G01G21G23G10G16G07G08                           
  23698559.250 7 124536772.128 7      3301.556 7        47.837                  
  21749769.609 9 114295805.770 9      1702.168 9        54.189                  
  23055758.513 8 121158831.387 8     -2782.090 8        49.719                  
  21329311.803 8 112086286.719 8      -813.223 8        52.484                  
  23542453.714 8 123716433.679 8     -3727.466 8        48.384                  
  24999780.609 7 131374748.278 7     -2004.424 7        47.591                  
  20429541.793 9 107357986.043 9       807.857 9        54.696                  
 02  5 18 00 02 26.0000000  0  7G01G21G23G10G16G07G08                           
  23697931.314 8 124533471.924 8      3300.285 8        48.356                  
  21749444.214 9 114294104.653 9      1700.985 9        54.462                  
  23056288.294 8 121161613.389 8     -2780.649 8        48.571                  
  21329466.030 8 112087099.880 8      -812.135 8        52.776                  
  23543163.936 8 123720161.334 8     -3727.050 8        50.696                  
  25000162.952 7 131376753.363 7     -2008.088 7        47.160                  
  20429388.887 9 107357177.863 9       808.031 9        54.223                  
 02  5 18 00 02 27.0000000  0  7G01G21G23G10G16G07G08                           
  23697304.201 7 124530171.891 7      3301.805 7        47.622                  
  21749121.625 9 114292403.824 9      1700.914 9        55.253                  
  23056817.628 8 121164395.718 8     -2781.440 8        49.093                  
  21329620.329 9 112087913.638 9      -813.570 9        55.048                  
  23543874.444 8 123723889.171 8     -3726.405 8        51.077                  
  25000543.008 7 131378758.790 7     -2005.668 7        46.818                  
  20429235.857 9 107356370.161 9       807.772 9        54.872                  
 02  5 18 00 02 28.0000000  0  7G01G21G23G10G16G07G08                           
  23696676.963 8 124526872.001 8      3301.305 8        48.051                  
  21748800.608 9 114290703.289 9      1700.248 9        54.226                  
  23057346.622 8 121167178.474 8     -2782.857 8        50.816                  
  21329774.735 9 112088727.970 9      -814.374 9        54.166                  
  23544582.629 8 123727617.193 8     -3728.151 8        49.604                  
  25000926.853 7 131380764.581 7     -2001.920 7        47.631                  
  20429082.791 9 107355562.935 9       806.705 9        54.228                  
 02  5 18 00 02 29.0000000  0  7G01G21G23G10G16G07G08                           
  23696048.992 8 124523572.297 8      3302.923 8        48.989                  
  21748479.233 9 114289003.055 9      1699.958 9        54.985                  
  23057877.243 8 121169961.592 8     -2783.426 8        50.630                  
  21329929.285 9 112089542.873 9      -815.181 9        55.686                  
  23545291.476 8 123731345.331 8     -3730.706 8        50.125                  
  25001305.605 7 131382770.766 7     -2008.091 7        46.713                  
  20428929.778 9 107354756.198 9       807.324 9        56.995                  
 02  5 18 00 02 30.0000000  0  7G01G21G23G10G16G07G08                           
  23695420.502 8 124520272.804 8      3296.171 8        49.566                  
  21748155.608 9 114287303.143 9      1700.047 9        55.672                  
  23058405.648 8 121172745.120 8     -2784.164 8        49.583                  
  21330084.066 9 112090358.348 9      -815.738 9        54.022                  
  23546001.751 8 123735073.540 8     -3727.724 8        50.012                  
  25001690.414 7 131384777.421 7     -2006.015 7        46.015                  
  20428776.730 9 107353949.952 9       805.383 9        55.453                  
 02  5 18 00 02 31.0000000  0  7G01G21G23G10G16G07G08                           
  23694791.906 8 124516973.460 8      3297.849 8        48.315                  
  21747828.604 8 114285603.551 8      1698.749 8        53.319                  
  23058937.287 8 121175529.040 8     -2786.041 8        49.433                  
  21330239.241 8 112091174.393 8      -816.534 8        53.431                  
  23546712.099 8 123738801.894 8     -3728.479 8        50.522                  
  25002069.184 7 131386784.491 7     -2011.265 7        46.532                  
  20428623.754 9 107353144.204 9       806.005 9        56.578                  
 02  5 18 00 02 32.0000000  0  7G01G21G23G10G16G07G08                           
  23694163.988 8 124513674.274 8      3299.870 8        49.423                  
  21747503.763 8 114283904.237 8      1699.816 8        52.258                  
  23059464.816 8 121178313.331 8     -2784.256 8        48.750                  
  21330394.308 8 112091991.037 8      -816.998 8        53.002                  
  23547420.320 8 123742530.446 8     -3729.933 8        50.995                  
  25002455.298 7 131388791.925 7     -2008.934 7        47.049                  
  20428471.295 9 107352338.920 9       805.952 9        55.956                  
 02  5 18 00 02 33.0000000  0  7G01G21G23G10G16G07G08                           
  23693537.983 8 124510375.245 8      3299.992 8        49.009                  
  21747180.084 8 114282205.220 8      1697.833 8        52.522                  
  23059996.580 8 121181097.982 8     -2783.710 8        49.029                  
  21330549.947 9 112092808.266 9      -816.774 9        54.184                  
  23548129.487 8 123746259.167 8     -3728.908 8        50.760                  
  25002833.013 7 131390799.710 7     -2012.780 7        46.555                  
  20428318.747 9 107351534.115 9       804.718 9        55.710                  
 02  5 18 00 02 34.0000000  0  7G01G21G23G10G16G07G08                           
  23692909.654 8 124507076.377 8      3298.562 8        49.584                  
  21746858.602 8 114280506.462 8      1698.142 8        50.898                  
  23060524.610 8 121183883.009 8     -2784.073 8        49.731                  
  21330705.515 9 112093626.088 9      -816.292 9        55.017                  
  23548840.192 8 123749988.069 8     -3729.909 8        51.411                  
  25003216.357 7 131392807.847 7     -2006.964 7        45.519                  
  20428166.271 8 107350729.786 8       803.895 8        53.895                  
 02  5 18 00 02 35.0000000  0  7G01G21G23G10G16G07G08                           
  23692282.273 8 124503777.665 8      3298.263 8        48.282                  
  21746538.568 8 114278807.991 8      1698.554 8        51.469                  
  23061057.500 8 121186668.426 8     -2784.374 8        49.307                  
  21330861.065 9 112094444.509 9      -818.586 9        54.743                  
  23549550.182 8 123753717.174 8     -3727.743 8        50.838                  
  25003600.077 7 131394816.342 7     -2008.038 7        46.034                  
  20428013.830 9 107349925.910 9       804.268 9        56.224                  
 02  5 18 00 02 36.0000000  0  7G01G21G23G10G16G07G08                           
  23691652.176 7 124500479.096 7      3299.857 7        47.655                  
  21746216.372 9 114277109.806 9      1698.000 9        55.259                  
  23061585.422 8 121189454.207 8     -2787.577 8        50.043                  
  21331016.311 8 112095263.536 8      -820.402 8        53.749                  
  23550258.421 8 123757446.446 8     -3729.143 8        49.831                  
  25003981.562 7 131396825.171 7     -2009.401 7        47.323                  
  20427861.658 9 107349122.499 9       803.486 9        55.876                  
 02  5 18 00 02 37.0000000  0  7G01G21G23G10G16G07G08                           
  23691025.330 7 124497180.701 7      3297.471 7        47.637                  
  21745891.424 9 114275411.910 9      1698.062 9        54.706                  
  23062117.026 8 121192240.388 8     -2786.895 8        51.056                  
  21331172.343 8 112096083.147 8      -819.997 8        53.315                  
  23550968.750 8 123761175.919 8     -3728.405 8        49.775                  
  25004366.997 7 131398834.389 7     -2010.054 7        46.849                  
  20427709.038 9 107348319.565 9       803.752 9        55.260                  
 02  5 18 00 02 38.0000000  0  7G01G21G23G10G16G07G08                           
  23690399.986 8 124493882.445 8      3298.345 8        49.163                  
  21745565.064 8 114273714.299 8      1697.375 8        53.139                  
  23062645.699 8 121195026.920 8     -2787.071 8        50.921                  
  21331328.733 8 112096903.330 8      -820.019 8        53.948                  
  23551678.204 8 123764905.563 8     -3730.682 8        48.795                  
  25004745.356 8 131400843.935 8     -2011.409 8        48.405                  
  20427556.884 9 107347517.095 9       803.097 9        55.524                  
 02  5 18 00 02 39.0000000  0  7G01G21G23G10G16G07G08                           
  23689770.710 7 124490584.354 7      3296.126 7        47.524                  
  21745241.599 8 114272016.973 8      1697.083 8        53.607                  
  23063176.534 8 121197813.855 8     -2786.811 8        51.327                  
  21331484.819 9 112097724.124 9      -820.829 9        55.403                  
  23552389.105 8 123768635.417 8     -3729.591 8        51.915                  
  25005132.703 8 131402853.851 8     -2011.803 8        48.597                  
  20427404.693 9 107346715.091 9       801.355 9        56.202                  
 02  5 18 00 02 40.0000000  0  7G01G21G23G10G16G07G08                           
  23689144.115 7 124487286.411 7      3297.159 7        47.956                  
  21744919.849 8 114270319.920 8      1697.126 8        53.237                  
  23063705.939 8 121200601.122 8     -2788.661 8        50.131                  
  21331643.013 8 112098545.511 8      -820.807 8        53.147                  
  23553097.344 8 123772365.426 8     -3729.931 8        50.569                  
  25005510.382 8 131404864.127 8     -2013.549 8        48.951                  
  20427252.735 9 107345913.564 9       801.471 9        56.144                  
 02  5 18 00 02 41.0000000  0  7G01G21G23G10G16G07G08                           
  23688515.197 8 124483988.641 8      3295.352 8        49.407                  
  21744599.690 8 114268623.164 8      1695.938 8        52.408                  
  23064237.328 8 121203388.795 8     -2787.538 8        50.749                  
  21331799.975 8 112099367.493 8      -821.545 8        53.100                  
  23553808.102 8 123776095.659 8     -3730.570 8        49.166                  
  25005895.907 7 131406874.734 7     -2011.002 7        47.261                  
  20427100.491 9 107345112.501 9       801.307 9        55.904                  
 02  5 18 00 02 42.0000000  0  7G01G21G23G10G16G07G08                           
  23687887.780 8 124480691.006 8      3297.780 8        48.725                  
  21744278.548 8 114266926.688 8      1696.943 8        53.338                  
  23064768.431 8 121206176.803 8     -2786.426 8        50.727                  
  21331956.489 8 112100190.062 8      -821.797 8        52.193                  
  23554518.789 8 123779826.059 8     -3731.044 8        50.793                  
  25006275.981 7 131408885.696 7     -2008.994 7        47.967                  
  20426949.176 9 107344311.903 9       800.780 9        54.210                  
 02  5 18 00 02 43.0000000  0  7G01G21G23G10G16G07G08                           
  23687261.185 8 124477393.541 8      3295.977 8        49.612                  
  21743954.850 8 114265230.482 8      1696.090 8        52.990                  
  23065298.588 8 121208965.212 8     -2788.089 8        49.434                  
  21332113.826 8 112101013.237 8      -823.339 8        52.316                  
  23555227.975 8 123783556.642 8     -3726.918 8        48.993                  
  25006660.826 7 131410897.041 7     -2007.807 7        46.543                  
  20426797.164 9 107343511.761 9       799.441 9        54.287                  
 02  5 18 00 02 44.0000000  0  7G01G21G23G10G16G07G08                           
  23686634.089 7 124474096.221 7      3300.190 7        46.926                  
  21743629.634 8 114263534.576 8      1695.966 8        51.800                  
  23065829.994 8 121211753.993 8     -2786.253 8        49.948                  
  21332271.038 9 112101837.011 9      -824.141 9        56.011                  
  23555936.410 8 123787287.402 8     -3731.336 8        50.373                  
  25007042.919 7 131412908.741 7     -2015.587 7        47.770                  
  20426645.260 9 107342712.102 9       799.936 9        55.376                  
 02  5 18 00 02 45.0000000  0  7G01G21G23G10G16G07G08                           
  23686007.208 8 124470799.059 8      3298.287 8        48.049                  
  21743304.186 8 114261838.953 8      1695.686 8        50.723                  
  23066359.865 8 121214543.160 8     -2788.753 8        51.322                  
  21332427.946 9 112102661.354 9      -824.314 9        54.312                  
  23556648.062 8 123791018.370 8     -3730.200 8        51.174                  
  25007424.137 7 131414920.800 7     -2011.738 7        47.536                  
  20426493.498 9 107341912.913 9       797.902 9        54.917                  
 02  5 18 00 02 46.0000000  0  7G01G21G23G10G16G07G08                           
  23685378.165 7 124467502.037 7      3298.908 7        47.106                  
  21742981.757 8 114260143.583 8      1695.634 8        52.601                  
  23066892.236 8 121217332.684 8     -2790.630 8        51.523                  
  21332585.282 9 112103486.282 9      -824.977 9        54.987                  
  23557358.659 8 123794749.524 8     -3730.236 8        49.903                  
  25007810.412 7 131416933.197 7     -2014.107 7        47.597                  
  20426341.951 9 107341114.174 9       798.784 9        57.889                  
 02  5 18 00 02 47.0000000  0  7G01G21G23G10G16G07G08                           
  23684750.319 8 124464205.166 8      3294.283 8        49.261                  
  21742661.258 8 114258448.510 8      1694.851 8        51.111                  
  23067421.034 8 121220122.547 8     -2790.204 8        51.897                  
  21332742.494 8 112104311.843 8      -825.796 8        52.758                  
  23558067.416 7 123798480.906 7     -3732.213 7        47.947                  
  25008189.449 7 131418945.900 7     -2012.782 7        46.173                  
  20426190.457 9 107340315.900 9       797.955 9        57.995                  
 02  5 18 00 02 48.0000000  0  7G01G21G23G10G16G07G08                           
  23684124.117 8 124460908.350 8      3296.165 8        48.787                  
  21742342.671 8 114256753.593 8      1694.740 8        51.738                  
  23067955.747 8 121222912.776 8     -2790.028 8        50.078                  
  21332899.670 8 112105138.022 8      -826.208 8        52.050                  
  23558777.460 8 123802212.727 8     -3730.411 8        49.649                  
  25008574.973 8 131420958.728 8     -2015.013 8        48.351                  
  20426038.874 9 107339518.033 9       797.237 9        55.382                  
 02  5 18 00 02 49.0000000  0  7G01G21G23G10G16G07G08                           
  23683496.646 8 124457611.199 8      3295.590 8        48.878                  
  21742019.885 8 114255058.481 8      1696.882 8        53.578                  
  23068483.383 8 121225703.128 8     -2790.960 8        51.044                  
  21333056.685 8 112105965.098 8      -827.025 8        53.073                  
  23559488.397 8 123805945.913 8     -3734.577 8        51.681                  
  25008956.227 8 131422970.852 8     -2013.848 8        48.222                  
  20425887.506 9 107338720.213 9       797.599 9        54.684                  
 02  5 18 00 02 50.0000000  0  7G01G21G23G10G16G07G08                           
  23682870.051 8 124454313.729 8      3297.540 8        48.325                  
  21741695.813 8 114253363.104 8      1695.969 8        52.589                  
  23069015.827 8 121228493.602 8     -2789.060 8        49.837                  
  21333213.647 8 112106793.077 8      -827.998 8        53.764                  
  23560199.530 8 123809680.463 8     -3735.699 8        48.420                  
  25009341.876 7 131424982.198 7     -2009.589 7        47.862                  
  20425735.405 9 107337922.487 9       798.348 9        54.680                  
 02  5 18 00 02 51.0000000  0  7G01G21G23G10G16G07G08                           
  23682241.526 7 124451016.285 7      3297.476 7        47.361                  
  21741367.702 8 114251667.933 8      1696.158 8        53.274                  
  23069545.518 8 121231284.410 8     -2791.185 8        49.775                  
  21333370.555 9 112107621.677 9      -829.133 9        54.763                  
  23560909.288 8 123813415.459 8     -3735.433 8        48.933                  
  25009721.664 7 131426993.661 7     -2015.399 7        45.590                  
  20425583.375 9 107337125.133 9       797.939 9        56.525                  
 02  5 18 00 02 52.0000000  0  7G01G21G23G10G16G07G08                           
  23681613.233 7 124447718.996 7      3297.485 7        47.647                  
  21741046.488 8 114249973.002 8      1695.032 8        53.995                  
  23070077.443 8 121234075.611 8     -2791.818 8        48.957                  
  21333527.373 8 112108450.884 8      -829.803 8        53.738                  
  23561620.189 8 123817150.690 8     -3735.681 8        50.129                  
  25010106.134 7 131429005.439 7     -2012.848 7        44.956                  
  20425431.631 9 107336328.256 9       796.696 9        55.291                  
 02  5 18 00 02 53.0000000  0  7G01G21G23G10G16G07G08                           
  23680986.781 7 124444421.846 7      3295.520 7        47.486                  
  21740724.810 8 114248278.351 8      1693.653 8        52.548                  
  23070608.475 8 121236867.184 8     -2790.332 8        50.042                  
  21333684.906 9 112109280.702 9      -830.226 9        55.986                  
  23562331.179 8 123820886.126 8     -3736.588 8        50.357                  
  25010488.281 7 131431017.559 7     -2011.372 7        46.185                  
  20425279.780 9 107335531.840 9       796.959 9        57.053                  
 02  5 18 00 02 54.0000000  0  7G01G21G23G10G16G07G08                           
  23680359.364 8 124441124.840 8      3296.578 8        49.165                  
  21740405.366 8 114246583.979 8      1693.973 8        53.394                  
  23071139.256 8 121239659.130 8     -2790.385 8        49.762                  
  21333842.583 9 112110111.087 9      -830.227 9        54.485                  
  23563042.224 8 123824621.739 8     -3736.471 8        51.507                  
  25010870.714 7 131433030.031 7     -2014.622 7        45.698                  
  20425128.090 9 107334735.905 9       795.962 9        57.428                  
 02  5 18 00 02 55.0000000  0  7G01G21G23G10G16G07G08                           
  23679732.197 8 124437828.001 8      3296.009 8        48.797                  
  21740083.866 9 114244889.893 9      1694.321 9        54.197                  
  23071671.503 8 121242451.442 8     -2793.488 8        48.854                  
  21334000.473 8 112110942.060 8      -830.667 8        53.108                  
  23563752.303 8 123828357.542 8     -3737.145 8        50.578                  
  25011255.077 7 131435042.872 7     -2013.310 7        46.990                  
  20424977.097 9 107333940.434 9       794.726 9        56.858                  
 02  5 18 00 02 56.0000000  0  7G01G21G23G10G16G07G08                           
  23679105.334 8 124434531.303 8      3294.367 8        48.954                  
  21739761.902 8 114243196.089 8      1693.804 8        52.665                  
  23072201.302 8 121245244.117 8     -2793.659 8        50.505                  
  21334158.775 8 112111773.606 8      -830.568 8        51.659                  
  23564463.347 8 123832093.519 8     -3738.042 8        49.542                  
  25011636.437 7 131437056.064 7     -2011.415 7        47.658                  
  20424824.960 8 107333145.428 8       794.246 8        53.599                  
 02  5 18 00 02 57.0000000  0  7G01G21G23G10G16G07G08                           
  23678476.130 8 124431234.746 8      3297.881 8        48.492                  
  21739437.651 9 114241502.564 9      1692.629 9        54.037                  
  23072734.549 8 121248037.164 8     -2793.821 8        48.740                  
  21334316.755 8 112112605.805 8      -832.867 8        53.558                  
  23565175.660 8 123835829.678 8     -3735.617 8        49.089                  
  25012021.801 7 131439069.611 7     -2014.536 7        47.235                  
  20424673.413 9 107332350.884 9       794.333 9        54.500                  
 02  5 18 00 02 58.0000000  0  7G01G21G23G10G16G07G08                           
  23677848.927 8 124427938.367 8      3295.179 8        48.832                  
  21739112.881 8 114239809.303 8      1692.687 8        53.662                  
  23073264.705 8 121250830.609 8     -2794.176 8        50.399                  
  21334475.021 8 112113438.592 8      -833.404 8        53.430                  
  23565886.579 8 123839566.027 8     -3734.338 8        49.586                  
  25012402.733 7 131441083.508 7     -2015.632 7        46.137                  
  20424522.098 9 107331556.819 9       793.960 9        56.088                  
 02  5 18 00 02 59.0000000  0  7G01G21G23G10G16G07G08                           
  23677222.743 8 124424642.129 8      3294.297 8        48.830                  
  21738790.238 9 114238116.375 9      1692.796 9        54.408                  
  23073798.221 8 121253624.397 8     -2793.598 8        50.089                  
  21334634.484 9 112114271.982 9      -833.759 9        54.510                  
  23566596.944 8 123843302.573 8     -3732.740 8        48.459                  
  25012788.954 7 131443097.763 7     -2013.772 7        47.362                  
  20424370.890 9 107330763.231 9       792.944 9        56.275                  
 02  5 18 00 03  0.0000000  0  7G01G21G23G10G16G07G08                           
  23676596.344 8 124421346.038 8      3295.699 8        48.366                  
  21738469.668 8 114236423.688 8      1692.883 8        53.111                  
  23074327.501 8 121256418.581 8     -2794.750 8        51.060                  
  21334794.483 9 112115105.957 9      -834.181 9        55.347                  
  23567307.774 8 123847039.275 8     -3738.104 8        50.245                  
  25013169.242 7 131445112.364 7     -2012.881 7        47.149                  
  20424219.540 9 107329970.109 9       792.724 9        58.320                  
 02  5 18 00 03  1.0000000  0  7G01G21G23G10G16G07G08                           
  23675968.677 8 124418050.117 8      3295.773 8        50.009                  
  21738150.616 8 114234731.298 8      1691.851 8        52.465                  
  23074861.570 8 121259213.136 8     -2795.906 8        51.050                  
  21334954.090 9 112115940.484 9      -835.602 9        55.631                  
  23568019.783 8 123850776.172 8     -3737.324 8        50.891                  
  25013554.945 7 131447127.334 7     -2017.045 7        46.411                  
  20424068.547 9 107329177.473 9       792.230 9        57.085                  
 02  5 18 00 03  2.0000000  0  7G01G21G23G10G16G07G08                           
  23675341.188 7 124414754.402 7      3293.801 7        47.817                  
  21737830.100 8 114233039.215 8      1692.563 8        52.463                  
  23075391.816 8 121262008.080 8     -2793.650 8        50.743                  
  21335113.606 9 112116775.593 9      -835.534 9        55.181                  
  23568730.827 8 123854513.206 8     -3736.301 8        48.881                  
  25013937.932 7 131449142.725 7     -2016.357 7        47.202                  
  20423917.607 9 107328385.327 9       791.325 9        56.273                  
 02  5 18 00 03  3.0000000  0  7G01G21G23G10G16G07G08                           
  23674713.575 8 124411458.918 8      3292.954 8        49.582                  
  21737507.135 8 114231347.542 8      1690.413 8        53.612                  
  23075924.491 8 121264803.427 8     -2796.421 8        50.067                  
  21335272.837 9 112117611.202 9      -835.738 9        54.960                  
  23569440.978 8 123858250.134 8     -3734.519 8        50.710                  
  25014320.936 7 131451158.715 7     -2015.785 7        46.682                  
  20423766.882 9 107327593.731 9       791.345 9        56.983                  
 02  5 18 00 03  4.0000000  0  7G01G21G23G10G16G07G08                           
  23674086.622 8 124408164.115 8      3295.684 8        48.639                  
  21737182.616 8 114229656.678 8      1689.704 8        53.668                  
  23076456.720 7 121267599.364 7     -2795.822 7        47.247                  
  21335432.050 9 112118447.132 9      -836.273 9        55.153                  
  23570152.076 8 123861986.093 8     -3735.987 8        51.564                  
  25014706.371 7 131453176.170 7     -2018.045 7        47.988                  
  20423616.299 9 107326802.991 9       790.372 9        57.128                  
 02  5 18 00 03  5.0000000  0  7G01G21G23G10G16G07G08                           
  23673459.652 8 124404869.810 8      3295.075 8        48.886                  
  21736858.936 9 114227966.457 9      1689.650 9        54.257                  
  23076987.573 8 121270395.848 8     -2797.946 8        48.954                  
  21335591.567 9 112119283.446 9      -836.940 9        55.622                  
  23570864.085 8 123865721.375 8     -3734.998 8        51.552                  
  25015087.929 7 131455194.731 7     -2019.891 7        46.762                  
  20423466.092 9 107326013.016 9       789.700 9        57.964                  
 02  5 18 00 03  6.0000000  0  7G01G21G23G10G16G07G08                           
  23672833.664 8 124401575.746 8      3297.544 8        48.741                  
  21736537.365 8 114226276.590 8      1688.334 8        53.013                  
  23077522.322 8 121273192.757 8     -2797.344 8        50.083                  
  21335750.851 9 112120120.296 9      -838.390 9        54.913                  
  23571573.824 8 123869456.677 8     -3732.180 8        49.856                  
  25015473.792 7 131457213.790 7     -2022.138 7        47.587                  
  20423315.939 9 107325223.540 9       789.609 9        57.260                  
 02  5 18 00 03  7.0000000  0  7G01G21G23G10G16G07G08                           
  23672207.087 8 124398281.856 8      3294.134 8        48.628                  
  21736217.778 8 114224587.027 8      1689.804 8        52.069                  
  23078052.370 8 121275990.016 8     -2798.387 8        49.402                  
  21335909.493 9 112120957.740 9      -838.141 9        55.209                  
  23572283.171 8 123873192.148 8     -3736.607 8        49.868                  
  25015856.368 8 131459233.230 8     -2019.340 8        48.179                  
  20423165.428 9 107324434.542 9       788.863 9        55.672                  
 02  5 18 00 03  8.0000000  0  7G01G21G23G10G16G07G08                           
  23671579.545 8 124394988.084 8      3296.154 8        48.577                  
  21735899.995 9 114222897.736 9      1690.689 9        54.195                  
  23078586.458 8 121278787.676 8     -2795.832 8        49.471                  
  21336067.490 9 112121795.780 9      -837.964 9        54.477                  
  23572994.447 8 123876927.774 8     -3731.306 8        49.227                  
  25016243.071 7 131461253.034 7     -2021.254 7        45.606                  
  20423015.132 9 107323646.031 9       788.107 9        56.756                  
 02  5 18 00 03  9.0000000  0  7G01G21G23G10G16G07G08                           
  23670953.486 8 124391694.494 8      3293.536 8        49.537                  
  21735578.764 8 114221208.755 8      1688.437 8        53.117                  
  23079116.614 8 121281585.700 8     -2797.870 8        49.969                  
  21336226.418 9 112122634.406 9      -838.547 9        54.332                  
  23573706.546 8 123880663.599 8     -3735.568 8        48.817                  
  25016626.398 7 131463273.182 7     -2018.998 7        46.169                  
  20422865.264 9 107322857.987 9       788.737 9        55.630                  
 02  5 18 00 03 10.0000000  0  7G01G21G23G10G16G07G08                           
  23670326.176 7 124388401.048 7      3293.080 7        47.014                  
  21735256.246 9 114219520.037 9      1687.938 9        54.212                  
  23079651.684 8 121284384.089 8     -2797.667 8        51.352                  
  21336385.541 9 112123473.629 9      -839.998 9        55.619                  
  23574417.304 8 123884399.609 8     -3736.038 8        49.752                  
  25017011.207 7 131465293.699 7     -2021.431 7        46.615                  
  20422715.504 9 107322070.419 9       787.387 9        55.431                  
 02  5 18 00 03 11.0000000  0  7G01G21G23G10G16G07G08                           
  23669700.563 7 124385107.775 7      3293.027 7        47.057                  
  21734932.870 8 114217831.576 8      1688.914 8        53.852                  
  23080182.412 8 121287182.826 8     -2797.525 8        49.840                  
  21336545.290 9 112124313.447 9      -840.738 9        54.996                  
  23575127.365 8 123888135.795 8     -3736.871 8        49.332                  
  25017396.338 7 131467314.562 7     -2020.141 7        47.182                  
  20422565.762 9 107321283.316 9       787.285 9        55.625                  
 02  5 18 00 03 12.0000000  0  7G01G21G23G10G16G07G08                           
  23669072.824 8 124381814.663 8      3292.353 8        48.394                  
  21734609.208 8 114216143.431 8      1688.127 8        52.574                  
  23080715.587 8 121289981.946 8     -2797.274 8        49.614                  
  21336705.021 8 112125153.846 8      -841.094 8        52.627                  
  23575839.750 7 123891872.151 7     -3738.138 7        47.569                  
  25017778.985 7 131469335.761 7     -2020.652 7        46.871                  
  20422415.984 9 107320496.689 9       786.700 9        54.332                  
 02  5 18 00 03 13.0000000  0  7G01G21G23G10G16G07G08                           
  23668446.783 7 124378521.687 7      3294.978 7        47.932                  
  21734287.906 8 114214455.557 8      1689.085 8        51.153                  
  23081247.638 8 121292781.432 8     -2800.770 8        51.587                  
  21336864.949 9 112125994.857 9      -841.574 9        54.553                  
  23576551.223 8 123895608.739 8     -3738.205 8        48.273                  
  25018166.297 7 131471357.318 7     -2018.842 7        47.427                  
  20422266.706 9 107319710.516 9       785.305 9        55.199                  
 02  5 18 00 03 14.0000000  0  7G01G21G23G10G16G07G08                           
  23667818.187 7 124375228.806 7      3291.175 7        46.771                  
  21733968.461 8 114212767.904 8      1686.693 8        51.209                  
  23081781.778 8 121295581.297 8     -2797.601 8        48.921                  
  21337024.359 9 112126836.475 9      -842.273 9        55.168                  
  23577262.535 8 123899345.653 8     -3738.658 8        48.802                  
  25018548.318 8 131473379.080 8     -2018.610 8        49.392                  
  20422116.928 9 107318924.760 9       785.453 9        56.873                  
 02  5 18 00 03 15.0000000  0  7G01G21G23G10G16G07G08                           
  23667191.895 7 124371935.308 7      3294.794 7        47.474                  
  21733650.357 8 114211079.869 8      1690.845 8        53.190                  
  23082315.062 8 121298381.795 8     -2803.845 8        49.399                  
  21337186.109 9 112127679.170 9      -844.755 9        55.097                  
  23577972.668 8 123903083.291 8     -3737.364 8        48.563                  
  25018935.737 7 131475400.125 7     -2017.396 7        47.828                  
  20421967.811 9 107318139.158 9       785.232 9        56.515                  
 02  5 18 00 03 16.0000000  0  7G01G21G23G10G16G07G08                           
  23666563.638 7 124368626.258 7      3319.405 7        47.824                  
  21733328.053 9 114209380.932 9      1706.909 9        54.139                  
  23082848.398 8 121301196.172 8     -2825.124 8        48.825                  
  21337350.075 9 112128531.768 9      -860.361 9        56.050                  
  23578683.498 8 123906815.599 8     -3729.514 8        48.958                  
  25019315.739 8 131477407.197 8     -1993.072 8        48.206                  
  20421817.872 9 107317351.015 9       791.014 9        56.252                  
 02  5 18 00 03 17.0000000  0  7G01G21G23G10G16G07G08                           
  23665928.716 7 124365291.186 7      3350.968 7        46.539                  
  21732999.084 8 114207663.687 8      1724.441 8        53.477                  
  23083390.741 8 121304033.679 8     -2850.739 8        48.623                  
  21337515.882 9 112129400.506 9      -876.413 9        56.933                  
  23579392.433 8 123910538.399 8     -3719.196 8        49.163                  
  25019694.402 7 131479391.001 7     -1972.120 7        47.455                  
  20421666.753 9 107316558.430 9       794.958 9        57.404                  
 02  5 18 00 03 18.0000000  0  7G01G21G23G10G16G07G08                           
  23665290.238 7 124361939.427 7      3351.510 7        46.935                  
  21732666.774 8 114205934.494 8      1729.568 8        52.419                  
  23083931.779 8 121306885.049 8     -2847.520 8        49.934                  
  21337683.922 9 112130279.833 9      -879.527 9        54.889                  
  23580098.939 8 123914257.458 8     -3726.253 8        51.636                  
  25020066.739 7 131481358.817 7     -1965.646 7        47.290                  
  20421514.902 9 107315762.694 9       796.413 9        58.237                  
 02  5 18 00 03 19.0000000  0  7G01G21G23G10G16G07G08                           
  23664652.493 7 124358589.491 7      3345.446 7        47.891                  
  21732337.180 9 114204204.479 9      1731.518 9        54.512                  
  23084471.996 8 121309725.774 8     -2836.713 8        49.694                  
  21337850.819 9 112131158.634 9      -879.231 9        54.792                  
  23580809.929 8 123917997.113 8     -3750.065 8        50.434                  
  25020442.381 7 131483319.191 7     -1955.888 7        45.646                  
  20421362.783 9 107314963.553 9       800.247 9        58.159                  
 02  5 18 00 03 20.0000000  0  7G01G21G23G10G16G07G08                           
  23664016.588 7 124355241.612 7      3349.518 7        47.913                  
  21732010.481 9 114202473.383 9      1731.339 9        54.776                  
  23085012.087 8 121312554.220 8     -2824.211 8        52.212                  
  21338016.769 9 112132036.730 9      -877.787 9        54.112                  
  23581527.227 8 123921760.307 8     -3768.930 8        49.306                  
  25020810.626 7 131485270.948 7     -1949.569 7        45.646                  
  20421209.449 9 107314160.427 9       805.062 9        56.313                  
 02  5 18 00 03 21.0000000  0  7G01G21G23G10G16G07G08                           
  23663379.807 7 124351893.872 7      3348.341 7        47.193                  
  21731683.781 8 114200741.546 8      1733.382 8        53.262                  
  23085547.371 8 121315378.829 8     -2822.919 8        49.896                  
  21338182.986 9 112132915.350 9      -880.485 9        54.413                  
  23582245.419 8 123925532.347 8     -3773.784 8        49.689                  
  25021184.964 7 131487218.949 7     -1951.213 7        46.020                  
  20421055.758 9 107313355.932 9       804.479 9        57.845                  
 02  5 18 00 03 22.0000000  0  7G01G21G23G10G16G07G08                           
  23662741.722 8 124348545.652 8      3349.377 8        48.644                  
  21731352.454 9 114199009.553 9      1731.040 9        54.135                  
  23086087.355 8 121318204.228 8     -2823.254 8        51.130                  
  21338349.383 9 112133794.948 9      -880.751 9        56.290                  
  23582962.467 8 123929304.570 8     -3771.133 8        50.400                  
  25021551.940 7 131489166.636 7     -1947.590 7        45.811                  
  20420902.066 9 107312551.795 9       803.787 9        56.472                  
 02  5 18 00 03 23.0000000  0  7G01G21G23G10G16G07G08                           
  23662104.138 8 124345197.481 8      3346.845 8        48.859                  
  21731019.554 8 114197277.761 8      1730.853 8        52.494                  
  23086622.979 8 121321030.075 8     -2826.625 8        50.338                  
  21338516.136 9 112134675.203 9      -880.722 9        55.371                  
  23583679.676 8 123933076.983 8     -3773.583 8        50.322                  
  25021925.993 7 131491114.554 7     -1947.056 7        47.290                  
  20420748.428 9 107311748.122 9       803.660 9        54.812                  
 02  5 18 00 03 24.0000000  0  7G01G21G23G10G16G07G08                           
  23661467.947 8 124341849.428 8      3348.540 8        48.575                  
  21730690.639 8 114195546.235 8      1731.348 8        52.059                  
  23087162.034 8 121323856.298 8     -2824.932 8        49.975                  
  21338685.195 9 112135556.037 9      -880.055 9        55.507                  
  23584398.029 8 123936849.605 8     -3777.457 8        49.746                  
  25022292.969 8 131493062.822 8     -1950.371 8        48.140                  
  20420595.059 9 107310944.913 9       803.175 9        56.553                  
 02  5 18 00 03 25.0000000  0  7G01G21G23G10G16G07G08                           
  23660831.238 7 124338501.529 7      3347.932 7        47.992                  
  21730363.225 8 114193815.008 8      1731.199 8        53.093                  
  23087700.195 8 121326682.884 8     -2827.259 8        49.716                  
  21338854.486 9 112136437.424 9      -880.807 9        54.504                  
  23585116.310 8 123940622.394 8     -3775.900 8        50.305                  
  25022667.110 7 131495011.478 7     -1946.889 7        47.349                  
  20420441.975 9 107310142.217 9       802.393 9        57.349                  
 02  5 18 00 03 26.0000000  0  7G01G21G23G10G16G07G08                           
  23660193.743 7 124335153.920 7      3345.127 7        44.904                  
  21730036.972 8 114192084.173 8      1729.674 8        53.002                  
  23088237.142 8 121329509.746 8     -2825.718 8        48.760                  
  21339023.063 8 112137319.321 8      -881.473 8        53.509                  
  23585834.770 8 123944395.390 8     -3772.592 8        50.228                  
  25023035.963 7 131496960.605 7     -1945.345 7        46.975                  
  20420288.694 9 107309340.047 9       801.098 9        57.502                  
 02  5 18 00 03 27.0000000  0  7G01G21G23G10G16G07G08                           
  23659556.105 8 124331807.142 8      3345.920 8        48.123                  
  21729706.020 8 114190354.148 8      1728.287 8        51.252                  
  23088776.447 8 121332336.542 8     -2828.096 8        50.327                  
  21339191.675 8 112138201.422 8      -882.641 8        53.876                  
  23586551.961 8 123948168.505 8     -3771.124 8        48.624                  
  25023409.908 7 131498910.874 7     -1949.067 7        44.449                  
  20420135.843 9 107308538.566 9       801.679 9        56.014                  
 02  5 18 00 03 28.0000000  0  7G01G21G23G10G16G07G08                           
  23658920.235 8 124328460.018 8      3348.177 8        49.435                  
  21729372.888 8 114188625.294 8      1727.589 8        52.814                  
  23089313.357 8 121335169.259 8     -2839.192 8        50.603                  
  21339358.750 8 112139084.490 8      -884.300 8        52.795                  
  23587267.419 8 123951931.030 8     -3752.173 8        48.740                  
  25023779.118 7 131500866.013 7     -1957.928 7        42.966                  
  20419983.456 9 107307739.711 9       797.448 9        55.454                  
 02  5 18 00 03 29.0000000  0  7G01G21G23G10G16G07G08                           
  23658283.473 8 124325110.611 8      3345.177 8        48.784                  
  21729043.597 8 114186897.616 8      1727.459 8        53.825                  
  23089856.504 8 121338015.398 8     -2851.626 8        50.826                  
  21339525.271 9 112139969.796 9      -886.028 9        54.620                  
  23587980.000 8 123955670.416 8     -3730.384 8        49.119                  
  25024154.921 7 131502829.813 7     -1967.960 7        44.593                  
  20419832.051 9 107306945.621 9       791.524 9        55.588                  
 02  5 18 00 03 30.0000000  0  7G01G21G23G10G16G07G08                           
  23657646.710 7 124321766.667 7      3333.182 7        47.999                  
  21728718.667 8 114185175.251 8      1716.001 8        52.404                  
  23090398.186 8 121340862.249 8     -2837.903 8        50.494                  
  21339692.651 9 112140852.631 9      -877.127 9        56.384                  
  23588690.579 8 123959401.761 8     -3736.890 8        50.880                  
  25024528.419 7 131504803.528 7     -1982.993 7        45.937                  
  20419681.505 9 107306155.145 9       788.268 9        56.263                  
 02  5 18 00 03 31.0000000  0  7G01G21G23G10G16G07G08                           
  23657013.718 8 124318444.349 8      3311.734 8        48.507                  
  21728396.042 8 114183467.542 8      1699.822 8        53.378                  
  23090935.168 8 121343687.307 8     -2815.548 8        50.822                  
  21339857.510 9 112141723.203 9      -863.569 9        55.100                  
  23589402.874 8 123963148.379 8     -3755.976 8        50.654                  
  25024906.474 7 131506793.635 7     -1998.498 7        46.460                  
  20419531.745 9 107305367.624 9       785.996 9        55.341                  
 02  5 18 00 03 32.0000000  0  7G01G21G23G10G16G07G08                           
  23656385.032 8 124315139.205 8      3304.263 8        48.388                  
  21728073.738 8 114181771.496 8      1695.222 8        50.318                  
  23091470.238 8 121346495.059 8     -2803.904 8        49.461                  
  21340021.208 9 112142584.164 9      -859.017 9        54.037                  
  23590117.635 8 123966907.305 8     -3758.695 8        48.727                  
  25025287.263 7 131508796.750 7     -2003.793 7        45.742                  
  20419382.395 9 107304582.558 9       785.529 9        54.818                  
 02  5 18 00 03 33.0000000  0  7G01G21G23G10G16G07G08                           
  23655757.204 7 124311836.056 7      3304.758 7        47.443                  
  21727749.201 8 114180077.057 8      1695.617 8        51.813                  
  23092002.824 8 121349301.758 8     -2807.464 8        48.391                  
  21340186.443 9 112143444.627 9      -860.490 9        55.038                  
  23590832.950 7 123970666.795 7     -3757.514 7        47.400                  
  25025673.002 7 131510802.024 7     -2004.162 7        44.839                  
  20419233.278 9 107303798.376 9       783.641 9        55.150                  
 02  5 18 00 03 34.0000000  0  7G01G21G23G10G16G07G08                           
  23655128.750 7 124308533.208 7      3302.762 7        46.872                  
  21727423.913 9 114178383.031 9      1693.577 9        54.184                  
  23092539.234 8 121352108.772 8     -2805.675 8        49.663                  
  21340351.892 9 112144305.583 9      -861.614 9        57.502                  
  23591549.498 8 123974426.333 8     -3757.785 8        49.994                  
  25026050.842 7 131512807.909 7     -2005.168 7        45.519                  
  20419084.268 9 107303014.742 9       783.741 9        56.288                  
 02  5 18 00 03 35.0000000  0  7G01G21G23G10G16G07G08                           
  23654499.314 7 124305230.554 7      3300.372 7        47.442                  
  21727101.074 9 114176689.318 9      1695.432 9        54.243                  
  23093071.374 8 121354916.163 8     -2807.182 8        51.213                  
  21340516.448 9 112145167.120 9      -861.281 9        55.098                  
  23592264.437 8 123978186.027 8     -3760.376 8        50.165                  
  25026436.009 7 131514814.162 7     -2006.753 7        46.330                  
  20418935.473 9 107302231.596 9       783.583 9        56.982                  
 02  5 18 00 03 36.0000000  0  7G01G21G23G10G16G07G08                           
  23653870.449 7 124301928.049 7      3302.906 7        47.674                  
  21726780.521 9 114174995.890 9      1694.181 9        55.072                  
  23093606.497 8 121357723.925 8     -2809.960 8        48.717                  
  21340680.754 9 112146029.242 9      -862.333 9        56.609                  
  23592979.252 8 123981945.925 8     -3759.942 8        49.351                  
  25026814.814 7 131516820.759 7     -2010.730 7        44.651                  
  20418786.839 9 107301448.928 9       781.864 9        57.529                  
 02  5 18 00 03 37.0000000  0  7G01G21G23G10G16G07G08                           
  23653242.014 8 124298625.656 8      3301.990 8        49.240                  
  21726461.113 8 114173302.712 8      1692.882 8        52.505                  
  23094141.228 8 121360532.053 8     -2808.066 8        49.525                  
  21340845.167 9 112146891.982 9      -863.050 9        56.596                  
  23593694.442 8 123985706.023 8     -3760.450 8        49.080                  
  25027197.962 7 131518827.668 7     -2007.749 7        45.574                  
  20418638.007 9 107300666.736 9       782.296 9        57.654                  
 02  5 18 00 03 38.0000000  0  7G01G21G23G10G16G07G08                           
  23652614.650 7 124295323.222 7      3302.466 7        47.576                  
  21726139.577 8 114171609.653 8      1692.935 8        53.425                  
  23094676.137 8 121363340.611 8     -2810.236 8        50.832                  
  21341008.418 9 112147755.403 9      -863.840 9        55.758                  
  23594411.651 8 123989466.473 8     -3763.187 8        50.024                  
  25027582.450 7 131520834.625 7     -2003.922 7        45.342                  
  20418489.230 9 107299884.926 9       780.760 9        55.726                  
 02  5 18 00 03 39.0000000  0  7G01G21G23G10G16G07G08                           
  23651985.428 8 124292017.672 8      3312.478 8        48.830                  
  21725817.327 8 114169914.562 8      1699.874 8        53.277                  
  23095210.778 8 121366152.397 8     -2818.612 8        50.224                  
  21341171.848 8 112148621.359 8      -868.730 8        52.465                  
  23595127.126 8 123993225.835 8     -3753.629 8        50.039                  
  25027961.023 7 131522838.972 7     -1999.804 7        45.030                  
  20418340.524 9 107299103.007 9       783.050 9        56.250                  
 02  5 18 00 03 40.0000000  0  7G01G21G23G10G16G07G08                           
  23651352.793 7 124288692.662 7      3334.032 7        47.485                  
  21725488.913 8 114168206.603 8      1715.295 8        53.355                  
  23095747.635 8 121368984.778 8     -2846.560 8        52.290                  
  21341338.280 8 112149499.658 8      -885.093 8        53.808                  
  23595838.725 8 123996971.690 8     -3740.001 8        49.669                  
  25028341.651 7 131524828.959 7     -1979.290 7        45.328                  
  20418191.532 9 107298319.264 9       784.877 9        56.477                  
 02  5 18 00 03 41.0000000  0  7G01G21G23G10G16G07G08                           
  23650714.816 8 124285344.158 8      3359.346 8        49.253                  
  21725158.997 9 114166483.173 9      1729.513 9        54.164                  
  23096293.784 8 121371842.132 8     -2867.264 8        50.425                  
  21341507.697 8 112150392.771 8      -897.739 8        53.476                  
  23596548.250 8 124000700.667 8     -3721.225 8        49.290                  
  25028713.309 7 131526801.744 7     -1971.907 7        43.785                  
  20418042.201 9 107297533.330 9       787.032 9        57.628                  
 02  5 18 00 03 42.0000000  0  7G01G21G23G10G16G07G08                           
  23650075.516 8 124281982.829 8      3363.104 8        48.089                  
  21724830.225 8 114164750.623 8      1735.653 8        53.373                  
  23096838.860 8 121374710.325 8     -2865.580 8        51.449                  
  21341679.472 9 112151294.193 9      -903.067 9        54.625                  
  23597258.347 8 124004426.744 8     -3735.424 8        50.940                  
  25029091.739 7 131528762.315 7     -1950.318 7        45.151                  
  20417892.226 9 107296745.092 9       790.894 9        57.490                  
 02  5 18 00 03 43.0000000  0  7G01G21G23G10G16G07G08                           
  23649436.251 7 124278612.947 7      3371.483 7        47.359                  
  21724504.562 8 114163009.606 8      1745.796 8        53.554                  
  23097383.097 8 121377575.772 8     -2865.317 8        49.119                  
  21341854.606 9 112152201.163 9      -910.460 9        54.822                  
  23597971.553 8 124008171.786 8     -3754.223 8        51.766                  
  25029456.249 7 131530705.059 7     -1936.006 7        46.034                  
  20417739.839 9 107295951.121 9       796.939 9        56.266                  
 02  5 18 00 03 44.0000000  0  7G01G21G23G10G16G07G08                           
  23648790.554 7 124275233.782 7      3384.085 7        47.262                  
  21724169.875 8 114161259.686 8      1753.387 8        51.609                  
  23097929.478 8 121380439.326 8     -2864.615 8        49.990                  
  21342029.133 9 112153114.077 9      -915.002 9        54.309                  
  23598686.636 8 124011934.980 8     -3768.050 8        50.561                  
  25029824.387 7 131532629.657 7     -1918.142 7        44.749                  
  20417588.578 9 107295151.434 9       801.875 9        56.024                  
 02  5 18 00 03 45.0000000  0  7G01G21G23G10G16G07G08                           
  23648146.805 7 124271851.294 7      3382.429 7        47.818                  
  21723831.847 8 114159506.900 8      1752.813 8        51.629                  
  23098474.823 8 121383303.407 8     -2866.329 8        48.998                  
  21342203.945 9 112154029.602 9      -915.332 9        54.335                  
  23599402.933 8 124015702.957 8     -3768.658 8        51.181                  
  25030188.790 7 131534548.713 7     -1919.400 7        46.073                  
  20417435.601 9 107294350.372 9       800.664 9        55.784                  
 02  5 18 00 03 46.0000000  0  7G01G21G23G10G16G07G08                           
  23647504.002 8 124268468.469 8      3382.513 8        49.086                  
  21723498.572 8 114157754.053 8      1753.552 8        52.486                  
  23099018.863 8 121386168.271 8     -2862.564 8        50.104                  
  21342375.166 9 112154946.024 9      -917.165 9        57.259                  
  23600120.875 8 124019470.928 8     -3769.384 8        50.391                  
  25030552.424 7 131536467.690 7     -1915.995 7        46.169                  
  20417282.481 9 107293549.704 9       800.879 9        56.399                  
 02  5 18 00 03 47.0000000  0  7G01G21G23G10G16G07G08                           
  23646860.146 8 124265085.701 8      3382.976 8        49.567                  
  21723167.637 8 114156001.451 8      1752.883 8        53.681                  
  23099565.352 8 121389033.607 8     -2865.456 8        50.399                  
  21342549.282 9 112155863.080 9      -917.935 9        54.324                  
  23600838.459 8 124023239.019 8     -3766.077 8        48.173                  
  25030929.193 7 131538386.918 7     -1924.710 7        45.942                  
  20417129.862 9 107292749.557 9       799.228 9        55.035                  
 02  5 18 00 03 48.0000000  0  7G01G21G23G10G16G07G08                           
  23646217.022 8 124261703.056 8      3381.479 8        48.069                  
  21722837.114 9 114154249.134 9      1752.524 9        54.073                  
  23100108.749 8 121391899.343 8     -2864.286 8        51.542                  
  21342724.095 8 112156780.740 8      -919.357 8        53.621                  
  23601554.882 8 124027007.299 8     -3767.171 8        49.438                  
  25031277.621 7 131540306.477 7     -1920.574 7        44.958                  
  20416977.403 9 107291949.915 9       799.525 9        55.087                  
 02  5 18 00 03 49.0000000  0  7G01G21G23G10G16G07G08                           
  23645573.058 7 124258320.574 7      3381.389 7        46.736                  
  21722500.337 9 114152497.103 9      1751.487 9        54.158                  
  23100655.791 8 121394765.430 8     -2864.452 8        51.496                  
  21342901.195 9 112157698.982 9      -919.373 9        55.207                  
  23602271.626 8 124030775.756 8     -3767.330 8        51.145                  
  25031648.725 7 131542226.412 7     -1918.441 7        46.963                  
  20416824.409 9 107291150.724 9       798.933 9        55.657                  
 02  5 18 00 03 50.0000000  0  7G01G21G23G10G16G07G08                           
  23644930.220 7 124254938.236 7      3380.571 7        47.878                  
  21722164.345 8 114150745.346 8      1751.078 8        53.799                  
  23101200.796 8 121397631.879 8     -2867.339 8        49.605                  
  21343075.971 8 112158617.801 8      -918.456 8        53.076                  
  23602988.478 8 124034544.393 8     -3769.670 8        50.800                  
  25032006.713 7 131544146.639 7     -1919.128 7        47.000                  
  20416672.129 9 107290352.046 9       797.870 9        55.029                  
 02  5 18 00 03 51.0000000  0  7G01G21G23G10G16G07G08                           
  23644285.184 8 124251556.070 8      3383.157 8        48.606                  
  21721832.446 9 114148993.889 9      1751.914 9        54.664                  
  23101746.087 8 121400498.695 8     -2866.064 8        49.054                  
  21343250.713 9 112159537.203 9      -919.417 9        54.012                  
  23603706.902 8 124038313.240 8     -3768.698 8        49.179                  
  25032383.445 7 131546067.274 7     -1924.912 7        45.917                  
  20416519.349 9 107289553.866 9       798.338 9        57.987                  
 02  5 18 00 03 52.0000000  0  7G01G21G23G10G16G07G08                           
  23643641.935 8 124248174.042 8      3381.142 8        48.733                  
  21721502.262 9 114147242.728 9      1750.729 9        54.445                  
  23102292.933 8 121403365.880 8     -2868.267 8        48.965                  
  21343425.490 9 112160457.216 9      -921.149 9        55.449                  
  23604424.111 8 124042082.254 8     -3768.061 8        51.115                  
  25032738.288 7 131547988.255 7     -1917.057 7        44.246                  
  20416367.123 9 107288756.202 9       797.550 9        56.489                  
 02  5 18 00 03 53.0000000  0  7G01G21G23G10G16G07G08                           
  23642998.793 8 124244792.155 8      3383.287 8        49.280                  
  21721169.952 8 114145491.870 8      1750.437 8        53.551                  
  23102837.331 8 121406233.441 8     -2869.276 8        51.834                  
  21343597.818 9 112161377.772 9      -921.907 9        55.287                  
  23605140.605 8 124045851.451 8     -3768.787 8        51.262                  
  25033112.430 7 131549909.580 7     -1922.230 7        43.046                  
  20416215.254 9 107287959.012 9       796.550 9        55.357                  
 02  5 18 00 03 54.0000000  0  7G01G21G23G10G16G07G08                           
  23642354.793 8 124241410.440 8      3381.612 8        51.195                  
  21720833.049 9 114143741.292 9      1749.532 9        54.375                  
  23103382.497 8 121409101.364 8     -2867.911 8        49.982                  
  21343773.310 8 112162298.951 8      -920.988 8        53.596                  
  23605857.314 8 124049620.826 8     -3770.516 8        49.287                  
  25033476.958 7 131551831.232 7     -1919.232 7        43.649                  
  20416062.742 9 107287162.350 9       796.135 9        57.128                  
 02  5 18 00 03 55.0000000  0  7G01G21G23G10G16G07G08                           
  23641710.633 8 124238028.829 8      3381.795 8        49.038                  
  21720495.557 8 114141990.963 8      1750.453 8        51.754                  
  23103929.932 8 121411969.717 8     -2868.075 8        50.295                  
  21343951.857 9 112163220.745 9      -922.037 9        55.978                  
  23606574.827 8 124053390.367 8     -3767.813 8        48.344                  
  25033845.703 7 131553753.178 7     -1922.862 7        46.921                  
  20415912.713 9 107286366.176 9       795.967 9        55.637                  
 02  5 18 00 03 56.0000000  0  7G01G21G23G10G16G07G08                           
  23641068.563 8 124234646.969 8      3381.190 8        49.151                  
  21720168.411 8 114140240.685 8      1749.198 8        52.782                  
  23104475.366 8 121414838.754 8     -2868.432 8        50.955                  
  21344129.011 9 112164143.320 9      -922.634 9        55.533                  
  23607293.144 8 124057159.919 8     -3772.004 8        48.652                  
  25034204.924 7 131555675.131 7     -1918.488 7        44.422                  
  20415760.577 9 107285570.419 9       796.221 9        56.783                  
 02  5 18 00 03 57.0000000  0  7G01G21G23G10G16G07G08                           
  23640424.617 8 124231264.156 8      3380.212 8        51.898                  
  21719838.049 8 114138490.312 8      1748.504 8        52.792                  
  23105021.211 8 121417710.856 8     -2874.543 8        48.915                  
  21344303.734 9 112165067.204 9      -924.023 9        55.123                  
  23608009.781 8 124060925.756 8     -3757.415 8        50.848                  
  25034570.614 7 131557598.048 7     -1931.396 7        44.644                  
  20415609.280 9 107284775.698 9       793.027 9        56.782                  
 02  5 18 00 03 58.0000000  0  7G01G21G23G10G16G07G08                           
  23639779.653 8 124227881.030 8      3384.911 8        49.029                  
  21719502.343 8 114136742.310 8      1745.951 8        53.392                  
  23105571.148 8 121420593.655 8     -2887.389 8        50.681                  
  21344476.849 9 112165992.280 9      -925.330 9        56.331                  
  23608721.629 8 124064671.279 8     -3737.537 8        49.223                  
  25034945.970 7 131559530.280 7     -1938.719 7        46.721                  
  20415458.930 9 107283985.568 9       787.483 9        56.571                  
 02  5 18 00 03 59.0000000  0  7G01G21G23G10G16G07G08                           
  23639136.689 8 124224497.915 8      3385.998 8        48.475                  
  21719167.246 8 114134997.127 8      1746.784 8        53.077                  
  23106120.621 8 121423487.924 8     -2899.173 8        51.037                  
  21344652.430 9 112166918.335 9      -927.887 9        57.289                  
  23609429.743 8 124068394.489 8     -3717.656 8        51.075                  
  25035312.285 7 131561473.093 7     -1945.582 7        47.557                  
  20415309.491 9 107283200.511 9       784.358 9        58.188                  
 02  5 18 00 04  0.0000000  0  7G01G21G23G10G16G07G08                           
  23638491.332 7 124221103.626 7      3404.234 7        47.342                  
  21718835.436 9 114133244.518 9      1761.093 9        54.376                  
  23106673.756 8 121426393.653 8     -2913.240 8        52.969                  
  21344830.709 9 112167851.810 9      -941.014 9        55.994                  
  23610138.446 8 124072111.221 8     -3716.974 8        51.074                  
  25035681.245 7 131563407.119 7     -1923.753 7        46.879                  
  20415159.766 9 107282414.371 9       788.991 9        57.339                  
 02  5 18 00 04  1.0000000  0  7G01G21G23G10G16G07G08                           
  23637839.470 8 124217684.717 8      3429.032 8        48.735                  
  21718502.732 8 114131473.588 8      1781.985 8        51.734                  
  23107231.627 8 121429316.857 8     -2932.144 8        51.181                  
  21345013.653 9 112168800.583 9      -955.944 9        55.541                  
  23610844.916 8 124075828.167 8     -3715.591 8        50.537                  
  25036043.789 7 131565314.709 7     -1896.954 7        47.533                  
  20415008.916 9 107281622.246 9       796.029 9        54.435                  
 02  5 18 00 04  2.0000000  0  7G01G21G23G10G16G07G08                           
  23637186.339 8 124214247.386 8      3440.769 8        50.021                  
  21718160.666 8 114129689.062 8      1784.913 8        52.698                  
  23107789.462 8 121432253.425 8     -2936.764 8        51.360                  
  21345197.382 9 112169760.963 9      -962.270 9        57.206                  
  23611551.475 8 124079545.003 8     -3714.614 8        49.710                  
  25036402.403 7 131567202.742 7     -1888.166 7        46.472                  
  20414858.137 9 107280825.816 9       796.917 9        56.355                  
 02  5 18 00 04  3.0000000  0  7G01G21G23G10G16G07G08                           
  23636531.457 8 124210808.211 8      3438.410 8        50.525                  
  21717817.902 8 114127903.457 8      1787.301 8        52.969                  
  23108347.458 8 121435192.211 8     -2938.410 8        50.229                  
  21345376.858 9 112170723.123 9      -962.934 9        55.291                  
  23612259.731 8 124083261.020 8     -3713.759 8        49.728                  
  25036764.876 7 131569089.432 7     -1886.430 7        47.087                  
  20414706.322 9 107280029.571 9       796.551 9        56.581                  
 02  5 18 00 04  4.0000000  0  7G01G21G23G10G16G07G08                           
  23635876.147 8 124207369.095 8      3437.232 8        50.472                  
  21717479.677 9 114126118.125 9      1784.631 9        55.021                  
  23108907.188 8 121438131.561 8     -2941.434 8        51.206                  
  21345559.944 9 112171686.002 9      -962.228 9        54.775                  
  23612967.362 8 124086976.988 8     -3713.669 8        48.380                  
  25037120.523 7 131570976.436 7     -1886.523 7        44.985                  
  20414554.471 9 107279233.836 9       796.335 9        57.064                  
 02  5 18 00 04  5.0000000  0  7G01G21G23G10G16G07G08                           
  23635222.980 8 124203930.118 8      3439.042 8        48.820                  
  21717143.614 9 114124333.075 9      1784.918 9        54.087                  
  23109467.935 8 121441071.324 8     -2940.145 8        49.505                  
  21345744.835 8 112172649.461 8      -964.640 8        53.165                  
  23613673.618 8 124090693.079 8     -3717.618 8        49.535                  
  25037481.906 7 131572863.752 7     -1884.829 7        45.628                  
  20414404.282 9 107278438.600 9       795.167 9        55.570                  
 02  5 18 00 04  6.0000000  0  7G01G21G23G10G16G07G08                           
  23634569.492 7 124200491.299 7      3439.245 7        47.104                  
  21716801.816 8 114122548.350 8      1784.637 8        53.987                  
  23110025.431 8 121444011.456 8     -2940.411 8        48.635                  
  21345929.922 9 112173613.544 9      -963.322 9        54.669                  
  23614380.570 8 124094409.345 8     -3718.327 8        51.031                  
  25037840.788 7 131574751.410 7     -1886.746 7        46.548                  
  20414253.021 9 107277643.856 9       793.379 9        55.602                  
 02  5 18 00 04  7.0000000  0  7G01G21G23G10G16G07G08                           
  23633913.592 7 124197052.650 7      3438.778 7        47.297                  
  21716458.480 8 114120763.926 8      1784.044 8        53.518                  
  23110585.518 8 121446951.965 8     -2938.950 8        48.447                  
  21346112.437 8 112174578.234 8      -963.832 8        51.521                  
  23615088.737 8 124098125.775 8     -3714.240 8        50.894                  
  25038197.882 7 131576639.397 7     -1886.847 7        44.989                  
  20414101.938 9 107276849.614 9       793.746 9        54.847                  
 02  5 18 00 04  8.0000000  0  7G01G21G23G10G16G07G08                           
  23633260.408 8 124193614.166 8      3437.634 8        48.149                  
  21716122.275 9 114118979.824 9      1783.983 9        54.334                  
  23111147.356 8 121449892.875 8     -2941.780 8        50.618                  
  21346293.378 8 112175543.531 8      -965.861 8        51.326                  
  23615795.904 8 124101842.388 8     -3715.244 8        49.690                  
  25038558.837 7 131578527.733 7     -1884.606 7        44.448                  
  20413951.231 9 107276055.871 9       793.887 9        54.960                  
 02  5 18 00 04  9.0000000  0  7G01G21G23G10G16G07G08                           
  23632604.918 8 124190175.861 8      3438.469 8        48.096                  
  21715785.033 8 114117196.002 8      1784.632 8        53.705                  
  23111705.709 8 121452834.135 8     -2940.796 8        49.649                  
  21346478.162 9 112176509.411 9      -966.109 9        54.867                  
  23616501.462 8 124105559.167 8     -3717.695 8        49.587                  
  25038917.629 7 131580416.374 7     -1887.592 7        44.721                  
  20413800.756 9 107275262.640 9       792.676 9        57.595                  
 02  5 18 00 04 10.0000000  0  7G01G21G23G10G16G07G08                           
  23631951.055 7 124186737.694 7      3437.287 7        47.855                  
  21715442.394 8 114115412.527 8      1783.473 8        53.133                  
  23112266.349 8 121455775.780 8     -2942.555 8        51.127                  
  21346665.179 9 112177475.902 9      -966.431 9        55.056                  
  23617210.076 8 124109276.147 8     -3716.153 8        50.456                  
  25039278.762 7 131582305.365 7     -1887.773 7        47.079                  
  20413650.209 9 107274469.908 9       792.039 9        58.039                  
 02  5 18 00 04 11.0000000  0  7G01G21G23G10G16G07G08                           
  23631296.852 8 124183299.708 8      3437.516 8        49.339                  
  21715101.239 8 114113629.367 8      1781.934 8        53.123                  
  23112824.185 8 121458717.780 8     -2943.370 8        48.608                  
  21346848.944 9 112178442.988 9      -967.013 9        55.167                  
  23617917.493 8 124112993.295 8     -3715.897 8        51.020                  
  25039636.625 7 131584194.703 7     -1889.786 7        47.918                  
  20413499.788 9 107273677.694 9       792.559 9        57.469                  
 02  5 18 00 04 12.0000000  0  7G01G21G23G10G16G07G08                           
  23630641.935 7 124179861.896 7      3438.205 7        47.762                  
  21714766.320 8 114111846.509 8      1782.064 8        53.431                  
  23113386.380 8 121461660.161 8     -2942.574 8        48.174                  
  21347029.493 9 112179410.669 9      -968.554 9        55.899                  
  23618624.070 8 124116710.623 8     -3718.821 8        49.223                  
  25039993.719 8 131586084.347 8     -1888.947 8        48.011                  
  20413348.401 9 107272885.974 9       791.771 9        58.398                  
 02  5 18 00 04 13.0000000  0  7G01G21G23G10G16G07G08                           
  23629989.751 8 124176424.244 8      3437.174 8        50.172                  
  21714427.326 9 114110063.955 9      1782.635 9        54.686                  
  23113945.770 8 121464602.904 8     -2939.966 8        48.843                  
  21347213.901 9 112180378.970 9      -968.043 9        54.576                  
  23619331.826 8 124120428.131 8     -3718.165 8        49.428                  
  25040357.765 7 131587974.352 7     -1892.039 7        46.506                  
  20413198.909 9 107272094.750 9       791.259 9        58.375                  
 02  5 18 00 04 14.0000000  0  7G01G21G23G10G16G07G08                           
  23629333.618 7 124172986.768 7      3439.763 7        47.923                  
  21714083.223 8 114108281.733 8      1782.448 8        52.918                  
  23114504.177 8 121467546.019 8     -2943.089 8        49.360                  
  21347400.597 9 112181347.865 9      -968.713 9        54.228                  
  23620040.297 8 124124145.813 8     -3718.300 8        49.945                  
  25040715.324 7 131589864.678 7     -1891.263 7        46.510                  
  20413048.309 9 107271304.020 9       790.257 9        56.593                  
 02  5 18 00 04 15.0000000  0  7G01G21G23G10G16G07G08                           
  23628680.738 8 124169549.443 8      3436.311 8        48.227                  
  21713746.106 9 114106499.791 9      1782.005 9        55.130                  
  23115063.888 8 121470489.512 8     -2943.859 8        51.507                  
  21347586.667 9 112182317.358 9      -971.015 9        55.386                  
  23620747.606 8 124127863.665 8     -3718.560 8        49.696                  
  25041075.867 7 131591755.353 7     -1891.605 7        46.914                  
  20412896.905 9 107270513.797 9       789.623 9        56.980                  
 02  5 18 00 04 16.0000000  0  7G01G21G23G10G16G07G08                           
  23628026.017 8 124166112.295 8      3438.048 8        48.829                  
  21713409.525 8 114104718.163 8      1782.071 8        53.175                  
  23115624.904 8 121473433.366 8     -2942.422 8        50.421                  
  21347769.199 8 112183287.460 8      -971.101 8        53.319                  
  23621454.058 8 124131581.720 8     -3717.955 8        49.346                  
  25041436.714 7 131593646.355 7     -1888.669 7        46.894                  
  20412748.092 9 107269724.057 9       789.100 9        56.874                  
 02  5 18 00 04 17.0000000  0  7G01G21G23G10G16G07G08                           
  23627372.136 8 124162675.311 8      3437.423 8        49.036                  
  21713070.138 9 114102936.854 9      1781.607 9        55.637                  
  23116186.080 8 121476377.589 8     -2946.921 8        51.628                  
  21347951.338 8 112184258.157 8      -970.316 8        53.829                  
  23622161.636 8 124135299.920 8     -3719.880 8        50.166                  
  25041794.291 7 131595537.684 7     -1892.105 7        45.633                  
  20412598.403 9 107268934.843 9       788.469 9        55.475                  
 02  5 18 00 04 18.0000000  0  7G01G21G23G10G16G07G08                           
  23626718.130 8 124159238.485 8      3437.299 8        49.160                  
  21712727.482 9 114101155.856 9      1781.651 9        54.434                  
  23116744.738 8 121479322.183 8     -2943.467 8        49.731                  
  21348137.801 9 112185229.454 9      -970.915 9        55.971                  
  23622870.339 8 124139018.318 8     -3718.361 8        50.853                  
  25042156.943 7 131597429.336 7     -1889.844 7        43.827                  
  20412447.999 9 107268146.118 9       788.181 9        57.191                  
 02  5 18 00 04 19.0000000  0  7G01G21G23G10G16G07G08                           
  23626064.105 7 124155801.833 7      3437.258 7        46.710                  
  21712390.544 9 114099375.161 9      1780.822 9        54.561                  
  23117305.914 8 121482267.172 8     -2945.374 8        50.504                  
  21348325.873 9 112186201.355 9      -973.865 9        54.412                  
  23623577.005 8 124142736.886 8     -3717.910 8        50.795                  
  25042515.378 7 131599321.333 7     -1890.218 7        43.620                  
  20412297.685 9 107267357.898 9       787.287 9        55.930                  
 02  5 18 00 04 20.0000000  0  7G01G21G23G10G16G07G08                           
  23625409.563 7 124152365.367 7      3438.594 7        47.742                  
  21712055.392 9 114097594.810 9      1780.344 9        54.228                  
  23117867.859 8 121485212.511 8     -2945.834 8        48.742                  
  21348509.745 8 112187173.864 8      -972.300 8        53.786                  
  23624284.065 8 124146455.634 8     -3721.400 8        48.998                  
  25042876.886 7 131601213.676 7     -1895.226 7        43.668                  
  20412147.389 9 107266570.172 9       788.236 9        55.754                  
 02  5 18 00 04 21.0000000  0  7G01G21G23G10G16G07G08                           
  23624754.949 8 124148929.030 8      3434.760 8        49.530                  
  21711715.095 8 114095814.748 8      1780.904 8        53.367                  
  23118426.749 8 121488158.234 8     -2945.326 8        49.772                  
  21348691.955 9 112188146.969 9      -972.208 9        54.020                  
  23624993.822 8 124150174.532 8     -3720.334 8        49.874                  
  25043236.911 7 131603106.328 7     -1888.962 7        44.117                  
  20411996.824 9 107265782.948 9       786.214 9        56.963                  
 02  5 18 00 04 22.0000000  0  7G01G21G23G10G16G07G08                           
  23624103.480 8 124145492.805 8      3436.532 8        49.960                  
  21711371.473 9 114094034.956 9      1778.495 9        54.635                  
  23118987.229 8 121491104.418 8     -2943.612 8        51.643                  
  21348877.954 9 112189120.719 9      -974.873 9        55.013                  
  23625701.293 8 124153893.503 8     -3716.018 8        49.459                  
  25043593.988 7 131604999.314 7     -1895.694 7        45.001                  
  20411848.529 9 107264996.230 9       786.328 9        57.810                  
 02  5 18 00 04 23.0000000  0  7G01G21G23G10G16G07G08                           
  23623447.223 8 124142056.506 8      3438.798 8        48.003                  
  21711035.464 9 114092255.368 9      1780.063 9        54.880                  
  23119547.262 8 121494051.384 8     -2947.517 8        49.138                  
  21349066.383 9 112190095.227 9      -973.760 9        55.751                  
  23626407.745 8 124157612.145 8     -3719.986 8        49.590                  
  25043956.782 7 131606892.605 7     -1893.871 7        43.582                  
  20411699.037 9 107264210.054 9       785.734 9        55.538                  
 02  5 18 00 04 24.0000000  0  7G01G21G23G10G16G07G08                           
  23622794.360 8 124138620.059 8      3432.792 8        48.754                  
  21710700.634 9 114090475.892 9      1779.305 9        55.481                  
  23120110.064 8 121496999.294 8     -2947.097 8        51.358                  
  21349251.256 9 112191070.542 9      -976.099 9        55.048                  
  23627115.090 8 124161330.306 8     -3718.485 8        49.072                  
  25044315.575 7 131608786.178 7     -1894.926 7        42.847                  
  20411549.330 9 107263424.432 9       785.205 9        55.654                  
 02  5 18 00 04 25.0000000  0  7G01G21G23G10G16G07G08                           
  23622140.515 8 124135183.695 8      3434.544 8        51.467                  
  21710360.587 8 114088696.731 8      1780.146 8        53.128                  
  23120671.295 8 121499947.696 8     -2951.722 8        48.661                  
  21349434.913 8 112192046.508 8      -975.406 8        53.866                  
  23627824.025 8 124165048.464 8     -3715.143 8        49.228                  
  25044677.387 7 131610680.082 7     -1894.001 7        43.996                  
  20411398.516 9 107262639.316 9       785.906 9        56.794                  
 02  5 18 00 04 26.0000000  0  7G01G21G23G10G16G07G08                           
  23621486.294 8 124131747.468 8      3436.939 8        50.312                  
  21710019.842 8 114086917.881 8      1778.481 8        53.825                  
  23121231.274 7 121502896.503 7     -2950.405 7        47.897                  
  21349619.357 9 112193023.081 9      -977.612 9        55.147                  
  23628530.906 8 124168766.783 8     -3718.953 8        49.453                  
  25045038.037 7 131612574.276 7     -1894.161 7        46.118                  
  20411250.221 9 107261854.717 9       784.365 9        56.960                  
 02  5 18 00 04 27.0000000  0  7G01G21G23G10G16G07G08                           
  23620833.449 8 124128311.404 8      3438.711 8        48.296                  
  21709680.956 8 114085139.298 8      1779.617 8        52.152                  
  23121793.416 8 121505845.681 8     -2947.387 8        50.145                  
  21349809.019 9 112194000.243 9      -978.075 9        54.481                  
  23629237.572 8 124172485.267 8     -3717.191 8        49.245                  
  25045396.615 7 131614468.843 7     -1893.597 7        47.745                  
  20411100.746 9 107261070.602 9       783.684 9        56.503                  
 02  5 18 00 04 28.0000000  0  7G01G21G23G10G16G07G08                           
  23620179.175 8 124124875.512 8      3435.397 8        50.255                  
  21709346.359 9 114083361.073 9      1777.966 9        55.106                  
  23122355.950 8 121508795.246 8     -2950.266 8        48.641                  
  21349995.304 8 112194977.993 8      -977.507 8        53.419                  
  23629946.276 8 124176203.920 8     -3721.294 8        51.302                  
  25045760.196 7 131616363.736 7     -1896.198 7        47.355                  
  20410951.826 9 107260287.004 9       783.977 9        58.126                  
 02  5 18 00 04 29.0000000  0  7G01G21G23G10G16G07G08                           
  23619524.061 8 124121439.808 8      3434.267 8        50.235                  
  21709005.025 9 114081583.127 9      1778.162 9        55.216                  
  23122915.733 8 121511745.176 8     -2948.812 8        50.457                  
  21350179.283 8 112195956.347 8      -978.503 8        53.408                  
  23630654.121 8 124179922.734 8     -3718.931 8        48.437                  
  25046117.898 7 131618258.936 7     -1893.750 7        46.577                  
  20410802.566 9 107259503.907 9       782.969 9        56.322                  
 02  5 18 00 04 30.0000000  0  7G01G21G23G10G16G07G08                           
  23618872.235 8 124118004.245 8      3434.530 8        49.425                  
  21708663.762 9 114079805.507 9      1776.929 9        54.367                  
  23123476.142 8 121514695.458 8     -2950.676 8        50.587                  
  21350364.246 8 112196935.317 8      -979.774 8        53.130                  
  23631361.270 8 124183641.730 8     -3716.999 8        48.964                  
  25046481.336 7 131620154.490 7     -1894.202 7        45.985                  
  20410653.592 9 107258721.288 9       782.343 9        57.739                  
 02  5 18 00 04 31.0000000  0  7G01G21G23G10G16G07G08                           
  23618215.387 8 124114568.844 8      3435.009 8        49.784                  
  21708329.522 9 114078028.192 9      1776.670 9        54.849                  
  23124039.605 8 121517646.117 8     -2948.921 8        50.199                  
  21350552.317 8 112197914.918 8      -977.784 8        53.366                  
  23632068.597 8 124187360.905 8     -3718.452 8        50.828                  
  25046839.574 7 131622050.371 7     -1896.660 7        46.097                  
  20410503.439 9 107257939.191 9       782.433 9        58.082                  
 02  5 18 00 04 32.0000000  0  7G01G21G23G10G16G07G08                           
  23617563.722 8 124111133.628 8      3434.361 8        49.666                  
  21707992.781 9 114076251.185 9      1776.369 9        54.845                  
  23124601.550 8 121520597.142 8     -2951.889 8        51.254                  
  21350741.193 8 112198895.105 8      -981.071 8        52.532                  
  23632777.712 8 124191080.245 8     -3719.612 8        50.740                  
  25047200.207 7 131623946.576 7     -1896.159 7        46.042                  
  20410354.125 9 107257157.598 9       780.749 9        58.763                  
 02  5 18 00 04 33.0000000  0  7G01G21G23G10G16G07G08                           
  23616911.002 8 124107698.560 8      3437.798 8        49.254                  
  21707653.073 9 114074474.502 9      1774.964 9        54.753                  
  23125161.655 8 121523548.537 8     -2950.268 8        51.028                  
  21350924.493 8 112199875.889 8      -981.867 8        50.822                  
  23633485.200 8 124194799.779 8     -3718.874 8        51.103                  
  25047564.252 7 131625843.099 7     -1895.002 7        46.624                  
  20410205.991 9 107256376.502 9       780.679 9        59.322                  
 02  5 18 00 04 34.0000000  0  7G01G21G23G10G16G07G08                           
  23616256.371 8 124104263.677 8      3434.796 8        49.220                  
  21707309.916 9 114072698.152 9      1777.130 9        55.429                  
  23125722.671 8 121526500.292 8     -2951.888 8        50.192                  
  21351110.921 8 112200857.254 8      -981.021 8        49.975                  
  23634191.580 8 124198519.477 8     -3716.040 8        50.762                  
  25047921.472 7 131627739.992 7     -1897.509 7        47.128                  
  20410058.357 9 107255595.907 9       780.543 9        58.170                  
 02  5 18 00 04 35.0000000  0  7G01G21G23G10G16G07G08                           
  23615603.097 8 124100828.958 8      3436.285 8        48.699                  
  21706975.426 9 114070922.066 9      1776.088 9        56.453                  
  23126285.545 8 121529452.436 8     -2950.217 8        49.458                  
  21351300.743 8 112201839.231 8      -983.326 8        50.978                  
  23634900.534 8 124202239.345 8     -3720.885 8        49.530                  
  25048285.071 7 131629637.203 7     -1897.572 7        46.101                  
  20409909.294 9 107254815.819 9       780.977 9        59.587                  
 02  5 18 00 04 36.0000000  0  7G01G21G23G10G16G07G08                           
  23614950.681 8 124097394.424 8      3433.192 8        48.708                  
  21706644.009 9 114069146.335 9      1775.429 9        55.128                  
  23126847.955 8 121532404.955 8     -2953.049 8        50.543                  
  21351488.922 8 112202821.797 8      -982.597 8        53.923                  
  23635608.433 8 124205959.390 8     -3720.622 8        50.146                  
  25048644.488 7 131631534.740 7     -1895.082 7        45.405                  
  20409759.319 9 107254036.197 9       778.967 9        58.953                  
 02  5 18 00 04 37.0000000  0  7G01G21G23G10G16G07G08                           
  23614294.906 8 124093960.037 8      3432.826 8        49.349                  
  21706300.012 9 114067370.866 9      1776.035 9        55.298                  
  23127409.096 8 121535357.841 8     -2954.166 8        49.972                  
  21351672.276 8 112203804.969 8      -983.561 8        53.960                  
  23636316.028 8 124209679.624 8     -3718.351 8        49.610                  
  25049005.282 7 131633432.591 7     -1901.709 7        45.788                  
  20409612.203 9 107253257.093 9       779.345 9        57.834                  
 02  5 18 00 04 38.0000000  0  7G01G21G23G10G16G07G08                           
  23613642.919 7 124090525.830 7      3431.086 7        47.923                  
  21705959.572 9 114065595.759 9      1773.727 9        54.101                  
  23127971.398 8 121538311.095 8     -2952.786 8        49.502                  
  21351858.703 9 112204788.753 9      -984.513 9        54.510                  
  23637023.535 8 124213400.018 8     -3720.874 8        49.640                  
  25049367.523 7 131635330.788 7     -1897.072 7        46.079                  
  20409463.980 9 107252478.501 9       778.625 9        56.263                  
 02  5 18 00 04 39.0000000  0  7G01G21G23G10G16G07G08                           
  23612988.662 8 124087091.785 8      3432.438 8        49.238                  
  21705625.939 9 114063820.923 9      1774.606 9        54.432                  
  23128533.986 8 121541264.735 8     -2956.548 8        48.651                  
  21352049.044 9 112205773.122 9      -985.267 9        55.638                  
  23637733.274 8 124217120.597 8     -3719.503 8        51.261                  
  25049726.833 7 131637229.358 7     -1902.510 7        46.869                  
  20409315.560 9 107251700.398 9       777.960 9        57.687                  
 02  5 18 00 04 40.0000000  0  7G01G21G23G10G16G07G08                           
  23612335.156 8 124083657.887 8      3435.499 8        48.675                  
  21705288.715 8 114062046.398 8      1775.086 8        52.118                  
  23129097.325 8 121544218.724 8     -2956.772 8        49.916                  
  21352238.492 8 112206758.101 8      -985.755 8        53.210                  
  23638440.137 8 124220841.337 8     -3723.811 8        49.740                  
  25050090.950 7 131639128.197 7     -1896.190 7        44.411                  
  20409168.051 9 107250922.795 9       778.815 9        56.390                  
 02  5 18 00 04 41.0000000  0  7G01G21G23G10G16G07G08                           
  23611682.151 8 124080224.143 8      3433.086 8        49.013                  
  21704950.579 9 114060272.195 9      1773.026 9        54.955                  
  23129656.894 8 121547173.104 8     -2955.858 8        49.273                  
  21352422.060 8 112207743.700 8      -985.298 8        53.509                  
  23639148.144 8 124224562.228 8     -3720.350 8        50.354                  
  25050452.297 7 131641027.407 7     -1896.629 7        44.736                  
  20409018.737 9 107250145.711 9       777.299 9        57.101                  
 02  5 18 00 04 42.0000000  0  7G01G21G23G10G16G07G08                           
  23611028.841 7 124076790.516 7      3434.742 7        47.882                  
  21704611.997 8 114058498.276 8      1775.079 8        53.873                  
  23130218.928 8 121550127.994 8     -2953.734 8        49.176                  
  21352609.578 8 112208729.952 8      -985.105 8        53.777                  
  23639855.900 8 124228283.131 8     -3722.383 8        51.656                  
  25050813.573 7 131642926.916 7     -1899.033 7        44.293                  
  20408870.835 9 107249369.140 9       776.152 9        56.277                  
 02  5 18 00 04 43.0000000  0  7G01G21G23G10G16G07G08                           
  23610374.549 8 124073356.668 8      3434.863 8        48.265                  
  21704275.452 9 114056724.453 9      1774.248 9        54.710                  
  23130782.749 8 121553083.893 8     -2957.555 8        51.590                  
  21352799.132 8 112209717.030 8      -988.625 8        53.535                  
  23640564.996 8 124232003.388 8     -3718.743 8        49.223                  
  25051176.868 7 131644826.706 7     -1897.419 7        44.680                  
  20408725.649 9 107248593.149 9       775.295 9        59.941                  
 02  5 18 00 04 44.0000000  0  7G01G21G23G10G16G07G08                           
  23609721.990 8 124069921.807 8      3434.264 8        49.501                  
  21703940.318 9 114054950.404 9      1773.795 9        54.339                  
  23131346.785 8 121556042.271 8     -2958.381 8        51.049                  
  21352988.276 9 112210705.457 9      -989.912 9        55.318                  
  23641271.430 8 124235721.217 8     -3716.225 8        49.100                  
  25051534.999 7 131646726.761 7     -1897.741 7        43.169                  
  20408578.069 9 107247817.858 9       775.661 9        59.280                  
 02  5 18 00 04 45.0000000  0  7G01G21G23G10G16G07G08                           
  23609065.983 8 124066486.565 8      3436.390 8        48.403                  
  21703598.627 8 114053176.391 8      1774.174 8        53.967                  
  23131908.408 8 121559002.061 8     -2958.834 8        49.500                  
  21353173.488 9 112211694.871 9      -990.403 9        55.338                  
  23641978.436 7 124239437.925 7     -3715.584 7        47.684                  
  25051899.099 7 131648627.128 7     -1901.179 7        43.867                  
  20408430.900 9 107247043.177 9       775.273 9        56.507                  
 02  5 18 00 04 46.0000000  0  7G01G21G23G10G16G07G08                           
  23608415.086 7 124063051.408 7      3432.698 7        48.000                  
  21703261.206 8 114051402.639 8      1775.478 8        52.544                  
  23132470.443 8 121561962.378 8     -2962.394 8        49.956                  
  21353360.774 9 112212684.915 9      -989.988 9        54.265                  
  23642686.782 8 124243154.553 8     -3717.996 8        48.401                  
  25052258.534 7 131650527.810 7     -1902.779 7        43.268                  
  20408284.410 9 107246269.009 9       773.380 9        55.308                  
 02  5 18 00 04 47.0000000  0  7G01G21G23G10G16G07G08                           
  23607761.705 8 124059616.386 8      3435.627 8        48.727                  
  21702929.682 8 114049629.196 8      1771.553 8        53.087                  
  23133035.104 8 121564923.106 8     -2961.994 8        50.364                  
  21353553.080 8 112213675.579 8      -991.449 8        53.293                  
  23643394.002 8 124246871.315 8     -3718.790 8        48.952                  
  25052622.204 7 131652428.842 7     -1901.423 7        43.311                  
  20408136.133 9 107245495.366 9       774.055 9        54.728                  
 02  5 18 00 04 48.0000000  0  7G01G21G23G10G16G07G08                           
  23607106.573 8 124056181.538 8      3436.077 8        50.764                  
  21702589.438 8 114047856.080 8      1772.482 8        53.795                  
  23133600.551 8 121567884.213 8     -2959.273 8        49.021                  
  21353742.241 9 112214666.863 9      -992.210 9        55.563                  
  23644100.508 8 124250588.249 8     -3717.507 8        49.793                  
  25052983.909 7 131654330.187 7     -1899.776 7        43.716                  
  20407991.465 9 107244722.220 9       773.092 9        56.737                  
 02  5 18 00 04 49.0000000  0  7G01G21G23G10G16G07G08                           
  23606453.585 8 124052746.846 8      3435.127 8        50.798                  
  21702248.354 9 114046083.287 9      1772.886 9        54.566                  
  23134164.748 8 121570845.694 8     -2960.474 8        50.864                  
  21353926.560 9 112215658.732 9      -991.912 9        55.701                  
  23644807.513 8 124254305.351 8     -3717.375 8        49.899                  
  25053343.559 7 131656231.877 7     -1902.390 7        45.549                  
  20407844.367 9 107243949.575 9       771.891 9        58.122                  
 02  5 18 00 04 50.0000000  0  7G01G21G23G10G16G07G08                           
  23605800.830 8 124049312.340 8      3433.639 8        49.590                  
  21701904.733 8 114044310.790 8      1772.734 8        52.306                  
  23134725.549 8 121573807.533 8     -2960.253 8        50.194                  
  21354115.293 9 112216651.197 9      -992.444 9        56.415                  
  23645516.413 7 124258022.630 7     -3721.020 7        46.871                  
  25053709.106 7 131658133.883 7     -1903.357 7        44.901                  
  20407701.308 9 107243177.433 9       770.999 9        56.435                  
 02  5 18 00 04 51.0000000  0  7G01G21G23G10G16G07G08                           
  23605145.805 8 124045878.005 8      3432.697 8        50.147                  
  21701571.386 8 114042538.599 8      1772.338 8        53.377                  
  23135289.067 8 121576769.724 8     -2961.740 8        49.318                  
  21354307.975 9 112217644.235 9      -992.723 9        54.246                  
  23646222.990 8 124261740.137 8     -3717.286 8        50.222                  
  25054067.630 7 131660036.226 7     -1900.758 7        46.900                  
  20407554.621 9 107242405.798 9       770.464 9        57.702                  
 02  5 18 00 04 52.0000000  0  7G01G21G23G10G16G07G08                           
  23604493.443 8 124042443.931 8      3435.244 8        49.943                  
  21701239.165 8 114040766.784 8      1772.068 8        51.513                  
  23135854.550 8 121579732.103 8     -2963.607 8        51.126                  
  21354497.029 9 112218637.854 9      -994.088 9        54.192                  
  23646929.764 8 124265458.026 8     -3718.080 8        49.080                  
  25054432.676 7 131661938.892 7     -1900.383 7        45.391                  
  20407406.129 9 107241634.630 9       770.863 9        57.236                  
 02  5 18 00 04 53.0000000  0  7G01G21G23G10G16G07G08                           
  23603840.527 8 124039010.494 8      3433.727 8        48.005                  
  21700898.171 8 114038995.505 8      1772.520 8        53.438                  
  23136417.227 8 121582694.011 8     -2960.909 8        49.913                  
  21354684.296 9 112219631.763 9      -994.505 9        55.116                  
  23647638.056 8 124269177.178 8     -3721.445 8        49.453                  
  25054791.808 8 131663841.901 8     -1905.026 8        48.085                  
  20407260.640 9 107240863.879 9       769.968 9        58.440                  
 02  5 18 00 04 54.0000000  0  7G01G21G23G10G16G07G08                           
  23603185.216 7 124035579.296 7      3434.303 7        47.744                  
  21700557.194 8 114037225.572 8      1768.485 8        53.368                  
  23136978.297 8 121585652.617 8     -2957.805 8        49.058                  
  21354873.958 8 112220624.909 8      -992.877 8        53.123                  
  23648347.653 8 124272901.013 8     -3726.952 8        49.848                  
  25055155.531 7 131665745.450 7     -1906.546 7        47.239                  
  20407116.347 9 107240093.252 9       769.462 9        57.319                  
 02  5 18 00 04 55.0000000  0  7G01G21G23G10G16G07G08                           
  23602538.911 8 124032149.947 8      3427.666 8        48.300                  
  21700232.550 8 114035456.776 8      1768.701 8        53.522                  
  23137543.101 8 121588608.786 8     -2956.682 8        49.661                  
  21355064.174 8 112221617.601 8      -992.437 8        53.836                  
  23649055.480 8 124276628.315 8     -3725.146 8        48.642                  
  25055520.006 7 131667649.621 7     -1903.763 7        46.339                  
  20406966.998 9 107239322.885 9       770.561 9        55.121                  
 02  5 18 00 04 56.0000000  0  7G01G21G23G10G16G07G08                           
  23601881.260 8 124028721.110 8      3426.536 8        50.175                  
  21699896.469 8 114033688.492 8      1768.265 8        53.719                  
  23138105.904 8 121591564.748 8     -2957.143 8        49.595                  
  21355254.014 9 112222610.664 9      -993.318 9        55.536                  
  23649764.755 8 124280356.442 8     -3727.492 8        49.401                  
  25055879.209 7 131669554.216 7     -1903.575 7        45.516                  
  20406821.008 9 107238553.000 9       769.182 9        57.982                  
 02  5 18 00 04 57.0000000  0  7G01G21G23G10G16G07G08                           
  23601228.772 8 124025292.491 8      3429.936 8        48.882                  
  21699551.829 8 114031920.555 8      1769.209 8        53.145                  
  23138668.331 8 121594520.982 8     -2955.100 8        50.086                  
  21355438.441 8 112223604.279 8      -994.418 8        52.797                  
  23650475.514 7 124284084.901 7     -3725.537 7        47.532                  
  25056244.720 7 131671459.172 7     -1906.081 7        46.137                  
  20406676.555 9 107237783.594 9       769.534 9        57.529                  
 02  5 18 00 04 58.0000000  0  7G01G21G23G10G16G07G08                           
  23600577.929 7 124021864.082 7      3430.744 7        46.968                  
  21699221.449 8 114030152.917 8      1766.713 8        53.537                  
  23139229.508 8 121597477.587 8     -2957.551 8        50.777                  
  21355628.245 9 112224598.487 9      -994.512 9        54.873                  
  23651185.164 8 124287813.556 8     -3728.327 8        50.808                  
  25056604.334 7 131673364.444 7     -1904.411 7        46.166                  
  20406529.046 9 107237014.696 9       770.112 9        56.433                  
 02  5 18 00 04 59.0000000  0  7G01G21G23G10G16G07G08                           
  23599923.315 7 124018435.830 7      3426.259 7        47.948                  
  21698878.614 8 114028385.617 8      1768.383 8        53.133                  
  23139792.311 8 121600434.525 8     -2958.051 8        48.496                  
  21355820.409 8 112225593.288 8      -995.499 8        53.895                  
  23651893.778 8 124291542.376 8     -3727.633 8        50.480                  
  25056968.916 7 131675270.065 7     -1904.888 7        45.150                  
  20406387.506 9 107236246.319 9       768.153 9        56.188                  
