     2.11           OBSERVATION DATA    G                   RINEX VERSION / TYPE
BLANK OR G = GPS,  R = GLONASS,  E = GALILEO,  M = MIXED    COMMENT             
GNSS-SDR            joel                 5-MAY-25 09:36     PGM / RUN BY / DATE 
GPS OBSERVATION DATA FILE GENERATED BY GNSS-SDR             COMMENT             
GNSS-SDR VERSION 0.0.16                                     COMMENT             
See https://gnss-sdr.org                                    COMMENT             
DEFAULT MARKER NAME                                         MARKER NAME         
joel                CTTC                                    OBSERVER / AGENCY   
GNSS-SDR            Software Receiver   0.0.16              REC # / TYPE / VERS 
Antenna number      Antenna type                            ANT # / TYPE        
        0.0000        0.0000        0.0000                  APPROX POSITION XYZ 
        0.0000        0.0000        0.0000                  ANTENNA: DELTA H/E/N
     1     1                                                WAVELENGTH FACT L1/2
     4    C1    L1    D1    S1                              # / TYPES OF OBSERV 
  2002    05    18    00    00   42.3000000     GPS         TIME OF FIRST OBS   
    18                                                      LEAP SECONDS        
                                                            END OF HEADER       
 02  5 18 00 00 43.0000000  0  7G01G23G10G21G16G07G08                           
  23763590.628 7 124878512.381 7      3399.626 7        46.681                  
  23001127.066 8 120871739.352 8     -2818.426 8        49.972                  
  21313658.592 9 112004043.667 9      -798.312 9        54.378                  
  21783585.574 8 114473533.344 8      1786.669 8        53.257                  
  23471245.372 8 123342232.695 8     -3662.977 8        49.399                  
  24961618.719 7 131174205.514 7     -1906.801 7        45.655                  
  20445704.806 9 107442936.360 9       868.244 9        55.794                  
 02  5 18 00 00 44.0000000  0  7G01G23G10G21G16G07G08                           
  23762945.700 7 124875115.259 7      3394.689 7        46.772                  
  23001664.727 8 120874558.620 8     -2818.299 8        50.207                  
  21313811.140 8 112004842.024 8      -799.561 8        53.928                  
  21783249.404 9 114471746.133 9      1786.417 9        54.224                  
  23471944.122 8 123345896.470 8     -3663.491 8        50.510                  
  24961982.050 7 131176110.041 7     -1909.715 7        46.117                  
  20445541.823 9 107442068.516 9       867.788 9        56.820                  
 02  5 18 00 00 45.0000000  0  7G01G23G10G21G16G07G08                           
  23762299.055 7 124871718.310 7      3394.053 7        47.501                  
  23002198.922 8 120877378.250 8     -2818.290 8        51.045                  
  21313963.009 9 112005641.022 9      -798.017 9        54.595                  
  21782906.765 8 114469959.232 8      1786.957 8        53.223                  
  23472641.049 8 123349560.442 8     -3662.045 8        50.258                  
  24962342.718 7 131178014.924 7     -1904.933 7        46.799                  
  20445380.215 9 107441201.149 9       867.233 9        57.361                  
 02  5 18 00 00 46.0000000  0  7G01G23G10G21G16G07G08                           
  23761651.321 8 124868321.515 8      3395.380 8        48.425                  
  23002736.422 8 120880198.292 8     -2822.660 8        50.586                  
  21314115.199 9 112006440.619 9      -799.386 9        54.138                  
  21782563.626 8 114468172.641 8      1786.882 8        53.637                  
  23473337.638 8 123353224.599 8     -3665.624 8        49.291                  
  24962709.087 7 131179920.164 7     -1905.571 7        44.995                  
  20445215.677 9 107440334.259 9       866.655 9        56.302                  
 02  5 18 00 00 47.0000000  0  7G01G23G10G21G16G07G08                           
  23761005.803 7 124864924.872 7      3392.815 7        47.634                  
  23003272.475 8 120883018.723 8     -2822.772 8        49.781                  
  21314268.426 8 112007240.812 8      -801.058 8        53.806                  
  21782227.313 8 114466386.352 8      1785.584 8        52.252                  
  23474035.834 8 123356888.951 8     -3665.628 8        50.501                  
  24963068.451 7 131181825.745 7     -1907.398 7        45.936                  
  20445048.406 9 107439467.823 9       866.008 9        55.626                  
 02  5 18 00 00 48.0000000  0  7G01G23G10G21G16G07G08                           
  23760360.159 7 124861528.391 7      3396.602 7        47.374                  
  23003811.780 8 120885839.546 8     -2822.580 8        50.778                  
  21314420.170 9 112008041.612 9      -801.073 9        56.901                  
  21781887.802 8 114464600.358 8      1785.185 8        52.281                  
  23474732.958 8 123360553.505 8     -3664.553 8        50.451                  
  24963433.193 7 131183731.684 7     -1905.964 7        46.256                  
  20444880.991 9 107438601.862 9       864.965 9        57.936                  
 02  5 18 00 00 49.0000000  0  7G01G23G10G21G16G07G08                           
  23759712.193 8 124858132.069 8      3396.815 8        49.099                  
  23004345.778 8 120888660.780 8     -2820.977 8        49.415                  
  21314573.504 9 112008843.055 9      -802.225 9        57.287                  
  21781545.646 8 114462814.662 8      1785.491 8        53.601                  
  23475429.636 8 123364218.251 8     -3667.125 8        50.708                  
  24963795.184 7 131185637.983 7     -1907.246 7        46.827                  
  20444713.254 9 107437736.377 9       865.596 9        57.252                  
 02  5 18 00 00 50.0000000  0  7G01G23G10G21G16G07G08                           
  23759066.388 7 124854735.906 7      3396.883 7        47.095                  
  23004883.743 8 120891482.407 8     -2822.126 8        49.603                  
  21314726.052 9 112009645.095 9      -801.940 9        56.273                  
  21781205.009 8 114461029.265 8      1787.108 8        53.316                  
  23476128.422 8 123367883.173 8     -3665.705 8        48.822                  
  24964157.067 7 131187544.626 7     -1905.224 7        47.786                  
  20444545.267 9 107436871.361 9       864.890 9        58.652                  
 02  5 18 00 00 51.0000000  0  7G01G23G10G21G16G07G08                           
  23758421.656 7 124851339.909 7      3394.023 7        47.529                  
  23005422.136 8 120894304.419 8     -2821.831 8        49.866                  
  21314878.939 9 112010447.732 9      -802.757 9        54.766                  
  21780869.393 8 114459244.167 8      1783.634 8        53.149                  
  23476824.795 8 123371548.307 8     -3665.725 8        50.490                  
  24964522.971 7 131189451.629 7     -1906.393 7        47.333                  
  20444381.391 9 107436006.807 9       863.693 9        54.650                  
 02  5 18 00 00 52.0000000  0  7G01G23G10G21G16G07G08                           
  23757774.369 8 124847944.063 8      3397.323 8        48.303                  
  23005957.135 8 120897126.815 8     -2822.190 8        51.387                  
  21315031.934 9 112011250.989 9      -804.175 9        54.030                  
  21780530.274 8 114457459.363 8      1785.005 8        51.511                  
  23477522.134 8 123375213.640 8     -3666.215 8        49.679                  
  24964882.460 7 131191358.991 7     -1911.174 7        46.024                  
  20444219.229 9 107435142.730 9       864.509 9        56.362                  
 02  5 18 00 00 53.0000000  0  7G01G23G10G21G16G07G08                           
  23757127.188 7 124844548.390 7      3392.918 7        47.989                  
  23006496.869 8 120899949.603 8     -2823.662 8        49.662                  
  21315184.839 9 112012054.876 9      -805.068 9        55.015                  
  21780186.242 8 114455674.858 8      1784.902 8        51.864                  
  23478221.081 8 123378879.143 8     -3662.385 8        49.514                  
  24965249.383 7 131193266.699 7     -1908.694 7        46.801                  
  20444056.979 9 107434279.131 9       863.400 9        57.114                  
 02  5 18 00 00 54.0000000  0  7G01G23G10G21G16G07G08                           
  23756482.617 7 124841152.875 7      3394.575 7        46.994                  
  23007032.099 8 120902772.776 8     -2824.048 8        50.419                  
  21315338.155 9 112012859.360 9      -805.154 9        54.011                  
  21779846.999 8 114453890.667 8      1784.026 8        53.871                  
  23478916.865 8 123382544.856 8     -3665.917 8        50.116                  
  24965609.122 7 131195174.759 7     -1906.432 7        46.843                  
  20443895.228 9 107433416.008 9       863.188 9        54.958                  
 02  5 18 00 00 55.0000000  0  7G01G23G10G21G16G07G08                           
  23755836.813 8 124837757.510 8      3394.841 8        48.817                  
  23007570.672 8 120905596.340 8     -2822.321 8        49.876                  
  21315491.185 9 112013664.441 9      -805.420 9        54.167                  
  21779511.651 8 114452106.796 8      1782.367 8        53.358                  
  23479614.686 8 123386210.756 8     -3667.131 8        49.610                  
  24965973.668 7 131197083.174 7     -1908.894 7        47.056                  
  20443734.157 9 107432553.338 9       862.124 9        56.848                  
 02  5 18 00 00 56.0000000  0  7G01G23G10G21G16G07G08                           
  23755189.418 7 124834362.314 7      3392.632 7        46.765                  
  23008107.815 8 120908420.322 8     -2824.745 8        51.899                  
  21315644.770 9 112014470.138 9      -806.154 9        54.594                  
  21779171.603 9 114450323.209 9      1782.472 9        54.230                  
  23480314.169 7 123389876.845 7     -3668.155 7        47.418                  
  24966337.553 7 131198991.942 7     -1904.886 7        46.363                  
  20443571.674 9 107431691.145 9       861.533 9        56.023                  
 02  5 18 00 00 57.0000000  0  7G01G23G10G21G16G07G08                           
  23754544.739 8 124830967.280 8      3395.969 8        48.666                  
  23008644.296 8 120911244.685 8     -2824.464 8        50.928                  
  21315798.300 9 112015276.470 9      -806.512 9        55.400                  
  21778828.125 8 114448539.933 8      1784.775 8        51.742                  
  23481009.560 7 123393543.124 7     -3663.679 7        47.416                  
  24966698.364 7 131200901.067 7     -1912.557 7        45.971                  
  20443405.295 9 107430829.429 9       861.568 9        58.269                  
 02  5 18 00 00 58.0000000  0  7G01G23G10G21G16G07G08                           
  23753898.256 8 124827572.398 8      3397.172 8        48.511                  
  23009182.779 8 120914069.446 8     -2825.106 8        50.078                  
  21315952.045 9 112016083.397 9      -806.616 9        55.502                  
  21778490.365 8 114446756.946 8      1783.100 8        51.999                  
  23481707.827 7 123397209.601 7     -3665.699 7        47.743                  
  24967065.108 7 131202810.535 7     -1911.460 7        45.928                  
  20443239.113 9 107429968.189 9       861.866 9        57.004                  
 02  5 18 00 00 59.0000000  0  7G01G23G10G21G16G07G08                           
  23753251.183 8 124824177.689 8      3395.422 8        49.049                  
  23009718.653 8 120916894.586 8     -2824.297 8        49.979                  
  21316105.933 9 112016890.921 9      -807.609 9        56.588                  
  21778155.052 8 114444974.266 8      1782.960 8        50.759                  
  23482406.578 8 123400876.287 8     -3666.755 8        48.543                  
  24967425.401 7 131204720.368 7     -1910.981 7        44.703                  
  20443072.681 9 107429107.403 9       860.796 9        55.328                  
 02  5 18 00 01  0.0000000  0  7G01G23G10G21G16G07G08                           
  23752605.986 8 124820783.130 8      3397.662 8        49.809                  
  23010258.602 8 120919720.103 8     -2826.663 8        51.614                  
  21316259.589 9 112017699.078 9      -808.008 9        57.459                  
  21777813.575 8 114443191.873 8      1780.461 8        52.414                  
  23483102.791 8 123404543.143 8     -3670.255 8        48.669                  
  24967791.162 7 131206630.536 7     -1908.946 7        46.993                  
  20442905.695 9 107428247.093 9       859.885 9        57.000                  
 02  5 18 00 01  1.0000000  0  7G01G23G10G21G16G07G08                           
  23751959.967 8 124817388.729 8      3395.934 8        50.116                  
  23010795.012 8 120922546.020 8     -2823.864 8        49.271                  
  21316414.067 9 112018507.852 9      -808.678 9        55.349                  
  21777470.329 8 114441409.790 8      1782.237 8        53.943                  
  23483801.344 8 123408210.199 8     -3665.245 8        49.365                  
  24968153.314 7 131208541.075 7     -1912.415 7        47.387                  
  20442740.407 9 107427387.259 9       859.800 9        56.633                  
 02  5 18 00 01  2.0000000  0  7G01G23G10G21G16G07G08                           
  23751313.287 8 124813994.498 8      3395.558 8        49.063                  
  23011333.138 8 120925372.329 8     -2825.011 8        50.187                  
  21316567.365 9 112019317.225 9      -810.779 9        54.340                  
  21777134.731 8 114439627.991 8      1782.150 8        50.758                  
  23484499.952 8 123411877.446 8     -3666.722 8        49.152                  
  24968517.824 7 131210451.945 7     -1912.135 7        45.646                  
  20442578.603 9 107426527.904 9       858.947 9        57.192                  
 02  5 18 00 01  3.0000000  0  7G01G23G10G21G16G07G08                           
  23750668.019 8 124810600.420 8      3396.413 8        48.967                  
  23011871.996 8 120928199.043 8     -2826.671 8        50.914                  
  21316720.985 9 112020127.192 9      -810.311 9        55.025                  
  21776798.669 8 114437846.515 8      1781.650 8        51.974                  
  23485196.165 8 123415544.869 8     -3666.703 8        51.025                  
  24968882.066 7 131212363.184 7     -1910.584 7        44.747                  
  20442416.924 9 107425669.000 9       858.071 9        55.569                  
 02  5 18 00 01  4.0000000  0  7G01G23G10G21G16G07G08                           
  23750023.197 8 124807206.496 8      3390.059 8        49.229                  
  23012407.495 8 120931026.149 8     -2826.528 8        53.074                  
  21316875.052 9 112020937.780 9      -810.901 9        54.692                  
  21776456.423 9 114436065.350 9      1780.642 9        54.058                  
  23485895.540 8 123419212.513 8     -3667.897 8        52.169                  
  24969242.895 7 131214274.774 7     -1910.223 7        45.162                  
  20442255.888 9 107424810.575 9       858.128 9        56.758                  
 02  5 18 00 01  5.0000000  0  7G01G23G10G21G16G07G08                           
  23749376.017 8 124803812.754 8      3389.265 8        48.124                  
  23012947.675 8 120933853.640 8     -2827.580 8        51.156                  
  21317028.761 9 112021748.999 9      -811.933 9        56.105                  
  21776115.500 8 114434284.482 8      1779.872 8        53.727                  
  23486593.504 8 123422880.328 8     -3665.953 8        49.207                  
  24969609.978 7 131216186.713 7     -1912.823 7        45.794                  
  20442094.638 9 107423952.625 9       858.134 9        56.316                  
 02  5 18 00 01  6.0000000  0  7G01G23G10G21G16G07G08                           
  23748729.534 8 124800419.158 8      3391.719 8        48.479                  
  23013484.979 8 120936681.498 8     -2827.154 8        48.886                  
  21317182.649 9 112022560.814 9      -812.111 9        56.324                  
  21775779.973 8 114432503.913 8      1779.920 8        52.019                  
  23487290.682 8 123426548.341 8     -3664.302 8        48.783                  
  24969970.915 7 131218098.992 7     -1910.608 7        46.438                  
  20441934.710 9 107423095.154 9       857.057 9        57.047                  
 02  5 18 00 01  7.0000000  0  7G01G23G10G21G16G07G08                           
  23748085.534 8 124797025.711 8      3392.506 8        49.239                  
  23014023.104 8 120939509.762 8     -2827.309 8        48.929                  
  21317336.627 9 112023373.226 9      -813.312 9        54.962                  
  21775443.107 8 114430723.640 8      1779.769 8        52.921                  
  23487989.665 8 123430216.554 8     -3668.214 8        50.144                  
  24970337.480 7 131220011.640 7     -1914.448 7        46.125                  
  20441772.817 9 107422238.146 9       856.605 9        57.081                  
 02  5 18 00 01  8.0000000  0  7G01G23G10G21G16G07G08                           
  23747438.729 8 124793632.455 8      3393.753 8        48.829                  
  23014562.302 8 120942338.417 8     -2828.527 8        49.937                  
  21317491.390 9 112024186.271 9      -813.305 9        57.860                  
  21775100.915 8 114428943.669 8      1778.941 8        52.588                  
  23488687.486 8 123433884.945 8     -3666.789 8        50.791                  
  24970700.042 8 131221924.639 8     -1914.160 8        48.156                  
  20441607.314 9 107421381.601 9       857.249 9        58.677                  
 02  5 18 00 01  9.0000000  0  7G01G23G10G21G16G07G08                           
  23746792.567 8 124790239.341 8      3391.821 8        48.037                  
  23015099.266 8 120945167.476 8     -2829.921 8        50.430                  
  21317645.421 9 112024999.930 9      -813.794 9        55.615                  
  21774760.510 8 114427163.990 8      1780.308 8        53.922                  
  23489384.413 8 123437553.540 8     -3666.966 8        48.458                  
  24971064.571 8 131223837.982 8     -1912.768 8        48.028                  
  20441442.598 9 107420525.537 9       855.906 9        57.477                  
 02  5 18 00 01 10.0000000  0  7G01G23G10G21G16G07G08                           
  23746148.782 8 124786846.381 8      3397.282 8        49.617                  
  23015639.304 8 120947996.930 8     -2828.593 8        50.116                  
  21317800.542 9 112025814.190 9      -814.371 9        54.994                  
  21774425.180 8 114425384.613 8      1779.832 8        53.368                  
  23490083.968 8 123441222.324 8     -3669.580 8        49.552                  
  24971429.831 8 131225751.682 8     -1914.118 8        48.429                  
  20441277.524 9 107419669.948 9       855.833 9        56.893                  
 02  5 18 00 01 11.0000000  0  7G01G23G10G21G16G07G08                           
  23745502.370 7 124783453.602 7      3393.369 7        47.495                  
  23016176.429 8 120950826.753 8     -2827.727 8        50.591                  
  21317955.288 9 112026629.045 9      -815.040 9        56.144                  
  21774088.492 8 114423605.533 8      1779.032 8        51.797                  
  23490781.967 8 123444891.290 8     -3669.853 8        50.929                  
  24971791.911 8 131227665.729 8     -1913.685 8        48.152                  
  20441111.824 9 107418814.837 9       854.972 9        57.301                  
 02  5 18 00 01 12.0000000  0  7G01G23G10G21G16G07G08                           
  23744856.030 8 124780060.965 8      3389.819 8        50.044                  
  23016715.609 8 120953656.963 8     -2829.856 8        50.661                  
  21318109.676 9 112027444.508 9      -816.642 9        57.079                  
  21773745.264 8 114421826.764 8      1779.381 8        53.136                  
  23491479.610 8 123448560.458 8     -3669.270 8        51.391                  
  24972158.870 7 131229580.130 7     -1918.344 7        47.874                  
  20440946.553 9 107417960.178 9       854.459 9        57.351                  
 02  5 18 00 01 13.0000000  0  7G01G23G10G21G16G07G08                           
  23744211.280 8 124776668.494 8      3391.670 8        48.971                  
  23017255.146 8 120956487.562 8     -2828.585 8        50.190                  
  21318266.030 9 112028260.617 9      -816.420 9        56.979                  
  21773406.449 8 114420048.306 8      1778.183 8        52.762                  
  23492178.557 8 123452229.804 8     -3669.341 8        50.384                  
  24972519.038 7 131231494.871 7     -1913.296 7        46.503                  
  20440784.410 9 107417105.994 9       854.153 9        56.032                  
 02  5 18 00 01 14.0000000  0  7G01G23G10G21G16G07G08                           
  23743565.958 8 124773276.190 8      3392.188 8        48.587                  
  23017792.307 8 120959318.566 8     -2830.582 8        50.839                  
  21318421.098 9 112029077.318 9      -816.928 9        54.928                  
  21773072.763 8 114418270.155 8      1778.675 8        51.972                  
  23492876.342 8 123455899.350 8     -3670.678 8        49.963                  
  24972887.479 7 131233409.973 7     -1916.104 7        46.555                  
  20440624.053 9 107416252.288 9       854.235 9        54.640                  
 02  5 18 00 01 15.0000000  0  7G01G23G10G21G16G07G08                           
  23742918.956 8 124769884.043 8      3390.839 8        48.746                  
  23018333.774 8 120962149.968 8     -2830.884 8        50.296                  
  21318576.272 9 112029894.618 9      -817.248 9        55.327                  
  21772733.519 8 114416492.292 8      1778.167 8        52.873                  
  23493574.020 8 123459569.092 8     -3670.102 8        49.065                  
  24973249.648 7 131235325.428 7     -1916.262 7        46.915                  
  20440463.804 9 107415399.060 9       853.151 9        55.699                  
 02  5 18 00 01 16.0000000  0  7G01G23G10G21G16G07G08                           
  23742273.742 8 124766492.049 8      3394.994 8        48.231                  
  23018869.827 8 120964981.752 8     -2831.786 8        50.694                  
  21318731.322 9 112030712.525 9      -818.482 9        55.988                  
  21772392.328 8 114414714.739 8      1778.222 8        52.845                  
  23494274.021 8 123463239.007 8     -3672.115 8        49.603                  
  24973615.856 7 131237241.230 7     -1915.963 7        46.166                  
  20440303.805 9 107414546.308 9       853.045 9        56.597                  
 02  5 18 00 01 17.0000000  0  7G01G23G10G21G16G07G08                           
  23741629.724 7 124763100.237 7      3388.843 7        46.898                  
  23019409.185 8 120967813.905 8     -2834.161 8        50.230                  
  21318887.944 9 112031531.074 9      -819.337 9        56.154                  
  21772053.853 9 114412937.472 9      1777.505 9        54.430                  
  23494971.271 8 123466909.127 8     -3670.678 8        50.237                  
  24973980.759 8 131239157.390 8     -1917.100 8        48.101                  
  20440143.234 9 107413694.011 9       852.055 9        57.647                  
 02  5 18 00 01 18.0000000  0  7G01G23G10G21G16G07G08                           
  23740984.027 7 124759708.567 7      3392.858 7        47.707                  
  23019948.955 8 120970646.452 8     -2830.442 8        49.602                  
  21319043.726 9 112032350.222 9      -820.217 9        55.393                  
  21771719.363 8 114411160.520 8      1775.622 8        53.196                  
  23495669.592 8 123470579.429 8     -3672.652 8        49.379                  
  24974342.571 7 131241073.890 7     -1914.816 7        47.698                  
  20439983.771 9 107412842.189 9       851.031 9        57.410                  
 02  5 18 00 01 19.0000000  0  7G01G23G10G21G16G07G08                           
  23740337.061 7 124756317.064 7      3392.373 7        47.772                  
  23020485.776 8 120973479.406 8     -2832.157 8        50.261                  
  21319200.884 9 112033169.964 9      -819.868 9        54.683                  
  21771381.496 8 114409383.843 8      1774.897 8        52.675                  
  23496368.503 8 123474249.924 8     -3669.745 8        50.735                  
  24974711.156 8 131242990.739 8     -1916.157 8        48.135                  
  20439822.217 9 107411990.844 9       850.776 9        56.578                  
 02  5 18 00 01 20.0000000  0  7G01G23G10G21G16G07G08                           
  23739693.848 7 124752926.065 7      3386.744 7        47.319                  
  23021027.208 8 120976312.584 8     -2832.390 8        50.780                  
  21319357.935 8 112033990.105 8      -819.433 8        53.413                  
  21771039.572 8 114407607.762 8      1774.906 8        50.982                  
  23497066.860 8 123477920.453 8     -3671.515 8        50.040                  
  24975072.414 7 131244908.386 7     -1920.228 7        47.174                  
  20439658.572 9 107411140.098 9       849.119 9        56.531                  
 02  5 18 00 01 21.0000000  0  7G01G23G10G21G16G07G08                           
  23739049.437 7 124749547.171 7      3367.900 7        47.485                  
  23021565.601 8 120979140.472 8     -2821.574 8        51.160                  
  21319513.681 9 112034803.733 9      -809.195 9        55.157                  
  21770703.295 8 114405841.722 8      1758.397 8        51.665                  
  23497764.092 8 123481585.768 8     -3660.754 8        50.515                  
  24975442.767 7 131246841.913 7     -1944.022 7        46.890                  
  20439495.642 9 107410294.403 9       841.222 9        56.143                  
 02  5 18 00 01 22.0000000  0  7G01G23G10G21G16G07G08                           
  23738408.583 7 124746187.564 7      3351.029 7        47.391                  
  23022101.833 8 120981959.675 8     -2815.828 8        51.378                  
  21319666.301 8 112035606.572 8      -797.347 8        53.611                  
  21770374.808 9 114404091.590 9      1743.190 9        54.049                  
  23498461.055 8 123485242.646 8     -3652.397 8        50.540                  
  24975813.192 7 131248800.657 7     -1970.345 7        46.181                  
  20439334.410 9 107409456.517 9       834.163 9        56.136                  
 02  5 18 00 01 23.0000000  0  7G01G23G10G21G16G07G08                           
  23737774.893 8 124742847.264 8      3330.673 8        48.440                  
  23022636.259 8 120984770.164 8     -2804.431 8        48.993                  
  21319817.169 9 112036398.587 9      -786.958 9        54.773                  
  21770044.678 8 114402357.395 8      1725.651 8        52.659                  
  23499153.998 8 123488891.103 8     -3648.030 8        49.429                  
  24976192.694 7 131250784.602 7     -1991.935 7        46.409                  
  20439175.805 9 107408626.428 9       827.237 9        56.461                  
 02  5 18 00 01 24.0000000  0  7G01G23G10G21G16G07G08                           
  23737143.170 8 124739520.915 8      3327.062 8        49.466                  
  23023169.721 8 120987574.354 8     -2803.471 8        50.641                  
  21319966.339 9 112037182.978 9      -784.614 9        56.661                  
  21769714.584 8 114400634.692 8      1722.218 8        53.411                  
  23499849.014 8 123492533.811 8     -3644.015 8        50.707                  
  24976573.215 7 131252786.671 7     -2005.171 7        45.144                  
  20439016.467 9 107407801.984 9       825.117 9        54.975                  
 02  5 18 00 01 25.0000000  0  7G01G23G10G21G16G07G08                           
  23736510.160 8 124736194.541 8      3331.327 8        48.186                  
  23023703.719 8 120990378.272 8     -2806.929 8        49.553                  
  21320115.760 9 112037968.133 9      -788.125 9        56.222                  
  21769384.454 8 114398911.966 8      1727.013 8        53.752                  
  23500541.724 8 123496178.313 8     -3647.733 8        49.998                  
  24976955.666 7 131254788.074 7     -1991.688 7        47.068                  
  20438858.201 9 107406977.565 9       824.866 9        56.269                  
 02  5 18 00 01 26.0000000  0  7G01G23G10G21G16G07G08                           
  23735873.236 8 124732854.868 8      3347.626 8        49.491                  
  23024236.877 8 120993187.083 8     -2813.584 8        51.529                  
  21320266.771 9 112038761.981 9      -797.455 9        56.799                  
  21769055.235 8 114397178.069 8      1739.495 8        53.992                  
  23501237.079 8 123499833.166 8     -3660.646 8        49.317                  
  24977329.468 7 131256770.301 7     -1971.360 7        47.283                  
  20438698.630 9 107406147.535 9       833.215 9        57.278                  
 02  5 18 00 01 27.0000000  0  7G01G23G10G21G16G07G08                           
  23735236.152 7 124729508.883 7      3348.204 7        47.708                  
  23024772.841 8 120995995.918 8     -2807.856 8        51.041                  
  21320419.140 9 112039560.415 9      -797.805 9        55.703                  
  21768727.713 8 114395438.323 8      1737.102 8        52.406                  
  23501934.865 7 123503498.384 7     -3667.553 7        47.593                  
  24977708.273 8 131258740.852 8     -1968.610 8        49.492                  
  20438540.025 9 107405313.800 9       833.923 9        56.538                  
 02  5 18 00 01 28.0000000  0  7G01G23G10G21G16G07G08                           
  23734601.605 7 124726165.546 7      3343.045 7        45.914                  
  23025303.711 8 120998800.377 8     -2803.064 8        52.521                  
  21320570.741 9 112040358.104 9      -797.846 9        55.072                  
  21768397.923 9 114393699.976 9      1738.397 9        55.263                  
  23502633.222 8 123507170.234 8     -3673.714 8        48.174                  
  24978079.467 8 131260711.217 8     -1969.500 8        50.460                  
  20438382.670 9 107404479.739 9       833.682 9        56.481                  
 02  5 18 00 01 29.0000000  0  7G01G23G10G21G16G07G08                           
  23733964.825 7 124722818.745 7      3358.478 7        46.868                  
  23025842.748 8 121001604.172 8     -2809.987 8        51.669                  
  21320722.556 9 112041158.628 9      -805.884 9        55.171                  
  21768063.379 8 114391958.258 8      1749.240 8        53.984                  
  23503332.454 8 123510849.779 8     -3681.678 8        49.775                  
  24978456.878 8 131262674.320 8     -1956.386 8        48.310                  
  20438224.940 9 107403643.412 9       839.887 9        57.146                  
 02  5 18 00 01 30.0000000  0  7G01G23G10G21G16G07G08                           
  23733322.630 8 124719452.689 8      3367.509 8        48.490                  
  23026376.996 8 121004419.542 8     -2817.631 8        51.163                  
  21320876.659 9 112041971.303 9      -814.881 9        56.601                  
  21767726.441 8 114390201.520 8      1759.679 8        52.418                  
  23504034.332 8 123514534.092 8     -3686.714 8        49.377                  
  24978822.318 7 131264614.615 7     -1936.565 7        46.018                  
  20438066.174 9 107402801.093 9       844.125 9        57.865                  
 02  5 18 00 01 31.0000000  0  7G01G23G10G21G16G07G08                           
  23732683.026 8 124716089.697 8      3359.493 8        49.360                  
  23026908.725 8 121007226.009 8     -2798.190 8        49.772                  
  21321033.031 8 112042783.062 8      -809.043 8        53.373                  
  21767395.488 8 114388445.471 8      1753.760 8        51.978                  
  23504738.729 8 123518233.935 8     -3711.950 8        51.125                  
  24979193.028 7 131266550.802 7     -1936.120 7        45.438                  
  20437907.354 9 107401956.495 9       846.071 9        55.916                  
 02  5 18 00 01 32.0000000  0  7G01G23G10G21G16G07G08                           
  23732044.727 8 124712730.139 8      3361.973 8        48.119                  
  23027442.169 8 121010021.042 8     -2794.298 8        51.530                  
  21321186.651 8 112043593.747 8      -813.878 8        52.333                  
  21767064.590 9 114386689.783 9      1757.990 9        54.187                  
  23505445.931 8 123521954.220 8     -3723.867 8        49.931                  
  24979558.468 7 131268480.799 7     -1928.159 7        44.758                  
  20437747.534 9 107401108.619 9       850.118 9        55.164                  
 02  5 18 00 01 33.0000000  0  7G01G23G10G21G16G07G08                           
  23731402.407 8 124709357.727 8      3379.544 8        49.712                  
  23027973.862 8 121012828.000 8     -2820.534 8        48.654                  
  21321343.076 8 112044412.678 8      -823.690 8        53.716                  
  21766726.043 8 114384925.154 8      1770.746 8        52.082                  
  23506153.098 8 123525669.215 8     -3704.565 8        49.579                  
  24979926.212 7 131270399.903 7     -1913.648 7        46.922                  
  20437588.517 9 107400258.907 9       849.688 9        56.596                  
 02  5 18 00 01 34.0000000  0  7G01G23G10G21G16G07G08                           
  23730757.192 8 124705971.577 8      3390.431 8        48.927                  
  23028514.918 8 121015650.435 8     -2824.529 8        52.155                  
  21321501.306 8 112045240.228 8      -829.470 8        52.768                  
  21766385.192 8 114383151.639 8      1778.139 8        52.673                  
  23506858.585 8 123529372.720 8     -3710.306 8        48.200                  
  24980288.471 7 131272310.236 7     -1902.938 7        46.903                  
  20437428.232 9 107399408.479 9       852.153 9        56.683                  
 02  5 18 00 01 35.0000000  0  7G01G23G10G21G16G07G08                           
  23730112.210 7 124702574.671 7      3403.582 7        47.491                  
  23029049.559 8 121018474.139 8     -2825.280 8        51.542                  
  21321659.590 8 112046074.994 8      -838.215 8        53.756                  
  21766047.682 8 114381368.440 8      1788.587 8        52.982                  
  23507565.322 8 123533090.449 8     -3723.408 8        48.532                  
  24980646.923 8 131274202.230 8     -1884.017 8        48.232                  
  20437263.819 9 107398552.293 9       858.341 9        57.485                  
 02  5 18 00 01 36.0000000  0  7G01G23G10G21G16G07G08                           
  23729463.528 7 124699166.115 7      3411.068 7        47.810                  
  23029588.167 8 121021298.681 8     -2824.407 8        51.177                  
  21321819.393 8 112046917.550 8      -846.131 8        53.685                  
  21765709.403 8 114379574.638 8      1795.671 8        51.060                  
  23508274.883 8 123536824.482 8     -3737.703 8        49.258                  
  24981005.322 7 131276073.931 7     -1866.617 7        47.083                  
  20437097.352 9 107397689.626 9       865.670 9        54.179                  
 02  5 18 00 01 37.0000000  0  7G01G23G10G21G16G07G08                           
  23728812.346 7 124695753.482 7      3413.346 7        46.790                  
  23030123.880 8 121024124.291 8     -2826.318 8        50.792                  
  21321978.856 9 112047763.207 9      -846.033 9        54.445                  
  21765364.585 8 114377777.359 8      1798.072 8        51.733                  
  23508986.982 8 123540563.386 8     -3739.321 8        49.681                  
  24981359.290 8 131277939.133 8     -1866.841 8        48.027                  
  20436929.794 9 107396825.205 9       863.578 9        54.032                  
 02  5 18 00 01 38.0000000  0  7G01G23G10G21G16G07G08                           
  23728164.236 8 124692341.964 8      3410.034 8        48.251                  
  23030661.774 8 121026949.398 8     -2826.675 8        50.183                  
  21322138.837 9 112048608.948 9      -845.483 9        55.167                  
  21765020.838 9 114375981.020 9      1794.568 9        54.143                  
  23509699.455 8 123544303.018 8     -3742.044 8        49.915                  
  24981717.260 8 131279805.456 8     -1865.747 8        48.501                  
  20436762.557 9 107395961.413 9       864.137 9        55.964                  
 02  5 18 00 01 39.0000000  0  7G01G23G10G21G16G07G08                           
  23727516.430 8 124688932.875 8      3406.948 8        48.560                  
  23031202.151 8 121029772.724 8     -2823.876 8        50.727                  
  21322298.944 9 112049453.940 9      -845.846 9        54.510                  
  21764683.239 8 114374186.571 8      1795.707 8        53.847                  
  23510411.232 8 123548044.034 8     -3742.020 8        50.525                  
  24982071.853 7 131281673.992 7     -1868.126 7        47.154                  
  20436595.697 9 107395098.483 9       861.068 9        55.383                  
 02  5 18 00 01 40.0000000  0  7G01G23G10G21G16G07G08                           
  23726866.373 7 124685524.567 7      3406.587 7        47.103                  
  23031736.613 8 121032595.874 8     -2822.224 8        50.082                  
  21322459.818 9 112050299.136 9      -845.730 9        55.690                  
  21764342.369 9 114372392.887 9      1793.778 9        54.044                  
  23511121.955 8 123551785.547 8     -3742.745 8        50.711                  
  24982423.694 8 131283543.427 8     -1870.214 8        49.211                  
  20436433.499 9 107394236.120 9       863.166 9        56.878                  
 02  5 18 00 01 41.0000000  0  7G01G23G10G21G16G07G08                           
  23726218.014 7 124682116.514 7      3406.288 7        47.648                  
  23032276.276 8 121035419.276 8     -2825.123 8        49.729                  
  21322620.068 9 112051144.879 9      -846.924 9        56.995                  
  21763996.407 8 114370599.578 8      1792.933 8        52.029                  
  23511835.250 8 123555527.322 8     -3743.194 8        50.788                  
  24982783.737 8 131285413.317 8     -1870.908 8        48.207                  
  20436271.499 9 107393374.310 9       861.581 9        55.501                  
 02  5 18 00 01 42.0000000  0  7G01G23G10G21G16G07G08                           
  23725570.672 7 124678708.605 7      3409.133 7        47.709                  
  23032810.542 8 121038243.042 8     -2824.728 8        50.334                  
  21322781.282 9 112051991.207 9      -848.118 9        54.531                  
  21763656.574 8 114368806.537 8      1792.732 8        53.447                  
  23512547.456 8 123559269.291 8     -3742.440 8        50.296                  
  24983137.651 7 131287283.556 7     -1870.385 7        46.961                  
  20436109.552 9 107392512.964 9       861.187 9        56.384                  
 02  5 18 00 01 43.0000000  0  7G01G23G10G21G16G07G08                           
  23724920.615 8 124675300.713 8      3404.656 8        48.333                  
  23033349.972 8 121041067.365 8     -2823.408 8        51.233                  
  21322942.371 8 112052838.196 8      -847.675 8        53.073                  
  21763318.796 8 114367013.677 8      1792.125 8        53.514                  
  23513258.965 8 123563011.377 8     -3739.848 8        51.360                  
  24983491.440 7 131289154.038 7     -1872.371 7        45.691                  
  20435948.087 9 107391652.118 9       861.166 9        55.966                  
 02  5 18 00 01 44.0000000  0  7G01G23G10G21G16G07G08                           
  23724273.167 8 124671892.089 8      3411.448 8        48.464                  
  23033885.792 8 121043892.840 8     -2826.838 8        50.541                  
  21323106.016 8 112053686.288 8      -848.296 8        53.197                  
  21762977.015 8 114365220.528 8      1794.040 8        52.495                  
  23513970.491 8 123566753.253 8     -3742.987 8        49.709                  
  24983850.142 7 131291024.166 7     -1868.672 7        46.973                  
  20435787.427 9 107390791.605 9       859.999 9        57.321                  
 02  5 18 00 01 45.0000000  0  7G01G23G10G21G16G07G08                           
  23723624.075 8 124668481.474 8      3412.148 8        49.317                  
  23034425.651 8 121046720.712 8     -2827.963 8        48.664                  
  21323268.410 8 112054536.228 8      -850.010 8        53.222                  
  21762631.249 8 114363426.169 8      1794.531 8        53.237                  
  23514683.430 8 123570494.208 8     -3741.982 8        50.256                  
  24984203.610 7 131292892.913 7     -1867.753 7        45.849                  
  20435624.944 9 107389931.247 9       860.430 9        54.015                  
 02  5 18 00 01 46.0000000  0  7G01G23G10G21G16G07G08                           
  23722973.571 8 124665070.301 8      3410.312 8        48.363                  
  23034964.777 8 121049549.678 8     -2826.800 8        50.522                  
  21323430.071 8 112055387.200 8      -851.562 8        53.908                  
  21762293.078 8 114361631.605 8      1794.425 8        51.909                  
  23515395.117 8 123574234.934 8     -3739.447 8        49.958                  
  24984562.688 7 131294761.410 7     -1868.299 7        45.777                  
  20435458.637 9 107389071.284 9       859.457 9        56.001                  
 02  5 18 00 01 47.0000000  0  7G01G23G10G21G16G07G08                           
  23722325.747 8 124661659.376 8      3410.973 8        48.329                  
  23035499.812 8 121052378.861 8     -2828.818 8        51.544                  
  21323593.537 9 112056238.690 9      -851.804 9        54.082                  
  21761954.335 8 114359837.408 8      1794.016 8        52.719                  
  23516106.787 8 123577975.912 8     -3743.048 8        49.175                  
  24984917.870 7 131296630.379 7     -1871.040 7        45.962                  
  20435292.687 8 107388211.821 8       858.742 8        53.861                  
 02  5 18 00 01 48.0000000  0  7G01G23G10G21G16G07G08                           
  23721676.977 8 124658249.957 8      3409.565 8        48.246                  
  23036040.510 8 121055207.159 8     -2826.434 8        49.741                  
  21323755.877 9 112057089.963 9      -849.983 9        55.108                  
  21761607.622 9 114358044.479 9      1791.311 9        54.007                  
  23516818.313 7 123581717.842 7     -3741.420 7        47.744                  
  24985272.141 7 131298500.814 7     -1873.333 7        45.506                  
  20435127.453 9 107387353.084 9       858.149 9        56.024                  
 02  5 18 00 01 49.0000000  0  7G01G23G10G21G16G07G08                           
  23721027.759 8 124654842.726 8      3409.837 8        48.523                  
  23036576.849 8 121058033.922 8     -2826.384 8        49.320                  
  21323917.109 9 112057940.665 9      -850.590 9        56.133                  
  21761266.235 8 114356253.272 8      1791.032 8        51.460                  
  23517530.805 8 123585461.017 8     -3746.419 8        49.067                  
  24985630.540 7 131300373.275 7     -1869.999 7        46.430                  
  20434960.770 9 107386495.159 9       858.103 9        55.638                  
 02  5 18 00 01 50.0000000  0  7G01G23G10G21G16G07G08                           
  23720380.168 7 124651436.098 7      3404.691 7        47.202                  
  23037115.261 8 121060860.676 8     -2828.795 8        50.403                  
  21324077.126 9 112058791.688 9      -850.997 9        55.109                  
  21760930.244 8 114354462.663 8      1791.531 8        51.310                  
  23518244.190 8 123589204.601 8     -3742.645 8        49.419                  
  24985985.008 7 131302246.469 7     -1873.232 7        46.889                  
  20434795.875 9 107385637.794 9       857.460 9        55.672                  
 02  5 18 00 01 51.0000000  0  7G01G23G10G21G16G07G08                           
  23719732.755 8 124648029.354 8      3406.721 8        48.437                  
  23037655.423 8 121063688.033 8     -2826.920 8        50.931                  
  21324237.357 9 112059643.436 9      -852.219 9        54.250                  
  21760589.731 8 114352672.144 8      1790.766 8        50.918                  
  23518956.413 8 123592948.254 8     -3744.526 8        50.072                  
  24986341.031 7 131304119.853 7     -1871.232 7        47.261                  
  20434634.375 9 107384780.904 9       858.191 9        54.569                  
 02  5 18 00 01 52.0000000  0  7G01G23G10G21G16G07G08                           
  23719083.091 8 124644622.642 8      3404.237 8        49.298                  
  23038190.744 8 121066515.879 8     -2829.545 8        50.235                  
  21324400.037 9 112060495.857 9      -852.636 9        54.325                  
  21760244.627 8 114350881.858 8      1790.019 8        53.658                  
  23519667.654 8 123596692.057 8     -3744.660 8        49.026                  
  24986700.627 8 131305993.456 8     -1874.040 8        48.621                  
  20434473.196 9 107383924.481 9       856.001 9        55.309                  
 02  5 18 00 01 53.0000000  0  7G01G23G10G21G16G07G08                           
  23718435.178 8 124641217.372 8      3402.753 8        48.292                  
  23038730.763 8 121069343.449 8     -2827.657 8        50.402                  
  21324562.252 9 112061348.093 9      -850.605 9        55.314                  
  21759905.080 9 114349092.901 9      1785.750 9        55.383                  
  23520380.968 8 123600435.593 8     -3742.047 8        50.556                  
  24987054.612 7 131307869.034 7     -1880.146 7        47.780                  
  20434312.643 9 107383069.016 9       853.199 9        55.405                  
 02  5 18 00 01 54.0000000  0  7G01G23G10G21G16G07G08                           
  23717789.892 7 124637820.196 7      3391.101 7        47.282                  
  23039267.888 8 121072171.965 8     -2828.194 8        51.839                  
  21324723.252 9 112062196.111 9      -844.931 9        56.064                  
  21759570.768 9 114347311.770 9      1774.885 9        54.251                  
  23521090.904 8 123604166.590 8     -3722.652 8        51.290                  
  24987415.549 7 131309759.751 7     -1902.756 7        46.271                  
  20434152.268 9 107382219.102 9       845.612 9        57.243                  
 02  5 18 00 01 55.0000000  0  7G01G23G10G21G16G07G08                           
  23717144.874 8 124634435.438 8      3377.249 8        48.538                  
  23039806.389 8 121075000.950 8     -2829.599 8        50.967                  
  21324883.215 9 112063037.325 9      -838.809 9        57.268                  
  21759232.436 8 114345542.386 8      1763.703 8        52.243                  
  23521796.820 8 123607879.864 8     -3705.998 8        50.220                  
  24987779.469 7 131311672.811 7     -1924.189 7        45.630                  
  20433994.378 9 107381377.101 9       838.864 9        56.242                  
 02  5 18 00 01 56.0000000  0  7G01G23G10G21G16G07G08                           
  23716501.857 8 124631059.287 8      3372.332 8        48.566                  
  23040346.034 8 121077832.349 8     -2828.290 8        50.597                  
  21325042.786 9 112063873.996 9      -833.244 9        55.665                  
  21758893.425 8 114343781.699 8      1757.102 8        50.717                  
  23522500.287 8 123611576.810 8     -3698.078 8        49.541                  
  24988145.784 7 131313603.416 7     -1935.586 7        44.705                  
  20433837.363 9 107380541.622 9       833.490 9        55.153                  
 02  5 18 00 01 57.0000000  0  7G01G23G10G21G16G07G08                           
  23715864.577 8 124627702.098 8      3342.936 8        49.184                  
  23040880.085 8 121080648.197 8     -2805.917 8        49.991                  
  21325201.588 9 112064700.205 9      -817.414 9        54.139                  
  21758561.865 8 114342034.835 8      1737.050 8        53.796                  
  23523206.078 8 123615280.268 8     -3704.406 8        49.215                  
  24988517.835 7 131315551.508 7     -1961.906 7        45.526                  
  20433680.133 9 107379710.365 9       828.431 9        58.288                  
 02  5 18 00 01 58.0000000  0  7G01G23G10G21G16G07G08                           
  23715230.476 7 124624371.338 7      3319.858 7        47.873                  
  23041413.761 8 121083441.079 8     -2784.411 8        51.082                  
  21325356.584 9 112065511.582 9      -805.220 9        55.000                  
  21758236.488 8 114340306.940 8      1721.045 8        52.398                  
  23523912.959 8 123618994.822 8     -3718.432 8        49.669                  
  24988891.405 7 131317522.863 7     -1979.594 7        46.320                  
  20433521.903 9 107378884.362 9       824.658 9        57.648                  
 02  5 18 00 01 59.0000000  0  7G01G23G10G21G16G07G08                           
  23714599.485 7 124621060.044 7      3308.459 7        47.227                  
  23041939.450 8 121086214.591 8     -2770.328 8        49.168                  
  21325509.060 9 112066312.270 9      -800.105 9        54.117                  
  21757911.594 9 114338592.358 9      1711.704 9        54.169                  
  23524621.537 8 123622723.136 8     -3731.283 8        51.365                  
  24989269.889 7 131319508.684 7     -1987.772 7        46.491                  
  20433363.941 9 107378061.066 9       823.348 9        55.566                  
 02  5 18 00 02  0.0000000  0  7G01G23G10G21G16G07G08                           
  23713969.727 8 124617751.509 8      3311.585 8        48.510                  
  23042469.606 8 121088985.384 8     -2771.581 8        52.096                  
  21325661.429 8 112067112.033 8      -800.287 8        51.160                  
  21757583.376 9 114336879.726 9      1711.444 9        54.222                  
  23525331.902 8 123626454.328 8     -3729.388 8        50.980                  
  24989648.354 7 131321496.365 7     -1988.647 7        46.583                  
  20433206.282 8 107377238.342 8       822.686 8        53.614                  
 02  5 18 00 02  1.0000000  0  7G01G23G10G21G16G07G08                           
  23713340.398 8 124614442.951 8      3306.829 8        48.735                  
  23042994.384 8 121091756.534 8     -2770.964 8        50.899                  
  21325813.709 8 112067912.500 8      -801.023 8        53.644                  
  21757254.300 8 114335167.201 8      1711.733 8        53.912                  
  23526042.607 8 123630186.026 8     -3732.260 8        50.923                  
  24990026.123 7 131323484.049 7     -1985.235 7        47.131                  
  20433048.678 9 107376415.977 9       822.585 9        56.058                  
 02  5 18 00 02  2.0000000  0  7G01G23G10G21G16G07G08                           
  23712711.462 8 124611133.901 8      3307.453 8        49.969                  
  23043523.146 8 121094528.021 8     -2771.850 8        50.441                  
  21325966.829 9 112068713.919 9      -801.110 9        54.352                  
  21756927.993 8 114333454.366 8      1713.217 8        53.804                  
  23526752.418 8 123633918.905 8     -3736.042 8        50.595                  
  24990404.965 7 131325470.937 7     -1984.495 7        45.813                  
  20432890.858 9 107375593.695 9       822.677 9        56.992                  
 02  5 18 00 02  3.0000000  0  7G01G23G10G21G16G07G08                           
  23712081.812 8 124607821.956 8      3316.122 8        49.022                  
  23044048.924 8 121097300.044 8     -2771.868 8        48.811                  
  21326119.662 8 112069517.785 8      -806.414 8        53.335                  
  21756603.635 8 114331739.004 8      1716.886 8        53.626                  
  23527462.765 8 123637656.126 8     -3739.499 8        52.175                  
  24990777.695 7 131327452.865 7     -1979.726 7        47.140                  
  20432732.950 9 107374770.114 9       824.668 9        57.125                  
 02  5 18 00 02  4.0000000  0  7G01G23G10G21G16G07G08                           
  23711449.498 7 124604507.476 7      3312.801 7        47.771                  
  23044578.651 8 121100072.789 8     -2771.316 8        50.021                  
  21326273.050 9 112070323.840 9      -806.720 9        55.590                  
  21756280.080 8 114330021.520 8      1715.968 8        51.666                  
  23528175.328 8 123641396.637 8     -3742.539 8        50.134                  
  24991156.393 7 131329430.726 7     -1979.603 7        47.173                  
  20432574.970 9 107373945.543 9       824.092 9        56.694                  
 02  5 18 00 02  5.0000000  0  7G01G23G10G21G16G07G08                           
  23710818.954 7 124601194.539 7      3312.435 7        47.895                  
  23045104.251 8 121102845.699 8     -2772.856 8        50.031                  
  21326426.527 9 112071129.659 9      -805.305 9        56.382                  
  21755953.613 8 114328305.537 8      1715.800 8        52.714                  
  23528888.749 8 123645135.824 8     -3738.198 8        50.784                  
  24991534.287 8 131331411.196 8     -1983.448 8        48.467                  
  20432416.489 9 107373122.177 9       822.470 9        55.748                  
 02  5 18 00 02  6.0000000  0  7G01G23G10G21G16G07G08                           
  23710189.464 8 124597883.502 8      3310.014 8        48.509                  
  23045632.405 8 121105618.754 8     -2774.630 8        49.129                  
  21326580.379 9 112071935.038 9      -805.038 9        54.903                  
  21755624.341 8 114326591.414 8      1715.015 8        53.920                  
  23529598.453 8 123648873.137 8     -3737.041 8        50.246                  
  24991913.807 7 131333394.897 7     -1984.777 7        47.073                  
  20432258.474 9 107372300.205 9       822.135 9        55.953                  
 02  5 18 00 02  7.0000000  0  7G01G23G10G21G16G07G08                           
  23709560.296 8 124594572.820 8      3309.083 8        49.482                  
  23046158.791 8 121108392.167 8     -2774.262 8        48.675                  
  21326734.196 9 112072740.869 9      -806.762 9        55.917                  
  21755296.266 9 114324877.781 9      1714.420 9        54.864                  
  23530308.389 8 123652610.339 8     -3736.362 8        49.764                  
  24992289.360 7 131335379.354 7     -1988.738 7        45.926                  
  20432101.012 9 107371478.842 9       821.609 9        56.681                  
 02  5 18 00 02  8.0000000  0  7G01G23G10G21G16G07G08                           
  23708930.592 8 124591260.463 8      3317.463 8        48.466                  
  23046690.073 7 121111167.374 7     -2779.168 7        47.234                  
  21326886.672 8 112073548.383 8      -810.066 8        53.764                  
  21754969.459 9 114323163.068 9      1718.532 9        54.675                  
  23531020.488 8 123656347.458 8     -3733.722 8        48.493                  
  24992669.828 7 131337362.342 7     -1974.856 7        45.791                  
  20431945.087 9 107370657.535 9       821.807 9        55.838                  
 02  5 18 00 02  9.0000000  0  7G01G23G10G21G16G07G08                           
  23708294.794 8 124587929.915 8      3339.979 8        48.463                  
  23047220.086 8 121113960.590 8     -2804.139 8        51.173                  
  21327043.312 9 112074367.261 9      -826.438 9        55.881                  
  21754644.582 8 114321435.925 8      1735.002 8        53.189                  
  23531729.834 8 123660074.381 8     -3721.012 8        48.312                  
  24993042.593 7 131339330.999 7     -1960.701 7        44.620                  
  20431789.162 9 107369834.000 9       825.238 9        56.395                  
 02  5 18 00 02 10.0000000  0  7G01G23G10G21G16G07G08                           
  23707656.602 8 124584575.366 8      3363.780 8        48.264                  
  23047754.155 8 121116777.436 8     -2823.887 8        50.113                  
  21327201.596 9 112075200.909 9      -838.326 9        55.153                  
  21754315.953 9 114319692.424 9      1748.377 9        54.569                  
  23532435.518 8 123663787.588 8     -3705.856 8        48.813                  
  24993414.340 7 131341280.830 7     -1943.506 7        46.066                  
  20431633.522 9 107369007.440 9       828.188 9        56.510                  
 02  5 18 00 02 11.0000000  0  7G01G23G10G21G16G07G08                           
  23707017.927 8 124581212.098 8      3360.590 8        48.946                  
  23048293.264 8 121119599.172 8     -2815.811 8        49.719                  
  21327361.595 8 112076040.425 8      -838.437 8        53.021                  
  21753979.497 8 114317942.090 8      1750.676 8        52.786                  
  23533143.042 8 123667504.343 8     -3724.872 8        48.485                  
  24993781.191 7 131343219.836 7     -1936.679 7        46.167                  
  20431476.490 9 107368178.171 9       831.122 9        56.102                  
 02  5 18 00 02 12.0000000  0  7G01G23G10G21G16G07G08                           
  23706377.930 8 124577850.737 8      3359.290 8        49.117                  
  23048827.315 8 121122409.529 8     -2808.532 8        49.000                  
  21327520.004 8 112076879.624 8      -839.731 8        53.779                  
  21753641.290 8 114316190.788 8      1749.948 8        53.799                  
  23533855.337 8 123671243.344 8     -3745.275 8        50.745                  
  24994148.972 7 131345150.378 7     -1927.396 7        44.995                  
  20431319.778 9 107367344.961 9       834.446 9        55.603                  
 02  5 18 00 02 13.0000000  0  7G01G23G10G21G16G07G08                           
  23705736.450 7 124574489.335 7      3359.128 7        47.024                  
  23049363.511 8 121125217.298 8     -2810.023 8        51.202                  
  21327678.395 8 112077719.584 8      -838.540 8        53.991                  
  21753310.803 8 114314438.802 8      1752.023 8        52.715                  
  23534568.078 8 123674989.012 8     -3742.343 8        49.085                  
  24994517.538 7 131347077.846 7     -1928.353 7        45.562                  
  20431162.388 9 107366510.712 9       833.893 9        54.219                  
 02  5 18 00 02 14.0000000  0  7G01G23G10G21G16G07G08                           
  23705098.472 8 124571128.338 8      3359.174 8        49.363                  
  23049897.777 8 121128030.825 8     -2813.894 8        50.569                  
  21327838.251 9 112078559.912 9      -839.342 9        56.079                  
  21752981.584 8 114312688.693 8      1748.500 8        52.594                  
  23535277.711 8 123678723.297 8     -3730.862 8        51.259                  
  24994881.637 7 131349011.628 7     -1939.217 7        46.260                  
  20431004.855 9 107365679.608 9       829.761 9        57.175                  
 02  5 18 00 02 15.0000000  0  7G01G23G10G21G16G07G08                           
  23704461.692 8 124567778.406 8      3342.752 8        50.378                  
  23050431.846 8 121130834.476 8     -2793.158 8        50.679                  
  21327996.196 9 112079394.387 9      -829.715 9        57.600                  
  21752650.435 8 114310946.488 8      1738.034 8        51.404                  
  23535989.398 8 123682463.465 8     -3751.587 8        51.092                  
  24995254.868 7 131350954.723 7     -1947.311 7        46.046                  
  20430849.180 9 107364850.698 9       828.012 9        56.675                  
 02  5 18 00 02 16.0000000  0  7G01G23G10G21G16G07G08                           
  23703826.269 7 124564441.874 7      3337.581 7        47.415                  
  23050960.734 8 121133622.023 8     -2786.500 8        48.674                  
  21328153.729 9 112080221.719 9      -827.995 9        56.213                  
  21752316.999 8 114309212.775 8      1733.604 8        50.781                  
  23536704.963 8 123686219.154 8     -3758.296 8        50.272                  
  24995624.524 7 131352904.990 7     -1950.566 7        47.907                  
  20430693.201 9 107364022.456 9       826.198 9        54.557                  
 02  5 18 00 02 17.0000000  0  7G01G23G10G21G16G07G08                           
  23703190.204 7 124561107.401 7      3336.109 7        47.461                  
  23051492.623 8 121136408.264 8     -2784.788 8        49.947                  
  21328311.030 9 112081048.505 9      -827.082 9        55.626                  
  21751984.886 8 114307480.714 8      1732.481 8        51.688                  
  23537420.350 8 123689975.870 8     -3757.658 8        50.071                  
  24995998.290 7 131354857.256 7     -1955.273 7        47.437                  
  20430537.097 9 107363195.059 9       828.424 9        55.779                  
 02  5 18 00 02 18.0000000  0  7G01G23G10G21G16G07G08                           
  23702556.640 8 124557773.776 8      3331.346 8        48.539                  
  23052021.153 8 121139194.506 8     -2785.708 8        51.389                  
  21328468.760 9 112081875.484 9      -827.401 9        56.834                  
  21751657.900 8 114305749.494 8      1731.729 8        53.630                  
  23538133.967 8 123693732.519 8     -3755.767 8        49.349                  
  24996367.357 7 131356810.771 7     -1954.133 7        45.948                  
  20430379.885 9 107362368.378 9       826.541 9        57.401                  
 02  5 18 00 02 19.0000000  0  7G01G23G10G21G16G07G08                           
  23701923.629 7 124554440.584 7      3333.647 7        47.932                  
  23052552.506 8 121141980.946 8     -2784.747 8        52.002                  
  21328624.846 9 112082702.903 9      -828.254 9        56.503                  
  21751332.345 8 114304018.778 8      1730.484 8        52.666                  
  23538849.121 8 123697489.273 8     -3756.267 8        49.915                  
  24996741.892 7 131358765.007 7     -1954.907 7        47.606                  
  20430221.494 9 107361542.271 9       826.318 9        56.380                  
 02  5 18 00 02 20.0000000  0  7G01G23G10G21G16G07G08                           
  23701288.886 7 124551107.209 7      3332.810 7        47.614                  
  23053082.984 8 121144767.925 8     -2785.075 8        51.413                  
  21328783.112 9 112083531.049 9      -827.907 9        55.134                  
  21751001.232 9 114302288.085 9      1731.457 9        54.640                  
  23539564.847 8 123701246.310 8     -3757.989 8        50.129                  
  24997110.458 7 131360719.191 7     -1958.640 7        47.310                  
  20430062.853 9 107360716.555 9       826.477 9        57.547                  
 02  5 18 00 02 21.0000000  0  7G01G23G10G21G16G07G08                           
  23700653.142 7 124547772.687 7      3332.935 7        47.773                  
  23053611.871 8 121147555.994 8     -2788.572 8        50.232                  
  21328941.896 9 112084360.545 9      -829.149 9        54.550                  
  21750670.833 8 114300556.666 8      1731.698 8        53.482                  
  23540281.359 8 123705003.977 8     -3758.496 8        49.970                  
  24997485.422 7 131362672.161 7     -1951.709 7        46.630                  
  20429904.659 9 107359890.853 9       825.283 9        55.977                  
 02  5 18 00 02 22.0000000  0  7G01G23G10G21G16G07G08                           
  23700018.631 8 124544437.819 8      3334.875 8        48.603                  
  23054145.244 8 121150344.698 8     -2788.756 8        49.433                  
  21329101.073 9 112085190.943 9      -830.399 9        55.931                  
  21750337.165 8 114298825.104 8      1731.292 8        52.594                  
  23540994.494 8 123708762.024 8     -3756.892 8        50.139                  
  24997853.828 7 131364624.835 7     -1951.343 7        46.898                  
  20429746.286 9 107359065.483 9       825.034 9        58.755                  
 02  5 18 00 02 23.0000000  0  7G01G23G10G21G16G07G08                           
  23699385.513 8 124541103.387 8      3333.566 8        48.548                  
  23054672.541 8 121153133.598 8     -2788.484 8        51.126                  
  21329260.090 8 112086021.747 8      -831.321 8        53.918                  
  21750011.323 8 114297094.090 8      1730.718 8        52.324                  
  23541709.344 8 123712520.161 8     -3755.080 8        49.649                  
  24998228.148 7 131366578.239 7     -1956.502 7        47.102                  
  20429587.644 9 107358240.686 9       824.268 9        56.600                  
 02  5 18 00 02 24.0000000  0  7G01G23G10G21G16G07G08                           
  23698750.949 7 124537769.545 7      3332.704 7        47.266                  
  23055207.182 8 121155922.652 8     -2790.053 8        51.329                  
  21329418.534 8 112086852.888 8      -830.995 8        52.153                  
  21749684.839 8 114295363.694 8      1729.639 8        53.773                  
  23542424.069 8 123716278.359 8     -3757.847 8        48.593                  
  24998597.661 7 131368532.538 7     -1956.360 7        47.304                  
  20429429.968 9 107357416.544 9       822.597 9        55.246                  
 02  5 18 00 02 25.0000000  0  7G01G23G10G21G16G07G08                           
  23698115.490 7 124534435.061 7      3336.381 7        47.693                  
  23055735.408 8 121158712.507 8     -2789.930 8        50.503                  
  21329576.818 9 112087685.089 9      -834.069 9        54.977                  
  21749354.994 8 114293632.941 8      1730.508 8        53.378                  
  23543141.153 8 123720037.007 8     -3759.335 8        51.339                  
  24998971.803 7 131370486.234 7     -1951.836 7        46.020                  
  20429271.756 9 107356592.582 9       823.706 9        56.049                  
 02  5 18 00 02 26.0000000  0  7G01G23G10G21G16G07G08                           
  23697479.836 8 124531098.962 8      3339.916 8        48.103                  
  23056268.191 8 121161503.665 8     -2792.180 8        49.663                  
  21329735.799 9 112088518.887 9      -835.781 9        54.172                  
  21749023.202 8 114291901.107 8      1731.859 8        53.419                  
  23543856.111 8 123723796.363 8     -3760.476 8        50.643                  
  24999341.656 7 131372438.132 7     -1953.201 7        45.876                  
  20429113.097 8 107355768.535 8       824.609 8        53.809                  
 02  5 18 00 02 27.0000000  0  7G01G23G10G21G16G07G08                           
  23696846.236 7 124527762.584 7      3336.597 7        46.669                  
  23056798.115 8 121164295.435 8     -2790.966 8        49.718                  
  21329895.030 9 112089353.541 9      -835.643 9        54.847                  
  21748690.034 8 114290169.186 8      1731.033 8        52.419                  
  23544570.443 8 123727556.021 8     -3760.386 8        50.028                  
  24999714.958 7 131374389.887 7     -1953.694 7        47.176                  
  20428954.992 9 107354944.823 9       823.016 9        55.344                  
 02  5 18 00 02 28.0000000  0  7G01G23G10G21G16G07G08                           
  23696211.778 8 124524426.724 8      3336.911 8        48.142                  
  23057330.326 7 121167087.385 7     -2790.856 7        47.714                  
  21330054.010 9 112090188.555 9      -835.398 9        55.083                  
  21748363.299 8 114288437.852 8      1730.501 8        53.584                  
  23545285.490 8 123731315.779 8     -3759.931 8        50.633                  
  25000084.239 7 131376342.439 7     -1953.666 7        47.555                  
  20428798.334 9 107354121.706 9       822.104 9        55.928                  
 02  5 18 00 02 29.0000000  0  7G01G23G10G21G16G07G08                           
  23695576.517 8 124521090.436 8      3338.034 8        48.088                  
  23057861.661 8 121169882.121 8     -2803.422 8        50.112                  
  21330212.312 9 112091024.503 9      -839.321 9        54.630                  
  21748037.064 9 114286706.854 9      1732.649 9        55.193                  
  23546001.287 8 123735071.503 8     -3746.478 8        49.886                  
  25000457.541 7 131378296.777 7     -1953.518 7        47.082                  
  20428642.838 9 107353299.843 9       820.174 9        57.368                  
 02  5 18 00 02 30.0000000  0  7G01G23G10G21G16G07G08                           
  23694938.521 8 124517743.564 8      3350.663 8        48.698                  
  23058396.249 8 121172694.416 8     -2821.320 8        50.810                  
  21330371.525 9 112091867.360 9      -846.695 9        55.048                  
  21747707.131 8 114284970.417 8      1740.013 8        52.232                  
  23546712.796 8 123738807.082 8     -3724.401 8        50.069                  
  25000827.894 7 131380249.749 7     -1950.592 7        47.946                  
  20428487.949 9 107352480.041 9       818.572 9        56.281                  
 02  5 18 00 02 31.0000000  0  7G01G23G10G21G16G07G08                           
  23694300.168 8 124514383.710 8      3364.641 8        49.723                  
  23058937.055 8 121175526.941 8     -2844.967 8        50.561                  
  21330532.525 8 112092718.516 8      -856.014 8        53.977                  
  21747371.676 8 114283226.987 8      1747.528 8        52.380                  
  23547417.889 8 123742520.368 8     -3703.195 8        50.755                  
  25001201.250 7 131382199.788 7     -1945.567 7        45.082                  
  20428332.989 9 107351662.109 9       817.648 9        56.355                  
 02  5 18 00 02 32.0000000  0  7G01G23G10G21G16G07G08                           
  23693659.242 8 124511013.336 8      3367.608 8        48.953                  
  23059475.806 8 121178375.041 8     -2846.326 8        51.614                  
  21330695.419 9 112093576.530 9      -857.388 9        55.185                  
  21747036.792 8 114281477.710 8      1747.981 8        51.105                  
  23548121.750 8 123746217.506 8     -3698.051 8        51.293                  
  25001570.477 7 131384146.561 7     -1946.533 7        45.817                  
  20428178.511 9 107350845.347 9       816.331 9        54.349                  
 02  5 18 00 02 33.0000000  0  7G01G23G10G21G16G07G08                           
  23693018.977 8 124507653.506 8      3352.544 8        49.507                  
  23060018.238 8 121181210.910 8     -2829.505 8        49.664                  
  21330857.187 9 112094429.040 9      -847.388 9        54.129                  
  21746708.038 8 114279735.254 8      1736.873 8        50.408                  
  23548828.434 8 123749926.175 8     -3714.711 8        51.005                  
  25001941.688 7 131386099.381 7     -1958.365 7        45.817                  
  20428023.980 9 107350029.395 9       814.840 9        55.135                  
 02  5 18 00 02 34.0000000  0  7G01G23G10G21G16G07G08                           
  23692381.017 8 124504302.940 8      3354.513 8        49.578                  
  23060555.827 8 121184039.244 8     -2833.927 8        49.191                  
  21331018.491 9 112095276.769 9      -850.388 9        54.186                  
  21746380.481 8 114277999.557 8      1737.025 8        53.064                  
  23549534.511 8 123753638.433 8     -3702.050 8        50.142                  
  25002315.741 7 131388060.694 7     -1961.852 7        47.561                  
  20427870.056 9 107349215.636 9       812.501 9        56.516                  
 02  5 18 00 02 35.0000000  0  7G01G23G10G21G16G07G08                           
  23691742.664 7 124500940.709 7      3366.922 7        47.666                  
  23061095.275 8 121186885.825 8     -2853.083 8        51.356                  
  21331180.545 8 112096132.044 8      -857.892 8        53.824                  
  21746048.474 9 114276257.617 9      1744.727 9        54.774                  
  23550236.227 8 123757330.674 8     -3684.019 8        50.032                  
  25002687.202 7 131390019.369 7     -1956.698 7        47.909                  
  20427716.865 9 107348403.570 9       812.106 9        55.153                  
 02  5 18 00 02 36.0000000  0  7G01G23G10G21G16G07G08                           
  23691103.722 8 124497578.459 8      3357.570 8        48.282                  
  23061641.138 8 121189739.980 8     -2857.415 8        52.129                  
  21331345.762 8 112096988.021 8      -853.986 8        53.815                  
  21745713.055 9 114274517.580 9      1735.536 9        54.290                  
  23550936.389 8 123761008.384 8     -3670.535 8        49.881                  
  25003062.469 8 131391985.292 8     -1976.134 8        48.010                  
  20427563.334 9 107347595.156 9       804.517 9        56.281                  
 02  5 18 00 02 37.0000000  0  7G01G23G10G21G16G07G08                           
  23690458.900 8 124494222.593 8      3354.063 8        51.010                  
  23062184.321 8 121192600.815 8     -2865.226 8        50.891                  
  21331508.727 8 112097840.919 8      -851.781 8        53.571                  
  21745382.371 9 114272785.149 9      1730.256 9        54.091                  
  23551634.318 8 123764664.233 8     -3644.862 8        49.716                  
  25003438.576 7 131393968.818 7     -1991.902 7        47.420                  
  20427411.519 9 107346793.710 9       799.615 9        56.494                  
 02  5 18 00 02 38.0000000  0  7G01G23G10G21G16G07G08                           
  23689825.425 8 124490872.981 8      3346.983 8        48.128                  
  23062730.988 8 121195467.608 8     -2867.692 8        51.022                  
  21331671.568 8 112098690.812 8      -848.317 8        53.774                  
  21745058.137 8 114271060.048 8      1720.441 8        52.631                  
  23552323.651 8 123768299.913 8     -3630.005 8        50.219                  
  25003819.580 7 131395969.010 7     -2007.392 7        45.330                  
  20427259.829 9 107345998.833 9       792.722 9        55.973                  
 02  5 18 00 02 39.0000000  0  7G01G23G10G21G16G07G08                           
  23689190.610 8 124487528.684 8      3343.038 8        48.527                  
  23063277.798 8 121198335.716 8     -2866.480 8        49.346                  
  21331831.996 8 112099538.298 8      -847.455 8        53.940                  
  21744733.136 8 114269340.199 8      1719.816 8        52.857                  
  23553014.450 8 123771926.590 8     -3624.150 8        51.672                  
  25004203.406 7 131397979.460 7     -2007.313 7        46.833                  
  20427109.604 9 107345207.807 9       791.453 9        55.160                  
 02  5 18 00 02 40.0000000  0  7G01G23G10G21G16G07G08                           
  23688554.169 8 124484182.297 8      3348.718 8        50.439                  
  23063820.909 8 121201206.502 8     -2874.382 8        49.772                  
  21331995.372 8 112100387.699 8      -850.918 8        52.350                  
  21744404.757 8 114267619.159 8      1723.749 8        52.671                  
  23553702.979 8 123775551.832 8     -3624.439 8        48.995                  
  25004584.052 7 131399988.602 7     -2008.047 7        47.140                  
  20426959.075 9 107344416.961 9       790.983 9        54.578                  
 02  5 18 00 02 41.0000000  0  7G01G23G10G21G16G07G08                           
  23687914.137 7 124480830.459 7      3350.664 7        47.629                  
  23064370.363 8 121204083.217 8     -2878.997 8        50.051                  
  21332156.980 8 112101241.067 8      -853.654 8        51.636                  
  21744074.323 8 114265894.587 8      1724.991 8        52.312                  
  23554394.224 8 123779173.778 8     -3621.616 8        50.183                  
  25004967.128 7 131401993.679 7     -2001.551 7        44.938                  
  20426808.600 8 107343625.816 8       790.032 8        53.100                  
 02  5 18 00 02 42.0000000  0  7G01G23G10G21G16G07G08                           
  23687276.141 8 124477481.096 8      3346.205 8        48.577                  
  23064917.906 8 121206958.067 8     -2871.392 8        48.886                  
  21332317.944 8 112102093.699 8      -850.622 8        52.805                  
  21743743.728 8 114264171.883 8      1719.050 8        53.729                  
  23555083.629 8 123782797.278 8     -3626.177 8        49.884                  
  25005346.863 7 131404000.905 7     -2009.707 7        46.061                  
  20426658.304 9 107342835.461 9       789.147 9        54.946                  
 02  5 18 00 02 43.0000000  0  7G01G23G10G21G16G07G08                           
  23686641.827 7 124474136.831 7      3341.980 7        46.846                  
  23065462.679 8 121209828.424 8     -2869.125 8        50.767                  
  21332478.426 8 112102944.033 8      -849.558 8        53.695                  
  21743417.976 8 114262452.834 8      1719.372 8        50.900                  
  23555773.194 8 123786424.067 8     -3625.833 8        50.443                  
  25005733.227 7 131406012.270 7     -2008.529 7        47.126                  
  20426508.043 9 107342046.198 9       789.077 9        55.300                  
 02  5 18 00 02 44.0000000  0  7G01G23G10G21G16G07G08                           
  23686006.208 7 124470793.382 7      3341.886 7        46.128                  
  23066008.988 8 121212698.546 8     -2872.158 8        50.924                  
  21332639.783 9 112103794.627 9      -850.672 9        54.211                  
  21743094.511 8 114260734.529 8      1718.000 8        51.317                  
  23556463.725 8 123790051.435 8     -3628.211 8        51.432                  
  25006112.265 7 131408024.441 7     -2013.909 7        46.408                  
  20426358.212 9 107341257.462 9       789.465 9        56.878                  
 02  5 18 00 02 45.0000000  0  7G01G23G10G21G16G07G08                           
  23685367.604 7 124467450.181 7      3342.952 7        46.788                  
  23066556.263 8 121215568.965 8     -2870.199 8        50.115                  
  21332801.337 8 112104645.754 8      -850.395 8        53.645                  
  21742768.383 8 114259016.594 8      1715.701 8        51.902                  
  23557152.647 8 123793679.061 8     -3627.613 8        50.193                  
  25006498.843 7 131410036.995 7     -2013.600 7        46.899                  
  20426208.165 9 107340469.215 9       787.766 9        58.907                  
 02  5 18 00 02 46.0000000  0  7G01G23G10G21G16G07G08                           
  23684732.450 8 124464109.734 8      3336.058 8        48.680                  
  23067102.322 8 121218437.122 8     -2866.513 8        50.124                  
  21332962.801 9 112105496.005 9      -849.637 9        54.673                  
  21742439.343 8 114257300.670 8      1714.469 8        50.929                  
  23557845.626 8 123797308.655 8     -3626.742 8        48.758                  
  25006879.310 7 131412051.810 7     -2013.662 7        45.577                  
  20426058.316 9 107339681.709 9       786.689 9        55.008                  
 02  5 18 00 02 47.0000000  0  7G01G23G10G21G16G07G08                           
  23684097.349 8 124460770.512 8      3338.608 8        48.263                  
  23067648.972 8 121221304.586 8     -2868.495 8        50.173                  
  21333124.319 8 112106346.280 8      -852.586 8        53.258                  
  21742110.410 8 114255585.770 8      1715.609 8        52.900                  
  23558535.853 8 123800939.191 8     -3629.948 8        49.708                  
  25007264.084 7 131414067.718 7     -2013.189 7        47.355                  
  20425908.448 9 107338894.759 9       786.568 9        54.621                  
 02  5 18 00 02 48.0000000  0  7G01G23G10G21G16G07G08                           
  23683462.463 8 124457429.850 8      3342.520 8        48.801                  
  23068192.244 8 121224174.116 8     -2871.724 8        50.137                  
  21333287.964 8 112107198.111 8      -850.641 8        51.612                  
  21741783.460 8 114253870.073 8      1715.689 8        51.771                  
  23559225.507 8 123804568.720 8     -3629.611 8        50.968                  
  25007648.268 7 131416082.779 7     -2016.322 7        47.976                  
  20425758.742 9 107338108.097 9       785.895 9        55.767                  
 02  5 18 00 02 49.0000000  0  7G01G23G10G21G16G07G08                           
  23682826.897 8 124454090.542 8      3336.355 8        48.356                  
  23068737.910 8 121227042.828 8     -2865.296 8        51.087                  
  21333451.340 8 112108049.861 8      -852.349 8        53.167                  
  21741459.888 8 114252155.513 8      1712.724 8        53.134                  
  23559917.503 8 123808199.289 8     -3633.885 8        51.001                  
  25008031.130 8 131418099.024 8     -2016.916 8        48.181                  
  20425609.035 9 107337322.031 9       784.920 9        55.248                  
 02  5 18 00 02 50.0000000  0  7G01G23G10G21G16G07G08                           
  23682189.974 7 124450752.974 7      3337.496 7        47.554                  
  23069284.809 8 121229907.985 8     -2866.458 8        50.412                  
  21333613.931 8 112108901.306 8      -852.666 8        53.056                  
  21741136.423 9 114250441.695 9      1716.124 9        54.044                  
  23560608.159 8 123811835.943 8     -3645.510 8        48.624                  
  25008416.368 8 131420114.431 8     -2013.119 8        49.037                  
  20425459.400 9 107336535.531 9       789.675 9        55.787                  
 02  5 18 00 02 51.0000000  0  7G01G23G10G21G16G07G08                           
  23681555.499 8 124447409.155 8      3347.588 8        48.920                  
  23069827.170 8 121232769.020 8     -2861.538 8        49.572                  
  21333775.842 9 112109757.157 9      -858.202 9        54.410                  
  21740808.652 9 114248721.147 9      1723.999 9        54.145                  
  23561304.104 8 123815491.265 8     -3662.874 8        49.686                  
  25008793.583 8 131422114.462 8     -1992.408 8        48.500                  
  20425308.389 9 107335743.779 9       795.523 9        56.349                  
 02  5 18 00 02 52.0000000  0  7G01G23G10G21G16G07G08                           
  23680918.789 8 124444057.426 8      3358.687 8        48.908                  
  23070372.514 8 121235625.812 8     -2856.551 8        50.093                  
  21333941.523 9 112110618.347 9      -865.482 9        55.334                  
  21740476.466 8 114246992.302 8      1732.344 8        52.823                  
  23562005.266 8 123819167.964 8     -3686.680 8        49.476                  
  25009172.782 7 131424096.001 7     -1970.848 7        47.742                  
  20425156.681 9 107334945.697 9       801.024 9        57.358                  
 02  5 18 00 02 53.0000000  0  7G01G23G10G21G16G07G08                           
  23680278.846 8 124440702.452 8      3347.742 8        49.070                  
  23070915.304 8 121238478.587 8     -2842.931 8        49.874                  
  21334105.740 9 112111482.149 9      -858.842 9        55.903                  
  21740144.371 8 114245259.515 8      1726.899 8        52.818                  
  23562705.839 8 123822858.796 8     -3698.300 8        51.403                  
  25009541.044 7 131426067.547 7     -1981.319 7        45.832                  
  20425004.901 9 107334144.150 9       800.335 9        57.629                  
 02  5 18 00 02 54.0000000  0  7G01G23G10G21G16G07G08                           
  23679644.210 8 124437367.500 8      3323.503 8        48.872                  
  23071452.947 8 121241309.454 8     -2820.104 8        50.713                  
  21334266.829 8 112112334.760 8      -845.773 8        52.283                  
  21739819.262 8 114243539.917 8      1712.009 8        53.006                  
  23563411.541 8 123826567.670 8     -3716.964 8        51.840                  
  25009927.158 7 131428052.313 7     -1990.215 7        46.677                  
  20424853.658 8 107333344.529 8       797.598 8        53.806                  
 02  5 18 00 02 55.0000000  0  7G01G23G10G21G16G07G08                           
  23679013.648 8 124434053.632 8      3303.541 8        50.097                  
  23071988.106 8 121244116.631 8     -2796.144 8        49.821                  
  21334425.488 8 112113175.531 8      -833.632 8        52.936                  
  21739498.477 8 114241834.068 8      1698.930 8        52.775                  
  23564122.245 8 123830296.643 8     -3734.360 8        50.334                  
  25010304.034 7 131430050.414 7     -2007.153 7        47.800                  
  20424702.093 9 107332546.685 9       795.965 9        54.561                  
 02  5 18 00 02 56.0000000  0  7G01G23G10G21G16G07G08                           
  23678386.570 8 124430753.945 8      3300.394 8        48.599                  
  23072518.548 8 121246909.190 8     -2791.202 8        49.068                  
  21334583.593 8 112114008.552 8      -834.498 8        51.510                  
  21739176.138 8 114240137.810 8      1696.202 8        53.701                  
  23564833.986 8 123834036.819 8     -3739.872 8        50.817                  
  25010689.183 7 131432058.742 7     -2009.583 7        47.604                  
  20424551.207 9 107331750.713 9       796.473 9        56.048                  
 02  5 18 00 02 57.0000000  0  7G01G23G10G21G16G07G08                           
  23677758.724 8 124427455.236 8      3299.584 8        49.655                  
  23073052.350 8 121249701.585 8     -2791.990 8        50.145                  
  21334741.734 8 112114841.704 8      -832.801 8        52.548                  
  21738852.226 9 114238442.451 9      1694.688 9        54.965                  
  23565544.941 8 123837777.118 8     -3743.196 8        48.561                  
  25011068.578 7 131434068.353 7     -2008.410 7        45.973                  
  20424400.106 9 107330955.430 9       795.492 9        56.557                  
 02  5 18 00 02 58.0000000  0  7G01G23G10G21G16G07G08                           
  23677130.092 8 124424156.987 8      3300.665 8        48.371                  
  23073581.559 8 121252494.405 8     -2791.912 8        49.284                  
  21334900.393 9 112115675.286 9      -833.703 9        54.367                  
  21738526.813 9 114236747.675 9      1695.587 9        54.268                  
  23566256.754 8 123841517.082 8     -3742.258 8        49.294                  
  25011453.298 7 131436078.881 7     -2009.050 7        45.706                  
  20424249.220 9 107330160.830 9       794.486 9        56.169                  
 02  5 18 00 02 59.0000000  0  7G01G23G10G21G16G07G08                           
  23676501.853 8 124420858.847 8      3300.296 8        49.083                  
  23074114.252 8 121255287.601 8     -2795.447 8        50.044                  
  21335058.856 9 112116509.456 9      -834.487 9        54.056                  
  21738202.526 8 114235053.164 8      1694.065 8        51.327                  
  23566969.442 8 123845257.260 8     -3741.666 8        48.090                  
  25011834.837 7 131438089.737 7     -2008.693 7        47.274                  
  20424098.334 9 107329366.694 9       794.595 9        57.531                  
 02  5 18 00 03  0.0000000  0  7G01G23G10G21G16G07G08                           
  23675875.043 8 124417560.843 8      3296.174 8        49.469                  
  23074645.284 8 121258081.152 8     -2795.679 8        51.409                  
  21335217.318 9 112117344.230 9      -835.866 9        54.166                  
  21737880.901 8 114233358.887 8      1694.719 8        51.861                  
  23567680.986 8 123848997.726 8     -3743.573 8        49.988                  
  25012217.592 7 131440100.866 7     -2017.764 7        44.865                  
  20423947.466 9 107328572.973 9       792.606 9        55.084                  
 02  5 18 00 03  1.0000000  0  7G01G23G10G21G16G07G08                           
  23675248.484 8 124414262.962 8      3299.020 8        48.284                  
  23075177.691 8 121260875.086 8     -2794.179 8        51.537                  
  21335376.370 9 112118179.600 9      -835.230 9        54.719                  
  21737561.546 8 114231664.863 8      1694.563 8        53.358                  
  23568391.798 8 123852738.407 8     -3740.676 8        50.959                  
  25012601.204 7 131442112.292 7     -2013.794 7        47.672                  
  20423796.920 9 107327779.720 9       792.215 9        56.961                  
 02  5 18 00 03  2.0000000  0  7G01G23G10G21G16G07G08                           
  23674620.924 8 124410965.195 8      3298.086 8        48.806                  
  23075709.152 8 121263669.371 8     -2795.216 8        50.316                  
  21335536.423 9 112119015.592 9      -836.790 9        54.419                  
  21737241.065 8 114229971.103 8      1693.269 8        53.855                  
  23569103.986 8 123856479.340 8     -3743.544 8        49.676                  
  25012982.332 7 131444124.019 7     -2011.729 7        47.718                  
  20423646.159 9 107326986.942 9       792.207 9        57.802                  
 02  5 18 00 03  3.0000000  0  7G01G23G10G21G16G07G08                           
  23673992.631 8 124407667.401 8      3297.630 8        48.722                  
  23076239.969 8 121266463.994 8     -2793.366 8        48.559                  
  21335696.851 9 112119852.271 9      -835.793 9        56.025                  
  21736918.923 9 114228277.424 9      1694.746 9        54.799                  
  23569816.888 8 123860220.793 8     -3742.474 8        50.388                  
  25013367.624 7 131446135.714 7     -2011.831 7        47.675                  
  20423495.398 9 107326194.486 9       792.606 9        58.352                  
 02  5 18 00 03  4.0000000  0  7G01G23G10G21G16G07G08                           
  23673363.141 8 124404363.221 8      3312.028 8        48.267                  
  23076774.396 8 121269264.553 8     -2811.264 8        48.251                  
  21335857.905 9 112120693.447 9      -848.127 9        56.495                  
  21736593.885 8 114226579.365 8      1703.997 8        53.428                  
  23570527.807 8 123863960.263 8     -3736.162 8        51.565                  
  25013746.322 7 131448141.759 7     -2001.576 7        44.624                  
  20423344.655 9 107325401.231 9       794.837 9        57.567                  
 02  5 18 00 03  5.0000000  0  7G01G23G10G21G16G07G08                           
  23672730.024 7 124401035.227 7      3342.441 7        47.636                  
  23077309.716 8 121272087.261 8     -2833.099 8        49.292                  
  21336021.013 9 112121549.417 9      -863.859 9        55.968                  
  21736264.237 8 114224864.775 8      1724.520 8        51.673                  
  23571236.350 8 123867689.107 8     -3722.092 8        50.672                  
  25014128.005 7 131450127.493 7     -1974.405 7        46.776                  
  20423193.518 9 107324604.363 9       798.639 9        56.096                  
 02  5 18 00 03  6.0000000  0  7G01G23G10G21G16G07G08                           
  23672093.029 7 124397682.208 7      3363.694 7        47.968                  
  23077854.828 8 121274933.674 8     -2854.207 8        49.173                  
  21336187.088 9 112122420.939 9      -876.796 9        54.659                  
  21735934.554 8 114223132.919 8      1739.035 8        53.034                  
  23571945.053 8 123871405.806 8     -3714.320 8        49.359                  
  25014498.322 8 131452092.287 8     -1959.000 8        48.207                  
  20423041.417 9 107323803.873 9       802.033 9        58.206                  
 02  5 18 00 03  7.0000000  0  7G01G23G10G21G16G07G08                           
  23671452.728 8 124394319.631 8      3361.110 8        48.908                  
  23078395.045 8 121277785.051 8     -2847.471 8        50.171                  
  21336354.878 9 112123298.830 9      -878.847 9        54.901                  
  21735607.301 9 114221393.525 9      1742.471 9        54.641                  
  23572653.542 8 123875127.088 8     -3732.786 8        51.682                  
  25014873.322 7 131454044.847 7     -1944.901 7        47.414                  
  20422888.673 9 107323000.329 9       806.343 9        57.009                  
 02  5 18 00 03  8.0000000  0  7G01G23G10G21G16G07G08                           
  23670811.123 8 124390952.053 8      3368.066 8        48.280                  
  23078937.066 8 121280629.824 8     -2842.566 8        50.208                  
  21336519.845 9 112124180.263 9      -883.510 9        56.526                  
  21735278.100 9 114219647.947 9      1749.036 9        54.372                  
  23573365.015 8 123878870.260 8     -3750.153 8        48.558                  
  25015238.368 7 131455981.935 7     -1928.996 7        47.411                  
  20422734.606 9 107322191.243 9       812.139 9        56.083                  
 02  5 18 00 03  9.0000000  0  7G01G23G10G21G16G07G08                           
  23670170.161 8 124387579.275 8      3373.897 8        48.431                  
  23079477.353 8 121283469.395 8     -2840.652 8        50.653                  
  21336687.331 9 112125065.332 9      -886.715 9        55.061                  
  21734940.089 8 114217896.368 8      1754.046 8        53.392                  
  23574080.705 8 123882632.783 8     -3768.962 8        48.778                  
  25015608.006 7 131457904.565 7     -1918.065 7        47.977                  
  20422578.788 9 107321377.155 9       815.178 9        55.852                  
 02  5 18 00 03 10.0000000  0  7G01G23G10G21G16G07G08                           
  23669528.324 7 124384204.581 7      3376.251 7        47.909                  
  23080015.586 8 121286308.948 8     -2840.480 8        51.991                  
  21336855.747 9 112125952.177 9      -887.813 9        55.224                  
  21734604.473 8 114216143.098 8      1752.923 8        52.852                  
  23574797.342 8 123886399.236 8     -3767.789 8        50.973                  
  25015969.229 7 131459823.555 7     -1917.704 7        46.818                  
  20422422.774 9 107320562.194 9       814.302 9        55.275                  
 02  5 18 00 03 11.0000000  0  7G01G23G10G21G16G07G08                           
  23668885.003 8 124380829.647 8      3374.064 8        49.885                  
  23080557.089 8 121289149.199 8     -2842.043 8        50.001                  
  21337024.377 9 112126839.870 9      -888.575 9        56.270                  
  21734273.235 8 114214389.820 8      1753.264 8        51.158                  
  23575515.087 8 123890165.763 8     -3768.988 8        49.208                  
  25016335.758 8 131461742.487 8     -1920.545 8        48.773                  
  20422266.527 9 107319747.647 9       813.957 9        55.727                  
 02  5 18 00 03 12.0000000  0  7G01G23G10G21G16G07G08                           
  23668242.791 7 124377454.769 7      3378.223 7        47.292                  
  23081097.020 8 121291989.898 8     -2840.390 8        48.976                  
  21337195.615 8 112127728.180 8      -886.605 8        53.645                  
  21733942.980 8 114212636.785 8      1752.946 8        52.819                  
  23576231.564 7 123893932.452 7     -3769.070 7        47.467                  
  25016702.824 7 131463661.707 7     -1919.613 7        47.600                  
  20422110.656 9 107318933.567 9       813.558 9        57.013                  
 02  5 18 00 03 13.0000000  0  7G01G23G10G21G16G07G08                           
  23667601.793 7 124374080.026 7      3374.293 7        47.681                  
  23081638.147 8 121294830.988 8     -2842.064 8        50.436                  
  21337366.140 9 112128617.077 9      -890.454 9        55.758                  
  21733607.936 8 114210884.026 8      1752.491 8        52.784                  
  23576947.415 7 123897699.336 7     -3766.648 7        47.733                  
  25017064.779 7 131465581.290 7     -1917.335 7        47.655                  
  20421955.231 9 107318119.988 9       812.360 9        56.414                  
 02  5 18 00 03 14.0000000  0  7G01G23G10G21G16G07G08                           
  23666960.063 7 124370705.451 7      3372.339 7        47.644                  
  23082182.491 7 121297672.438 7     -2841.603 7        47.654                  
  21337535.020 9 112129506.570 9      -890.120 9        54.895                  
  21733271.158 9 114209131.554 9      1752.308 9        54.125                  
  23577663.820 8 123901466.397 8     -3767.145 8        49.270                  
  25017432.880 7 131467501.200 7     -1918.798 7        47.042                  
  20421799.163 9 107317306.920 9       812.983 9        55.788                  
 02  5 18 00 03 15.0000000  0  7G01G23G10G21G16G07G08                           
  23666316.456 8 124367331.029 8      3375.086 8        48.857                  
  23082718.848 8 121300514.236 8     -2843.044 8        50.953                  
  21337704.775 9 112130396.656 9      -889.745 9        56.700                  
  21732937.115 8 114207379.369 8      1751.458 8        52.064                  
  23578382.101 8 123905233.647 8     -3767.644 8        48.011                  
  25017797.962 7 131469421.461 7     -1918.171 7        45.975                  
  20421643.756 9 107316494.354 9       812.887 9        57.645                  
 02  5 18 00 03 16.0000000  0  7G01G23G10G21G16G07G08                           
  23665675.351 7 124363956.738 7      3373.692 7        47.736                  
  23083260.958 8 121303356.434 8     -2843.392 8        49.012                  
  21337872.566 9 112131287.340 9      -890.781 9        55.725                  
  21732607.199 8 114205627.468 8      1752.617 8        53.378                  
  23579099.792 8 123909001.076 8     -3765.679 8        49.610                  
  25018164.778 7 131471342.040 7     -1920.334 7        45.017                  
  20421488.492 9 107315682.252 9       811.741 9        58.569                  
 02  5 18 00 03 17.0000000  0  7G01G23G10G21G16G07G08                           
  23665032.853 7 124360582.520 7      3372.006 7        46.609                  
  23083801.961 8 121306199.063 8     -2843.875 8        48.778                  
  21338040.785 9 112132178.657 9      -891.472 9        55.254                  
  21732275.657 9 114203875.795 9      1751.222 9        54.366                  
  23579815.858 8 123912768.663 8     -3766.945 8        49.378                  
  25018526.197 7 131473262.938 7     -1922.499 7        47.104                  
  20421333.460 9 107314870.628 9       810.952 9        57.194                  
 02  5 18 00 03 18.0000000  0  7G01G23G10G21G16G07G08                           
  23664390.050 7 124357208.073 7      3377.138 7        47.203                  
  23084342.302 8 121309042.371 8     -2843.105 8        51.149                  
  21338210.183 9 112133070.795 9      -892.191 9        55.857                  
  21731939.291 8 114202124.144 8      1752.691 8        53.090                  
  23580532.441 8 123916536.357 8     -3768.488 8        50.830                  
  25018894.352 8 131475183.830 8     -1919.380 8        48.047                  
  20421178.143 9 107314059.433 9       811.657 9        56.697                  
 02  5 18 00 03 19.0000000  0  7G01G23G10G21G16G07G08                           
  23663747.588 7 124353831.949 7      3374.750 7        47.624                  
  23084886.182 8 121311889.368 8     -2851.561 8        49.301                  
  21338380.832 9 112133964.628 9      -894.853 9        54.075                  
  21731603.371 8 114200371.927 8      1752.801 8        53.930                  
  23581248.256 8 123920300.001 8     -3755.174 8        50.035                  
  25019259.077 7 131477105.094 7     -1921.419 7        47.806                  
  20421022.468 9 107313249.170 9       808.415 9        58.447                  
 02  5 18 00 03 20.0000000  0  7G01G23G10G21G16G07G08                           
  23663105.625 7 124350451.696 7      3383.008 7        47.645                  
  23085428.614 8 121314750.099 8     -2869.597 8        50.142                  
  21338553.429 8 112134861.726 8      -897.581 8        53.407                  
  21731271.686 8 114198619.300 8      1753.246 8        53.556                  
  23581961.749 8 123924042.397 8     -3732.696 8        50.577                  
  25019626.160 7 131479032.178 7     -1929.139 7        46.328                  
  20420868.187 9 107312442.766 9       804.322 9        56.874                  
 02  5 18 00 03 21.0000000  0  7G01G23G10G21G16G07G08                           
  23662461.661 8 124347067.412 8      3387.526 8        48.736                  
  23085976.192 8 121317625.526 8     -2879.934 8        51.006                  
  21338726.097 9 112135762.056 9      -901.820 9        54.544                  
  21730941.073 8 114196866.595 8      1754.224 8        52.146                  
  23582668.576 8 123927761.352 8     -3712.083 8        49.812                  
  25019994.387 7 131480966.256 7     -1935.147 7        45.909                  
  20420714.602 9 107311640.795 9       799.696 9        55.179                  
 02  5 18 00 03 22.0000000  0  7G01G23G10G21G16G07G08                           
  23661813.677 8 124343671.981 8      3403.840 8        48.011                  
  23086526.415 8 121320512.267 8     -2896.202 8        49.470                  
  21338898.212 9 112136669.721 9      -913.796 9        55.056                  
  21730605.850 9 114195106.426 9      1769.390 9        54.524                  
  23583374.080 8 123931473.961 8     -3713.115 8        49.567                  
  25020365.777 8 131482891.569 8     -1911.870 8        48.527                  
  20420561.554 9 107310837.691 9       804.878 9        56.262                  
 02  5 18 00 03 23.0000000  0  7G01G23G10G21G16G07G08                           
  23661164.674 8 124340252.667 8      3430.919 8        48.531                  
  23087077.514 8 121323414.967 8     -2911.736 8        50.629                  
  21339071.881 9 112137592.242 9      -929.833 9        55.844                  
  21730262.622 8 114193328.196 8      1787.525 8        53.068                  
  23584082.265 8 123935188.907 8     -3717.087 8        49.278                  
  25020723.926 7 131484790.268 7     -1885.187 7        46.810                  
  20420407.184 9 107310028.224 9       811.981 9        58.915                  
 02  5 18 00 03 24.0000000  0  7G01G23G10G21G16G07G08                           
  23660509.989 7 124336813.746 7      3440.849 7        46.506                  
  23087632.579 8 121326331.011 8     -2917.601 8        51.135                  
  21339249.249 9 112138527.053 9      -936.840 9        55.854                  
  21729923.611 8 114191535.225 8      1794.036 8        53.237                  
  23584790.057 8 123938905.397 8     -3715.555 8        51.287                  
  25021079.144 7 131486667.394 7     -1868.375 7        46.748                  
  20420252.492 9 107309213.733 9       814.946 9        56.781                  
 02  5 18 00 03 25.0000000  0  7G01G23G10G21G16G07G08                           
  23659854.035 7 124333372.018 7      3441.131 7        47.965                  
  23088190.271 8 121329249.865 8     -2921.240 8        50.928                  
  21339426.706 8 112139464.216 8      -937.472 8        53.868                  
  21729586.030 8 114189740.436 8      1794.354 8        52.402                  
  23585496.295 8 123942621.280 8     -3716.531 8        50.083                  
  25021437.686 7 131488542.020 7     -1875.462 7        47.584                  
  20420098.800 9 107308399.102 9       814.761 9        55.944                  
 02  5 18 00 03 26.0000000  0  7G01G23G10G21G16G07G08                           
  23659200.797 8 124329930.281 8      3442.303 8        49.863                  
  23088743.907 8 121332169.357 8     -2917.504 8        49.804                  
  21339608.255 8 112140402.095 8      -938.217 8        53.975                  
  21729241.229 8 114187945.859 8      1793.399 8        53.677                  
  23586202.979 8 123946337.071 8     -3715.597 8        49.208                  
  25021794.066 7 131490416.944 7     -1877.411 7        47.279                  
  20419944.680 9 107307584.986 9       813.685 9        56.119                  
 02  5 18 00 03 27.0000000  0  7G01G23G10G21G16G07G08                           
  23658545.165 8 124326488.673 8      3444.183 8        49.209                  
  23089298.937 8 121335089.268 8     -2919.000 8        50.633                  
  21339787.910 9 112141340.570 9      -939.316 9        57.045                  
  21728896.660 9 114186151.547 9      1794.054 9        54.039                  
  23586911.396 8 123950053.003 8     -3716.746 8        50.057                  
  25022148.122 7 131492292.195 7     -1879.242 7        47.319                  
  20419790.738 9 107306771.369 9       813.009 9        56.098                  
 02  5 18 00 03 28.0000000  0  7G01G23G10G21G16G07G08                           
  23657889.532 7 124323047.234 7      3438.039 7        47.476                  
  23089856.236 8 121338009.549 8     -2921.465 8        49.907                  
  21339964.796 9 112142279.666 9      -939.258 9        55.497                  
  21728559.472 9 114184357.563 9      1794.428 9        54.375                  
  23587618.223 8 123953769.100 8     -3713.478 8        50.462                  
  25022507.611 8 131494167.770 8     -1875.925 8        48.306                  
  20419636.475 9 107305958.280 9       812.868 9        56.390                  
 02  5 18 00 03 29.0000000  0  7G01G23G10G21G16G07G08                           
  23657235.848 7 124319605.942 7      3442.312 7        47.392                  
  23090411.534 8 121340930.213 8     -2920.795 8        50.099                  
  21340142.092 9 112143219.381 9      -940.039 9        56.413                  
  21728219.996 8 114182563.878 8      1793.771 8        53.710                  
  23588323.925 8 123957485.395 8     -3716.915 8        50.647                  
  25022862.740 7 131496043.692 7     -1873.908 7        46.130                  
  20419482.265 9 107305145.691 9       811.271 9        57.032                  
 02  5 18 00 03 30.0000000  0  7G01G23G10G21G16G07G08                           
  23656579.751 8 124316164.817 8      3440.308 8        48.988                  
  23090966.117 8 121343851.260 8     -2919.071 8        49.525                  
  21340320.139 9 112144159.680 9      -941.448 9        57.384                  
  21727873.480 8 114180770.496 8      1794.894 8        53.798                  
  23589031.913 8 123961201.852 8     -3719.411 8        49.244                  
  25023219.245 7 131497919.966 7     -1876.484 7        45.411                  
  20419328.806 9 107304333.565 9       811.302 9        57.209                  
 02  5 18 00 03 31.0000000  0  7G01G23G10G21G16G07G08                           
  23655925.548 8 124312723.874 8      3442.086 8        49.256                  
  23091523.273 8 121346772.663 8     -2920.649 8        49.899                  
  21340501.992 9 112145100.587 9      -941.326 9        57.277                  
  21727532.236 8 114178977.447 8      1791.794 8        53.449                  
  23589740.349 8 123964918.496 8     -3716.423 8        52.035                  
  25023580.986 7 131499796.569 7     -1874.301 7        45.576                  
  20419174.972 9 107303521.952 9       810.049 9        56.515                  
 02  5 18 00 03 32.0000000  0  7G01G23G10G21G16G07G08                           
  23655270.952 7 124309283.091 7      3442.836 7        47.920                  
  23092079.768 8 121349694.456 8     -2923.192 8        50.614                  
  21340682.237 9 112146042.089 9      -941.837 9        55.290                  
  21727195.690 8 114177184.693 8      1793.660 8        52.930                  
  23590445.996 8 123968635.324 8     -3713.823 8        50.272                  
  25023933.148 7 131501673.520 7     -1876.294 7        45.310                  
  20419021.745 9 107302710.840 9       809.990 9        57.302                  
 02  5 18 00 03 33.0000000  0  7G01G23G10G21G16G07G08                           
  23654614.873 7 124305842.450 7      3441.151 7        47.608                  
  23092634.440 8 121352616.608 8     -2922.162 8        51.285                  
  21340860.534 9 112146984.202 9      -943.368 9        54.971                  
  21726853.499 9 114175392.252 9      1791.706 9        54.117                  
  23591153.360 8 123972352.331 8     -3719.481 8        49.858                  
  25024292.602 7 131503550.817 7     -1877.156 7        47.102                  
  20418868.071 9 107301900.228 9       811.189 9        56.093                  
 02  5 18 00 03 34.0000000  0  7G01G23G10G21G16G07G08                           
  23653962.189 7 124302401.975 7      3440.408 7        47.274                  
  23093191.185 8 121355539.146 8     -2922.880 8        50.840                  
  21341037.581 8 112147926.908 8      -943.082 8        53.626                  
  21726508.090 9 114173600.118 9      1790.142 9        54.316                  
  23591861.723 8 123976069.527 8     -3718.322 8        50.306                  
  25024649.303 7 131505428.457 7     -1875.520 7        46.993                  
  20418714.255 9 107301090.107 9       809.657 9        58.054                  
 02  5 18 00 03 35.0000000  0  7G01G23G10G21G16G07G08                           
  23653306.610 8 124298961.676 8      3440.518 8        48.561                  
  23093747.609 7 121358462.072 7     -2922.789 7        47.455                  
  21341216.485 9 112148870.212 9      -943.777 9        54.578                  
  21726170.259 8 114171808.294 8      1791.077 8        53.372                  
  23592569.140 8 123979786.900 8     -3717.460 8        48.383                  
  25025004.825 7 131507306.434 7     -1881.484 7        45.746                  
  20418561.046 9 107300280.497 9       809.586 9        56.793                  
 02  5 18 00 03 36.0000000  0  7G01G23G10G21G16G07G08                           
  23652651.979 8 124295521.523 8      3439.647 8        48.010                  
  23094304.568 8 121361385.358 8     -2922.090 8        48.974                  
  21341398.338 8 112149814.122 8      -944.389 8        53.927                  
  21725832.177 8 114170016.778 8      1791.061 8        53.562                  
  23593276.021 8 123983504.454 8     -3717.398 8        48.272                  
  25025366.333 7 131509184.730 7     -1879.489 7        45.207                  
  20418407.676 9 107299471.379 9       807.612 9        54.619                  
 02  5 18 00 03 37.0000000  0  7G01G23G10G21G16G07G08                           
  23651997.972 8 124292081.552 8      3435.496 8        48.153                  
  23094859.419 8 121364309.028 8     -2922.566 8        51.849                  
  21341579.887 9 112150758.630 9      -945.933 9        55.965                  
  21725487.197 8 114168225.579 8      1791.495 8        53.988                  
  23593983.295 8 123987222.185 8     -3715.801 8        48.592                  
  25025718.925 7 131511063.361 7     -1875.307 7        45.587                  
  20418254.520 9 107298662.732 9       808.308 9        57.858                  
 02  5 18 00 03 38.0000000  0  7G01G23G10G21G16G07G08                           
  23651341.983 7 124288641.740 7      3442.991 7        47.944                  
  23095417.076 8 121367233.063 8     -2924.351 8        52.175                  
  21341758.721 9 112151703.745 9      -945.324 9        57.477                  
  21725144.827 9 114166434.699 9      1791.000 9        54.414                  
  23594692.373 8 123990940.122 8     -3719.357 8        49.399                  
  25026078.414 7 131512942.347 7     -1877.316 7        45.153                  
  20418101.990 9 107297854.608 9       807.327 9        56.998                  
 02  5 18 00 03 39.0000000  0  7G01G23G10G21G16G07G08                           
  23650687.101 8 124285202.073 8      3438.417 8        50.734                  
  23095971.105 8 121370157.470 8     -2924.499 8        51.218                  
  21341937.715 9 112152649.455 9      -947.432 9        55.266                  
  21724807.692 8 114164644.112 8      1791.287 8        53.550                  
  23595398.896 8 123994658.223 8     -3717.913 8        50.033                  
  25026437.706 7 131514821.660 7     -1880.467 7        45.449                  
  20417949.389 9 107297046.992 9       807.943 9        57.535                  
 02  5 18 00 03 40.0000000  0  7G01G23G10G21G16G07G08                           
  23650033.756 8 124281762.589 8      3439.633 8        48.909                  
  23096528.940 8 121373082.258 8     -2925.336 8        51.540                  
  21342115.779 9 112153595.786 9      -945.307 9        55.370                  
  21724468.002 8 114162853.825 8      1790.549 8        53.875                  
  23596105.723 8 123998376.493 8     -3718.250 8        51.381                  
  25026792.317 7 131516701.314 7     -1877.304 7        45.891                  
  20417796.037 9 107296239.885 9       808.149 9        55.935                  
 02  5 18 00 03 41.0000000  0  7G01G23G10G21G16G07G08                           
  23649377.534 8 124278323.288 8      3438.647 8        48.588                  
  23097085.239 8 121376007.398 8     -2924.239 8        50.932                  
  21342298.955 9 112154542.690 9      -947.327 9        54.573                  
  21724123.005 8 114161063.864 8      1789.679 8        52.725                  
  23596814.248 8 124002094.951 8     -3717.072 8        50.531                  
  25027154.898 7 131518581.319 7     -1880.114 7        46.036                  
  20417643.185 9 107295433.268 9       805.713 9        55.895                  
 02  5 18 00 03 42.0000000  0  7G01G23G10G21G16G07G08                           
  23648724.671 7 124274884.120 7      3444.599 7        47.508                  
  23097642.341 8 121378932.929 8     -2925.507 8        51.082                  
  21342480.165 9 112155490.200 9      -946.970 9        55.914                  
  21723784.297 8 114159274.215 8      1789.666 8        52.404                  
  23597522.558 8 124005813.593 8     -3721.486 8        48.907                  
  25027510.420 7 131520461.656 7     -1879.931 7        45.514                  
  20417488.672 9 107294627.125 9       805.697 9        56.488                  
 02  5 18 00 03 43.0000000  0  7G01G23G10G21G16G07G08                           
  23648069.611 7 124271445.132 7      3435.065 7        47.701                  
  23098200.927 8 121381858.825 8     -2926.761 8        49.688                  
  21342659.570 9 112156438.307 9      -948.925 9        56.001                  
  21723447.967 8 114157484.856 8      1790.060 8        53.285                  
  23598228.849 8 124009532.411 8     -3719.219 8        49.954                  
  25027867.353 7 131522342.334 7     -1880.400 7        46.352                  
  20417335.141 9 107293821.523 9       804.945 9        58.070                  
 02  5 18 00 03 44.0000000  0  7G01G23G10G21G16G07G08                           
  23647414.443 8 124268006.301 8      3437.919 8        50.355                  
  23098755.635 8 121384785.104 8     -2926.514 8        50.558                  
  21342838.045 9 112157387.023 9      -949.259 9        54.816                  
  21723105.435 8 114155695.841 8      1788.101 8        53.559                  
  23598936.427 8 124013251.417 8     -3717.573 8        51.712                  
  25028227.825 7 131524223.357 7     -1879.280 7        46.611                  
  20417181.861 9 107293016.410 9       805.434 9        56.793                  
 02  5 18 00 03 45.0000000  0  7G01G23G10G21G16G07G08                           
  23646762.742 8 124264567.636 8      3435.662 8        49.628                  
  23099313.452 8 121387711.755 8     -2925.468 8        50.794                  
  21343017.897 9 112158336.346 9      -950.033 9        55.355                  
  21722760.170 9 114153907.123 9      1789.023 9        55.760                  
  23599645.684 8 124016970.602 8     -3716.888 8        51.152                  
  25028582.096 7 131526104.688 7     -1879.629 7        46.017                  
  20417028.294 9 107292211.802 9       804.618 9        54.412                  
 02  5 18 00 03 46.0000000  0  7G01G23G10G21G16G07G08                           
  23646108.664 8 124261129.144 8      3434.533 8        49.158                  
  23099872.091 8 121390638.769 8     -2927.211 8        50.721                  
  21343201.305 9 112159286.265 9      -950.683 9        55.292                  
  21722423.250 9 114152118.710 9      1789.259 9        55.608                  
  23600352.583 8 124020689.990 8     -3718.788 8        50.738                  
  25028943.497 7 131527986.389 7     -1885.058 7        45.459                  
  20416874.674 9 107291407.700 9       804.089 9        55.336                  
 02  5 18 00 03 47.0000000  0  7G01G23G10G21G16G07G08                           
  23645452.156 7 124257690.846 7      3440.990 7        47.433                  
  23100427.586 8 121393566.098 8     -2927.904 8        51.770                  
  21343383.372 9 112160236.758 9      -951.151 9        57.148                  
  21722086.526 9 114150330.630 9      1788.519 9        55.121                  
  23601059.463 8 124024409.633 8     -3717.974 8        50.866                  
  25029300.521 7 131529868.426 7     -1882.371 7        47.610                  
  20416720.715 9 107290604.099 9       803.529 9        56.341                  
 02  5 18 00 03 48.0000000  0  7G01G23G10G21G16G07G08                           
  23644799.847 8 124254252.950 8      3436.177 8        48.088                  
  23100983.473 8 121396493.471 8     -2928.976 8        50.355                  
  21343562.259 9 112161187.713 9      -950.253 9        56.241                  
  21721743.387 8 114148542.978 8      1787.212 8        53.701                  
  23601768.846 8 124028129.788 8     -3721.072 8        50.400                  
  25029656.722 7 131531750.871 7     -1881.210 7        47.443                  
  20416566.881 9 107289800.965 9       803.233 9        56.282                  
 02  5 18 00 03 49.0000000  0  7G01G23G10G21G16G07G08                           
  23644144.573 7 124250819.773 7      3428.466 7        47.833                  
  23101540.951 8 121399417.718 8     -2918.875 8        51.073                  
  21343741.896 9 112162136.529 9      -943.324 9        54.866                  
  21721400.748 9 114146759.008 9      1777.611 9        54.413                  
  23602476.799 8 124031850.772 8     -3720.480 8        49.523                  
  25030022.340 7 131533638.307 7     -1898.631 7        45.120                  
  20416414.118 9 107288999.403 9       798.887 9        56.856                  
 02  5 18 00 03 50.0000000  0  7G01G23G10G21G16G07G08                           
  23643496.088 8 124247408.377 8      3396.821 8        48.877                  
  23102094.623 8 121402328.138 8     -2904.312 8        49.091                  
  21343919.765 9 112163073.190 9      -929.584 9        54.150                  
  21721067.723 9 114144991.780 9      1756.987 9        54.076                  
  23603183.769 8 124035570.457 8     -3716.017 8        49.708                  
  25030377.218 7 131535550.016 7     -1925.968 7        44.194                  
  20416263.572 9 107288204.311 9       791.796 9        55.778                  
 02  5 18 00 03 51.0000000  0  7G01G23G10G21G16G07G08                           
  23642852.249 8 124244021.360 8      3376.054 8        48.498                  
  23102645.489 8 121405223.378 8     -2889.871 8        49.486                  
  21344097.293 9 112163996.113 9      -917.977 9        55.436                  
  21720736.986 8 114143243.296 8      1739.994 8        51.115                  
  23603890.953 8 124039287.989 8     -3715.312 8        49.668                  
  25030751.021 7 131537489.267 7     -1947.045 7        42.385                  
  20416113.454 9 107287416.530 9       785.338 9        55.493                  
 02  5 18 00 03 52.0000000  0  7G01G23G10G21G16G07G08                           
  23642209.179 8 124240646.211 8      3369.994 8        49.185                  
  23103194.908 8 121408107.631 8     -2877.557 8        50.387                  
  21344272.856 9 112164912.595 9      -914.302 9        56.177                  
  21720404.550 9 114141503.112 9      1737.620 9        54.542                  
  23604600.639 8 124043012.419 8     -3734.100 8        50.099                  
  25031120.212 7 131539438.362 7     -1947.485 7        43.551                  
  20415964.391 9 107286630.890 9       786.559 9        57.585                  
 02  5 18 00 03 53.0000000  0  7G01G23G10G21G16G07G08                           
  23641567.681 7 124237278.968 7      3359.558 7        47.907                  
  23103740.181 8 121410975.041 8     -2857.818 8        49.812                  
  21344447.222 9 112165824.739 9      -908.277 9        56.655                  
  21720070.274 8 114139766.206 8      1736.120 8        52.028                  
  23605314.096 8 124046761.289 8     -3760.230 8        50.336                  
  25031493.193 7 131541384.913 7     -1943.471 7        45.621                  
  20415813.451 9 107285842.749 9       790.415 9        56.606                  
 02  5 18 00 03 54.0000000  0  7G01G23G10G21G16G07G08                           
  23640929.739 8 124233919.907 8      3357.097 8        48.155                  
  23104282.524 8 121413826.224 8     -2845.495 8        49.183                  
  21344617.103 9 112166732.422 9      -906.892 9        55.600                  
  21719740.323 8 114138032.946 8      1732.639 8        53.252                  
  23606030.715 8 124050532.989 8     -3777.851 8        49.441                  
  25031859.740 7 131543329.974 7     -1946.001 7        43.701                  
  20415663.173 9 107285052.570 9       790.606 9        55.850                  
 02  5 18 00 03 55.0000000  0  7G01G23G10G21G16G07G08                           
  23640290.957 8 124230563.820 8      3356.044 8        48.851                  
  23104825.724 8 121416673.135 8     -2848.641 8        50.013                  
  21344788.842 9 112167638.928 9      -907.373 9        58.277                  
  21719415.536 9 114136301.460 9      1730.162 9        54.103                  
  23606749.514 8 124054310.362 8     -3775.778 8        48.712                  
  25032233.256 7 131545275.896 7     -1946.604 7        44.386                  
  20415513.162 9 107284262.464 9       790.167 9        58.319                  
 02  5 18 00 03 56.0000000  0  7G01G23G10G21G16G07G08                           
  23639651.800 8 124227208.328 8      3354.407 8        48.380                  
  23105365.905 8 121419520.068 8     -2845.149 8        49.867                  
  21344960.742 9 112168545.764 9      -906.835 9        55.729                  
  21719087.639 9 114134570.589 9      1729.670 9        54.294                  
  23607469.028 7 124058088.011 7     -3777.010 7        47.725                  
  25032602.216 7 131547222.591 7     -1947.258 7        45.331                  
  20415362.526 9 107283472.952 9       788.716 9        58.157                  
 02  5 18 00 03 57.0000000  0  7G01G23G10G21G16G07G08                           
  23639013.036 8 124223853.072 8      3357.257 8        48.397                  
  23105908.587 8 121422367.287 8     -2848.299 8        48.394                  
  21345134.912 9 112169453.138 9      -907.580 9        55.967                  
  21718755.454 8 114132840.077 8      1730.369 8        53.014                  
  23608188.703 8 124061865.860 8     -3780.440 8        50.104                  
  25032972.873 7 131549169.747 7     -1948.440 7        45.005                  
  20415212.158 9 107282683.964 9       788.413 9        56.948                  
 02  5 18 00 03 58.0000000  0  7G01G23G10G21G16G07G08                           
  23638376.202 8 124220497.990 8      3352.340 8        48.165                  
  23106450.626 8 121425214.826 8     -2847.573 8        52.387                  
  21345309.367 9 112170361.083 9      -906.995 9        56.649                  
  21718423.501 8 114131109.850 8      1730.360 8        51.544                  
  23608907.395 8 124065643.888 8     -3775.754 8        51.596                  
  25033344.459 7 131551117.252 7     -1948.102 7        45.572                  
  20415062.130 9 107281895.467 9       787.333 9        55.498                  
 02  5 18 00 03 59.0000000  0  7G01G23G10G21G16G07G08                           
  23637737.938 8 124217143.057 8      3355.097 8        50.655                  
  23106991.039 8 121428062.765 8     -2849.128 8        52.200                  
  21345483.054 9 112171269.600 9      -908.795 9        54.790                  
  21718094.407 8 114129379.918 8      1729.933 8        51.318                  
  23609625.337 8 124069422.098 8     -3778.952 8        50.951                  
  25033714.133 7 131553065.138 7     -1946.410 7        44.044                  
  20414912.138 9 107281107.469 9       787.664 9        54.188                  
 02  5 18 00 04  0.0000000  0  7G01G23G10G21G16G07G08                           
  23637098.102 8 124213788.293 8      3353.940 8        49.563                  
  23107534.471 8 121430911.067 8     -2849.248 8        50.654                  
  21345655.276 8 112172178.702 8      -909.531 8        53.219                  
  21717768.405 8 114127650.272 8      1730.475 8        51.714                  
  23610344.422 8 124073200.481 8     -3778.318 8        51.832                  
  25034086.988 7 131555013.364 7     -1947.493 7        45.197                  
  20414762.413 9 107280319.948 9       786.776 9        55.449                  
 02  5 18 00 04  1.0000000  0  7G01G23G10G21G16G07G08                           
  23636460.196 8 124210433.698 8      3354.891 8        51.276                  
  23108075.867 8 121433759.738 8     -2849.947 8        50.522                  
  21345826.246 9 112173088.390 9      -910.185 9        54.137                  
  21717441.455 8 114125920.926 8      1729.576 8        52.560                  
  23611063.775 8 124076979.074 8     -3780.574 8        50.371                  
  25034456.431 7 131556961.955 7     -1951.850 7        44.512                  
  20414612.492 9 107279532.941 9       787.638 9        55.631                  
 02  5 18 00 04  2.0000000  0  7G01G23G10G21G16G07G08                           
  23635822.611 8 124207079.263 8      3358.089 8        49.426                  
  23108617.549 8 121436608.733 8     -2849.334 8        51.996                  
  21345998.861 9 112173998.636 9      -910.559 9        54.212                  
  21717110.432 8 114124191.907 8      1728.664 8        53.820                  
  23611783.897 8 124080757.838 8     -3777.818 8        50.939                  
  25034827.945 7 131558910.914 7     -1947.201 7        46.226                  
  20414463.000 9 107278746.434 9       785.654 9        56.178                  
 02  5 18 00 04  3.0000000  0  7G01G23G10G21G16G07G08                           
  23635184.062 8 124203725.095 8      3355.550 8        48.562                  
  23109160.892 8 121439458.002 8     -2850.294 8        51.453                  
  21346171.958 9 112174909.418 9      -912.021 9        54.530                  
  21716777.925 9 114122463.240 9      1728.028 9        55.032                  
  23612502.178 8 124084536.812 8     -3782.518 8        50.572                  
  25035196.065 7 131560860.338 7     -1949.313 7        46.234                  
  20414313.507 9 107277960.439 9       786.766 9        54.498                  
 02  5 18 00 04  4.0000000  0  7G01G23G10G21G16G07G08                           
  23634544.797 8 124200371.683 8      3353.593 8        48.122                  
  23109701.358 8 121442307.184 8     -2849.373 8        49.803                  
  21346347.700 8 112175820.426 8      -909.626 8        50.737                  
  21716449.171 8 114120735.290 8      1726.529 8        53.907                  
  23613220.531 8 124088316.043 8     -3780.068 8        49.006                  
  25035571.261 7 131562810.721 7     -1952.429 7        46.048                  
  20414164.069 8 107277175.114 8       783.698 8        52.766                  
 02  5 18 00 04  5.0000000  0  7G01G23G10G21G16G07G08                           
  23633907.088 7 124197019.578 7      3348.951 7        45.792                  
  23110245.488 8 121445160.190 8     -2858.871 8        48.460                  
  21346521.923 9 112176731.437 9      -911.829 9        54.253                  
  21716123.668 9 114119009.547 9      1724.266 9        54.273                  
  23613938.061 8 124092086.733 8     -3763.118 8        49.079                  
  25035938.988 7 131564766.740 7     -1960.850 7        45.881                  
  20414015.184 9 107276392.350 9       780.633 9        55.482                  
 02  5 18 00 04  6.0000000  0  7G01G23G10G21G16G07G08                           
  23633270.665 7 124193669.273 7      3347.035 7        47.305                  
  23110790.690 8 121448022.437 8     -2863.055 8        48.208                  
  21346695.878 9 112177642.383 9      -909.837 9        55.270                  
  21715799.042 8 114117287.712 8      1719.283 8        53.192                  
  23614653.358 8 124095837.246 8     -3747.845 8        49.660                  
  25036318.579 7 131566734.239 7     -1972.812 7        46.058                  
  20413867.497 9 107275614.675 9       775.907 9        56.502                  
 02  5 18 00 04  7.0000000  0  7G01G23G10G21G16G07G08                           
  23632635.314 7 124190329.546 7      3331.443 7        47.224                  
  23111331.246 8 121450875.779 8     -2844.387 8        50.501                  
  21346866.241 9 112178547.655 9      -899.613 9        55.155                  
  21715471.056 8 114115573.487 8      1710.068 8        53.286                  
  23615367.923 8 124099592.175 8     -3765.167 8        50.219                  
  25036690.988 7 131568711.360 7     -1984.701 7        46.341                  
  20413720.345 9 107274839.326 9       774.872 9        58.024                  
 02  5 18 00 04  8.0000000  0  7G01G23G10G21G16G07G08                           
  23632001.517 8 124187005.103 8      3321.522 8        48.467                  
  23111873.517 8 121453709.507 8     -2830.378 8        50.548                  
  21347035.479 9 112179444.258 9      -894.862 9        54.088                  
  21715144.178 8 114113868.632 8      1701.932 8        53.862                  
  23616085.185 8 124103366.693 8     -3779.143 8        49.366                  
  25037070.561 7 131570696.260 7     -1986.247 7        46.243                  
  20413573.426 9 107274064.431 9       774.453 9        56.851                  
 02  5 18 00 04  9.0000000  0  7G01G23G10G21G16G07G08                           
  23631369.794 8 124183684.802 8      3322.641 8        49.213                  
  23112410.088 8 121456538.967 8     -2829.373 8        49.666                  
  21347205.002 9 112180339.008 9      -895.091 9        54.848                  
  21714817.961 8 114112166.572 8      1702.045 8        52.171                  
  23616803.520 8 124107145.196 8     -3777.632 8        50.541                  
  25037446.293 7 131572684.008 7     -1989.088 7        46.831                  
  20413426.400 9 107273290.286 9       773.911 9        57.782                  
 02  5 18 00 04 10.0000000  0  7G01G23G10G21G16G07G08                           
  23630738.177 8 124180364.976 8      3318.755 8        49.390                  
  23112948.285 8 121459368.609 8     -2829.470 8        50.205                  
  21347376.259 9 112181234.150 9      -895.447 9        54.648                  
  21714495.729 8 114110465.086 8      1701.117 8        53.930                  
  23617522.730 8 124110923.801 8     -3778.696 8        51.099                  
  25037827.868 7 131574672.512 7     -1987.287 7        46.046                  
  20413279.695 9 107272516.747 9       774.490 9        58.356                  
 02  5 18 00 04 11.0000000  0  7G01G23G10G21G16G07G08                           
  23630107.579 8 124177045.344 8      3319.965 8        48.944                  
  23113488.448 7 121462198.573 7     -2827.923 7        47.575                  
  21347548.606 9 112182129.854 9      -895.521 9        54.312                  
  21714174.444 8 114108763.901 8      1700.525 8        52.436                  
  23618243.245 8 124114702.566 8     -3776.342 8        49.142                  
  25038203.386 7 131576661.420 7     -1988.690 7        45.330                  
  20413133.491 9 107271743.700 9       772.733 9        57.240                  
 02  5 18 00 04 12.0000000  0  7G01G23G10G21G16G07G08                           
  23629474.123 8 124173725.891 8      3316.762 8        48.956                  
  23114024.751 8 121465028.909 8     -2829.568 8        48.627                  
  21347720.023 9 112183026.117 9      -898.145 9        54.419                  
  21713852.641 8 114107063.022 8      1699.779 8        53.666                  
  23618962.777 8 124118481.503 8     -3779.928 8        49.625                  
  25038584.747 7 131578650.691 7     -1988.786 7        47.551                  
  20412987.126 9 107270971.152 9       772.935 9        57.343                  
 02  5 18 00 04 13.0000000  0  7G01G23G10G21G16G07G08                           
  23628842.131 7 124170406.579 7      3319.699 7        47.765                  
  23114566.379 8 121467859.616 8     -2831.158 8        48.057                  
  21347891.244 9 112183922.964 9      -897.965 9        54.029                  
  21713528.568 8 114105362.451 8      1700.517 8        52.982                  
  23619680.272 8 124122260.612 8     -3780.075 8        49.734                  
  25038961.229 8 131580640.321 8     -1988.477 8        48.962                  
  20412840.850 9 107270199.117 9       770.920 9        55.345                  
 02  5 18 00 04 14.0000000  0  7G01G23G10G21G16G07G08                           
  23628210.943 7 124167087.434 7      3319.402 7        47.039                  
  23115102.842 8 121470690.670 8     -2831.087 8        50.237                  
  21348060.178 8 112184820.394 8      -897.471 8        53.711                  
  21713203.763 8 114103662.147 8      1699.401 8        53.942                  
  23620399.232 8 124126039.916 8     -3776.151 8        49.136                  
  25039340.499 7 131582630.308 7     -1987.056 7        46.103                  
  20412694.252 9 107269427.547 9       770.821 9        57.240                  
 02  5 18 00 04 15.0000000  0  7G01G23G10G21G16G07G08                           
  23627580.363 8 124163768.432 8      3316.164 8        49.213                  
  23115642.576 8 121473522.082 8     -2831.872 8        51.282                  
  21348229.416 9 112185718.399 9      -897.729 9        54.362                  
  21712876.510 9 114101962.130 9      1699.799 9        54.555                  
  23621118.710 8 124129819.402 8     -3780.899 8        50.828                  
  25039718.661 7 131584620.654 7     -1992.462 7        45.005                  
  20412547.137 9 107268656.451 9       770.809 9        58.559                  
 02  5 18 00 04 16.0000000  0  7G01G23G10G21G16G07G08                           
  23626949.051 8 124160449.584 8      3319.707 8        49.336                  
  23116181.953 8 121476353.866 8     -2833.909 8        48.995                  
  21348399.940 8 112186616.977 8      -899.120 8        52.850                  
  21712552.634 8 114100262.383 8      1699.603 8        52.803                  
  23621838.600 8 124133599.084 8     -3778.912 8        50.113                  
  25040097.395 7 131586611.338 7     -1990.254 7        43.552                  
  20412400.557 9 107267885.883 9       771.619 9        55.495                  
 02  5 18 00 04 17.0000000  0  7G01G23G10G21G16G07G08                           
  23626316.684 8 124157130.911 8      3316.496 8        48.277                  
  23116719.256 8 121479186.025 8     -2830.029 8        51.133                  
  21348571.036 8 112187516.135 8      -900.159 8        53.848                  
  21712231.920 8 114098562.934 8      1698.497 8        53.155                  
  23622558.239 8 124137378.914 8     -3778.469 8        48.856                  
  25040477.541 7 131588602.388 7     -1990.734 7        44.557                  
  20412253.334 9 107267115.781 9       770.271 9        56.889                  
 02  5 18 00 04 18.0000000  0  7G01G23G10G21G16G07G08                           
  23625684.478 7 124153812.404 7      3321.819 7        46.875                  
  23117259.955 8 121482018.515 8     -2828.676 8        48.959                  
  21348744.848 8 112188415.879 8      -899.541 8        52.539                  
  21711911.725 8 114096863.770 8      1699.087 8        52.924                  
  23623276.859 8 124141158.956 8     -3777.725 8        50.129                  
  25040855.149 7 131590593.781 7     -1990.844 7        45.605                  
  20412106.111 9 107266346.153 9       770.334 9        57.083                  
 02  5 18 00 04 19.0000000  0  7G01G23G10G21G16G07G08                           
  23625053.648 8 124150494.099 8      3316.742 8        48.806                  
  23117797.384 8 121484851.374 8     -2833.679 8        48.845                  
  21348916.658 9 112189316.171 9      -899.907 9        54.092                  
  21711588.242 8 114095164.943 8      1697.988 8        52.290                  
  23623996.016 8 124144939.144 8     -3778.371 8        50.120                  
  25041236.063 7 131592585.577 7     -1992.081 7        47.020                  
  20411959.264 9 107265577.028 9       767.702 9        57.069                  
 02  5 18 00 04 20.0000000  0  7G01G23G10G21G16G07G08                           
  23624423.300 8 124147176.190 8      3316.896 8        48.980                  
  23118338.083 8 121487684.442 8     -2833.119 8        48.829                  
  21349088.790 9 112190216.892 9      -900.611 9        56.175                  
  21711263.008 9 114093466.618 9      1698.245 9        54.504                  
  23624715.244 8 124148719.440 8     -3780.080 8        49.468                  
  25041612.938 7 131594578.054 7     -1994.249 7        46.492                  
  20411812.094 9 107264808.485 9       767.971 9        56.262                  
 02  5 18 00 04 21.0000000  0  7G01G23G10G21G16G07G08                           
  23623791.648 7 124143859.853 7      3315.726 7        47.318                  
  23118877.137 8 121490517.106 8     -2833.270 8        49.081                  
  21349258.778 9 112191117.386 9      -899.354 9        54.471                  
  21710937.327 9 114091769.663 9      1696.314 9        54.313                  
  23625435.169 8 124152499.493 8     -3779.771 8        49.250                  
  25041995.479 7 131596572.573 7     -1999.220 7        47.843                  
  20411665.390 9 107264040.897 9       766.236 9        56.287                  
 02  5 18 00 04 22.0000000  0  7G01G23G10G21G16G07G08                           
  23623161.265 8 124140549.445 8      3307.438 8        48.039                  
  23119414.316 8 121493347.228 8     -2828.408 8        49.862                  
  21349427.462 9 112192015.045 9      -896.259 9        54.584                  
  21710614.577 9 114090077.570 9      1689.749 9        55.042                  
  23626154.415 8 124156277.483 8     -3777.458 8        49.118                  
  25042372.175 7 131598574.726 7     -2006.986 7        46.221                  
  20411518.703 9 107263275.727 9       763.923 9        56.076                  
 02  5 18 00 04 23.0000000  0  7G01G23G10G21G16G07G08                           
  23622532.079 8 124137243.758 8      3306.353 8        49.063                  
  23119955.086 8 121496175.610 8     -2825.078 8        49.609                  
  21349597.861 9 112192910.605 9      -896.185 9        54.463                  
  21710294.579 8 114088389.482 8      1687.358 8        53.608                  
  23626872.160 8 124160053.463 8     -3774.386 8        51.130                  
  25042758.111 7 131600583.172 7     -2008.731 7        46.641                  
  20411373.338 9 107262512.692 9       763.072 9        57.056                  
 02  5 18 00 04 24.0000000  0  7G01G23G10G21G16G07G08                           
  23621903.947 8 124133939.122 8      3304.574 8        50.068                  
  23120490.960 8 121499003.984 8     -2830.008 8        49.207                  
  21349767.545 9 112193806.237 9      -896.083 9        55.386                  
  21709975.760 8 114086702.384 8      1686.375 8        53.283                  
  23627590.120 8 124163829.144 8     -3777.345 8        48.528                  
  25043137.220 7 131602593.157 7     -2010.554 7        45.782                  
  20411227.402 9 107261750.456 9       762.461 9        55.251                  
 02  5 18 00 04 25.0000000  0  7G01G23G10G21G16G07G08                           
  23621275.457 8 124130634.793 8      3304.895 8        50.346                  
  23121030.909 8 121501832.652 8     -2827.621 8        49.243                  
  21349940.696 9 112194702.357 9      -896.232 9        54.688                  
  21709656.941 8 114085015.701 8      1686.319 8        51.364                  
  23628309.473 8 124167604.897 8     -3776.914 8        49.066                  
  25043521.850 7 131604603.706 7     -2011.752 7        45.776                  
  20411081.359 9 107260988.768 9       761.447 9        54.693                  
 02  5 18 00 04 26.0000000  0  7G01G23G10G21G16G07G08                           
  23620646.611 7 124127330.671 7      3305.791 7        47.734                  
  23121568.391 8 121504661.682 8     -2829.883 8        48.192                  
  21350112.060 9 112195599.024 9      -896.733 9        56.529                  
  21709336.227 8 114083329.322 8      1685.813 8        52.033                  
  23629028.773 8 124171380.812 8     -3775.456 8        50.883                  
  25043903.783 7 131606614.643 7     -2011.655 7        45.877                  
  20410935.672 9 107260227.568 9       761.578 9        55.221                  
 02  5 18 00 04 27.0000000  0  7G01G23G10G21G16G07G08                           
  23620017.121 8 124124026.715 8      3301.102 8        49.275                  
  23122106.284 7 121507491.068 7     -2831.381 7        47.977                  
  21350283.763 9 112196496.278 9      -898.184 9        55.558                  
  21709013.227 8 114081643.224 8      1686.607 8        53.554                  
  23629747.143 8 124175156.913 8     -3778.210 8        50.506                  
  25044289.236 7 131608625.930 7     -2009.845 7        44.289                  
  20410790.022 9 107259466.846 9       760.190 9        55.817                  
 02  5 18 00 04 28.0000000  0  7G01G23G10G21G16G07G08                           
  23619388.399 8 124120722.899 8      3303.643 8        49.637                  
  23122645.768 8 121510320.807 8     -2829.700 8        49.710                  
  21350453.430 8 112197394.114 8      -897.411 8        51.887                  
  21708689.726 8 114079957.464 8      1685.497 8        53.287                  
  23630464.209 8 124178933.200 8     -3776.278 8        51.702                  
  25044669.167 7 131610637.588 7     -2011.411 7        43.388                  
  20410644.818 9 107258706.613 9       759.758 9        56.656                  
 02  5 18 00 04 29.0000000  0  7G01G23G10G21G16G07G08                           
  23618760.089 8 124117419.226 8      3305.142 8        48.088                  
  23123182.393 8 121513150.919 8     -2830.472 8        51.019                  
  21350622.560 8 112198292.536 8      -899.459 8        51.237                  
  21708367.816 9 114078271.951 9      1685.004 9        54.157                  
  23631183.920 8 124182709.656 8     -3777.836 8        48.120                  
  25045049.187 7 131612649.578 7     -2015.106 7        44.362                  
  20410499.490 9 107257946.880 9       760.701 9        58.579                  
 02  5 18 00 04 30.0000000  0  7G01G23G10G21G16G07G08                           
  23618132.243 8 124114115.738 8      3301.186 8        48.753                  
  23123723.431 8 121515981.379 8     -2832.047 8        50.156                  
  21350792.995 8 112199191.552 8      -899.818 8        53.012                  
  21708048.353 9 114076586.725 9      1685.253 9        55.023                  
  23631902.326 8 124186486.301 8     -3778.226 8        48.813                  
  25045436.409 7 131614661.917 7     -2013.672 7        46.164                  
  20410353.928 9 107257187.613 9       758.328 9        59.095                  
 02  5 18 00 04 31.0000000  0  7G01G23G10G21G16G07G08                           
  23617503.753 8 124110812.387 8      3303.475 8        49.029                  
  23124260.985 8 121518812.207 8     -2831.778 8        50.823                  
  21350963.876 8 112200091.117 8      -899.841 8        53.564                  
  21707730.356 8 114074901.769 8      1685.414 8        53.959                  
  23632621.894 8 124190263.112 8     -3776.993 8        49.285                  
  25045817.073 7 131616674.619 7     -2016.765 7        44.598                  
  20410208.421 9 107256428.846 9       758.955 9        58.933                  
 02  5 18 00 04 32.0000000  0  7G01G23G10G21G16G07G08                           
  23616873.978 8 124107509.194 8      3301.624 8        48.320                  
  23124799.307 8 121521643.390 8     -2830.686 8        50.565                  
  21351136.991 8 112200991.254 8      -900.531 8        51.868                  
  21707411.698 8 114073217.120 8      1684.414 8        52.797                  
  23633340.336 8 124194040.115 8     -3775.821 8        50.666                  
  25046202.311 7 131618687.662 7     -2013.193 7        45.009                  
  20410063.325 9 107255670.556 9       758.082 9        58.622                  
 02  5 18 00 04 33.0000000  0  7G01G23G10G21G16G07G08                           
  23616245.095 8 124104206.155 8      3301.111 8        49.550                  
  23125339.398 8 121524474.918 8     -2833.286 8        50.490                  
  21351309.696 8 112201892.001 8      -902.261 8        49.770                  
  21707091.681 9 114071532.727 9      1684.196 9        55.567                  
  23634058.099 8 124197817.290 8     -3778.029 8        50.612                  
  25046582.224 7 131620701.055 7     -2014.418 7        45.374                  
  20409919.390 9 107254912.754 9       758.262 9        59.330                  
 02  5 18 00 04 34.0000000  0  7G01G23G10G21G16G07G08                           
  23615616.659 8 124100903.272 8      3300.296 8        50.113                  
  23125876.237 8 121527306.832 8     -2830.667 8        50.686                  
  21351481.953 8 112202793.330 8      -901.663 8        50.042                  
  21706769.092 9 114069848.656 9      1683.459 9        54.173                  
  23634776.970 8 124201594.624 8     -3778.077 8        50.017                  
  25046968.928 7 131622714.793 7     -2016.108 7        45.561                  
  20409776.545 9 107254155.466 9       756.490 9        57.939                  
 02  5 18 00 04 35.0000000  0  7G01G23G10G21G16G07G08                           
  23614989.564 8 124097600.527 8      3303.537 8        50.347                  
  23126417.347 8 121530139.100 8     -2831.800 8        51.377                  
  21351652.691 8 112203695.242 8      -901.560 8        51.926                  
  21706445.949 8 114068164.850 8      1684.466 8        53.980                  
  23635497.038 8 124205372.163 8     -3775.735 8        49.670                  
  25047350.324 7 131624728.873 7     -2012.203 7        44.685                  
  20409633.753 9 107253398.617 9       758.011 9        55.642                  
 02  5 18 00 04 36.0000000  0  7G01G23G10G21G16G07G08                           
  23614361.182 8 124094297.965 8      3305.532 8        49.515                  
  23126954.686 8 121532971.717 8     -2832.194 8        49.457                  
  21351822.233 8 112204597.706 8      -902.835 8        52.487                  
  21706124.360 8 114066481.353 8      1683.476 8        53.499                  
  23636217.213 8 124209149.875 8     -3779.569 8        49.465                  
  25047736.099 7 131626743.315 7     -2015.183 7        43.223                  
  20409491.909 9 107252642.269 9       756.447 9        55.634                  
 02  5 18 00 04 37.0000000  0  7G01G23G10G21G16G07G08                           
  23613731.621 8 124090995.560 8      3301.215 8        50.099                  
  23127494.492 8 121535804.702 8     -2830.824 8        51.475                  
  21351993.311 9 112205500.763 9      -903.596 9        54.655                  
  21705804.451 9 114064798.118 9      1683.176 9        54.360                  
  23636934.189 8 124212927.780 8     -3777.984 8        49.148                  
  25048119.657 7 131628758.092 7     -2015.007 7        42.986                  
  20409348.617 9 107251886.411 9       755.228 9        57.138                  
 02  5 18 00 04 38.0000000  0  7G01G23G10G21G16G07G08                           
  23613102.899 8 124087693.307 8      3301.549 8        48.547                  
  23128033.654 8 121538638.053 8     -2833.349 8        48.556                  
  21352165.318 9 112206404.418 9      -904.528 9        55.157                  
  21705486.739 8 114063115.166 8      1684.517 8        53.047                  
  23637652.256 8 124216705.856 8     -3776.291 8        51.760                  
  25048505.164 7 131630773.242 7     -2016.026 7        44.321                  
  20409205.969 9 107251131.067 9       755.282 9        57.475                  
 02  5 18 00 04 39.0000000  0  7G01G23G10G21G16G07G08                           
  23612475.285 8 124084391.210 8      3303.475 8        49.606                  
  23128572.065 8 121541471.771 8     -2833.936 8        49.305                  
  21352339.648 9 112207308.631 9      -905.590 9        54.934                  
  21705169.135 8 114061432.507 8      1681.332 8        52.021                  
  23638371.538 8 124220484.100 8     -3775.511 8        50.081                  
  25048885.649 7 131632788.705 7     -2017.673 7        43.979                  
  20409063.392 9 107250376.208 9       755.199 9        56.572                  
 02  5 18 00 04 40.0000000  0  7G01G23G10G21G16G07G08                           
  23611847.135 8 124081089.257 8      3298.673 8        48.919                  
  23129113.389 8 121544305.836 8     -2835.524 8        50.469                  
  21352512.227 8 112208213.419 8      -904.769 8        53.978                  
  21704849.959 8 114059750.130 8      1682.220 8        53.413                  
  23639091.928 8 124224262.523 8     -3778.337 8        49.634                  
  25049268.153 7 131634804.539 7     -2016.278 7        45.103                  
  20408920.869 9 107249621.804 9       754.288 9        57.144                  
 02  5 18 00 04 41.0000000  0  7G01G23G10G21G16G07G08                           
  23611219.522 8 124077787.491 8      3300.682 8        48.067                  
  23129651.283 8 121547140.257 8     -2835.462 8        49.688                  
  21352685.843 9 112209118.812 9      -905.183 9        54.096                  
  21704528.459 8 114058068.037 8      1682.572 8        52.541                  
  23639810.798 8 124228041.107 8     -3775.159 8        50.300                  
  25049656.983 7 131636820.737 7     -2016.586 7        43.822                  
  20408778.542 9 107248867.912 9       753.894 9        57.559                  
 02  5 18 00 04 42.0000000  0  7G01G23G10G21G16G07G08                           
  23610590.586 8 124074485.947 8      3300.473 8        48.386                  
  23130191.177 8 121549975.039 8     -2833.579 8        49.136                  
  21352856.224 8 112210024.755 8      -904.957 8        53.482                  
  21704206.263 8 114056386.270 8      1681.812 8        53.552                  
  23640529.348 8 124231819.840 8     -3777.104 8        48.579                  
  25050034.877 7 131638837.361 7     -2014.363 7        44.730                  
  20408637.162 9 107248114.511 9       752.856 9        58.487                  
 02  5 18 00 04 43.0000000  0  7G01G23G10G21G16G07G08                           
  23609961.221 8 124071184.885 8      3297.284 8        49.525                  
  23130731.590 8 121552810.016 8     -2835.666 8        49.303                  
  21353026.891 9 112210931.056 9      -906.190 9        55.219                  
  21703884.317 8 114054705.096 8      1680.016 8        52.955                  
  23641247.879 8 124235598.573 8     -3775.060 8        49.166                  
  25050421.366 7 131640854.829 7     -2014.915 7        44.493                  
  20408494.728 9 107247361.728 9       752.149 9        57.898                  
 02  5 18 00 04 44.0000000  0  7G01G23G10G21G16G07G08                           
  23609332.517 8 124067880.885 8      3309.678 8        48.348                  
  23131270.216 8 121555650.782 8     -2849.239 8        49.425                  
  21353199.309 9 112211839.937 9      -913.886 9        55.736                  
  21703563.711 8 114053022.655 8      1684.885 8        53.077                  
  23641965.141 8 124239370.812 8     -3763.735 8        48.581                  
  25050804.710 7 131642872.266 7     -2017.165 7        46.579                  
  20408351.722 9 107246609.971 9       751.103 9        55.396                  
 02  5 18 00 04 45.0000000  0  7G01G23G10G21G16G07G08                           
  23608702.134 8 124064564.084 8      3320.054 8        48.626                  
  23131816.490 8 121558511.581 8     -2866.410 8        50.941                  
  21353374.640 8 112212757.571 8      -920.570 8        52.854                  
  21703243.319 8 114051333.357 8      1692.107 8        52.397                  
  23642679.688 8 124243121.508 8     -3739.962 8        49.556                  
  25051187.429 7 131644885.874 7     -2007.409 7        46.131                  
  20408207.823 9 107245859.680 9       749.189 9        54.815                  
 02  5 18 00 04 46.0000000  0  7G01G23G10G21G16G07G08                           
  23608072.090 8 124061248.963 8      3308.402 8        48.131                  
  23132361.066 8 121561376.182 8     -2855.334 8        50.683                  
  21353551.793 8 112213675.091 8      -912.330 8        52.427                  
  21702925.501 8 114049646.565 8      1680.886 8        52.968                  
  23643392.233 8 124246863.295 8     -3747.137 8        49.819                  
  25051572.578 7 131646905.577 7     -2027.322 7        47.310                  
  20408064.496 9 107245112.060 9       745.620 9        55.697                  
 02  5 18 00 04 47.0000000  0  7G01G23G10G21G16G07G08                           
  23607445.298 8 124057957.330 8      3282.761 8        48.107                  
  23132901.193 8 121564220.377 8     -2837.161 8        49.876                  
  21353724.390 9 112214579.141 9      -897.668 9        54.777                  
  21702608.683 8 114047976.406 8      1662.849 8        51.873                  
  23644105.279 8 124250614.621 8     -3754.462 8        50.062                  
  25051959.496 7 131648946.592 7     -2049.710 7        45.261                  
  20407920.579 9 107244369.029 9       740.937 9        56.613                  
 02  5 18 00 04 48.0000000  0  7G01G23G10G21G16G07G08                           
  23606819.418 8 124054678.094 8      3277.561 8        49.413                  
  23133442.160 8 121567054.201 8     -2830.875 8        49.577                  
  21353894.968 9 112215476.424 9      -898.402 9        54.309                  
  21702292.562 8 114046315.109 8      1660.545 8        53.419                  
  23644819.789 8 124254370.718 8     -3752.721 8        48.829                  
  25052352.436 7 131650999.060 7     -2050.391 7        46.217                  
  20407779.217 9 107243628.690 9       739.688 9        57.370                  
 02  5 18 00 04 49.0000000  0  7G01G23G10G21G16G07G08                           
  23606196.557 8 124051399.347 8      3279.420 8        50.037                  
  23133979.750 8 121569888.398 8     -2833.714 8        50.306                  
  21354063.241 8 112216374.082 8      -896.629 8        52.137                  
  21701974.994 8 114044654.420 8      1659.314 8        51.255                  
  23645535.604 7 124258126.522 7     -3757.489 7        47.460                  
  25052740.140 7 131653052.463 7     -2053.783 7        47.066                  
  20407636.497 9 107242889.019 9       740.506 9        55.857                  
 02  5 18 00 04 50.0000000  0  7G01G23G10G21G16G07G08                           
  23605573.036 8 124048120.806 8      3277.638 8        49.946                  
  23134520.181 8 121572722.982 8     -2833.150 8        52.146                  
  21354233.854 8 112217272.324 8      -898.282 8        52.604                  
  21701656.782 8 114042994.035 8      1660.241 8        53.722                  
  23646250.455 8 124261882.375 8     -3753.873 8        49.982                  
  25053132.508 7 131655106.296 7     -2052.611 7        47.447                  
  20407494.492 9 107242149.826 9       738.759 9        58.078                  
 02  5 18 00 04 51.0000000  0  7G01G23G10G21G16G07G08                           
  23604949.550 8 124044842.445 8      3278.948 8        49.564                  
  23135058.646 8 121575557.922 8     -2836.495 8        51.308                  
  21354404.271 8 112218171.137 8      -899.813 8        53.881                  
  21701338.660 8 114041333.960 8      1659.438 8        51.304                  
  23646963.858 8 124265638.385 8     -3753.542 8        49.140                  
  25053523.768 7 131657160.487 7     -2053.881 7        46.180                  
  20407352.915 9 107241411.109 9       738.390 9        56.659                  
 02  5 18 00 04 52.0000000  0  7G01G23G10G21G16G07G08                           
  23604326.725 8 124041564.233 8      3278.080 8        48.465                  
  23135598.397 8 121578393.234 8     -2834.228 8        48.564                  
  21354576.421 8 112219070.523 8      -899.572 8        53.197                  
  21701023.147 8 114039674.175 8      1660.115 8        52.285                  
  23647678.654 8 124269394.565 8     -3758.941 8        49.511                  
  25053912.920 7 131659215.027 7     -2055.123 7        44.627                  
  20407210.106 9 107240672.895 9       737.227 9        57.586                  
 02  5 18 00 04 53.0000000  0  7G01G23G10G21G16G07G08                           
  23603702.488 7 124038286.179 7      3277.389 7        47.445                  
  23136139.436 8 121581228.924 8     -2834.349 8        49.802                  
  21354749.429 9 112219970.483 9      -900.883 9        55.085                  
  21700708.062 8 114038014.649 8      1658.921 8        52.938                  
  23648394.112 8 124273150.909 8     -3756.746 8        50.380                  
  25054306.646 7 131661269.918 7     -2055.624 7        45.026                  
  20407068.869 9 107239935.145 9       736.505 9        56.389                  
 02  5 18 00 04 54.0000000  0  7G01G23G10G21G16G07G08                           
  23603077.019 8 124035008.296 8      3278.761 8        48.096                  
  23136677.097 8 121584064.964 8     -2837.012 8        51.044                  
  21354921.543 8 112220871.027 8      -901.193 8        53.371                  
  21700393.907 8 114036355.401 8      1658.263 8        51.004                  
  23649109.570 8 124276907.427 8     -3757.181 8        49.502                  
  25054694.689 7 131663325.122 7     -2054.834 7        45.195                  
  20406930.313 9 107239197.893 9       737.038 9        55.799                  
 02  5 18 00 04 55.0000000  0  7G01G23G10G21G16G07G08                           
  23602453.086 7 124031730.588 7      3278.015 7        47.495                  
  23137218.832 8 121586901.363 8     -2836.315 8        50.816                  
  21355093.193 8 112221772.187 8      -901.231 8        53.904                  
  21700080.073 9 114034696.461 9      1658.737 9        54.695                  
  23649824.527 8 124280664.136 8     -3757.140 8        49.723                  
  25055086.843 7 131665380.685 7     -2056.854 7        45.020                  
  20406792.990 9 107238461.109 9       737.256 9        59.386                  
 02  5 18 00 04 56.0000000  0  7G01G23G10G21G16G07G08                           
  23601829.725 8 124028453.014 8      3275.123 8        49.138                  
  23137757.994 8 121589738.132 8     -2838.153 8        49.642                  
  21355262.484 8 112222673.946 8      -900.801 8        53.491                  
  21699765.990 8 114033037.782 8      1660.136 8        52.681                  
  23650538.377 7 124284421.000 7     -3755.258 7        47.512                  
  25055479.836 7 131667436.578 7     -2055.999 7        45.146                  
  20406654.201 9 107237724.791 9       735.348 9        58.106                  
 02  5 18 00 04 57.0000000  0  7G01G23G10G21G16G07G08                           
  23601207.490 8 124025175.614 8      3279.148 8        48.048                  
  23138297.156 8 121592575.264 8     -2834.839 8        49.583                  
  21355433.330 8 112223576.254 8      -902.620 8        53.353                  
  21699450.816 8 114031379.425 8      1658.992 8        52.027                  
  23651253.406 8 124288178.036 8     -3755.012 8        48.578                  
  25055867.969 7 131669492.827 7     -2051.738 7        44.497                  
  20406516.574 9 107236988.958 9       735.720 9        56.583                  
 02  5 18 00 04 58.0000000  0  7G01G23G10G21G16G07G08                           
  23600584.344 7 124021898.371 7      3275.693 7        46.781                  
  23138838.641 8 121595412.766 8     -2835.465 8        49.231                  
  21355604.390 8 112224479.157 8      -903.932 8        53.548                  
  21699134.302 8 114029721.320 8      1658.429 8        53.973                  
  23651969.203 8 124291935.243 8     -3758.548 8        49.244                  
  25056263.054 7 131671549.413 7     -2050.478 7        45.442                  
  20406377.856 9 107236253.592 9       735.371 9        57.201                  
 02  5 18 00 04 59.0000000  0  7G01G23G10G21G16G07G08                           
  23599960.411 8 124018621.288 8      3274.683 8        48.198                  
  23139376.820 8 121598250.606 8     -2840.267 8        49.599                  
  21355777.916 8 112225382.645 8      -903.904 8        53.273                  
  21698817.073 8 114028063.500 8      1656.501 8        52.846                  
  23652684.089 8 124295692.656 8     -3753.993 8        48.197                  
  25056652.527 7 131673606.319 7     -2058.344 7        46.808                  
  20406240.533 9 107235518.703 9       735.091 9        56.926                  
