     2.11           OBSERVATION DATA    G                   RINEX VERSION / TYPE
BLANK OR G = GPS,  R = GLONASS,  E = GALILEO,  M = MIXED    COMMENT             
GNSS-SDR            joel                17-APR-25 08:21     PGM / RUN BY / DATE 
GPS OBSERVATION DATA FILE GENERATED BY GNSS-SDR             COMMENT             
GNSS-SDR VERSION 0.0.16                                     COMMENT             
See https://gnss-sdr.org                                    COMMENT             
DEFAULT MARKER NAME                                         MARKER NAME         
joel                CTTC                                    OBSERVER / AGENCY   
GNSS-SDR            Software Receiver   0.0.16              REC # / TYPE / VERS 
Antenna number      Antenna type                            ANT # / TYPE        
        0.0000        0.0000        0.0000                  APPROX POSITION XYZ 
        0.0000        0.0000        0.0000                  ANTENNA: DELTA H/E/N
     1     1                                                WAVELENGTH FACT L1/2
     4    C1    L1    D1    S1                              # / TYPES OF OBSERV 
  2002    05    18    00    00   42.1000000     GPS         TIME OF FIRST OBS   
    18                                                      LEAP SECONDS        
                                                            END OF HEADER       
 02  5 18 00 00 43.0000000  0  7G01G10G23G21G16G07G08                           
  23763590.539 7 124878513.381 7      3399.696 7        46.684                  
  21313658.681 9 112004039.667 9      -798.336 9        54.379                  
  23001127.174 8 120871743.352 8     -2818.484 8        49.978                  
  21783585.538 8 114473511.344 8      1786.635 8        53.261                  
  23471245.193 8 123342230.695 8     -3662.994 8        49.407                  
  24961618.612 7 131174190.514 7     -1906.858 7        45.634                  
  20445704.806 9 107442905.360 9       868.249 9        55.799                  
 02  5 18 00 00 44.0000000  0  7G01G10G23G21G16G07G08                           
  23762945.610 7 124875116.259 7      3394.653 7        46.771                  
  21313811.211 8 112004838.024 8      -799.530 8        53.915                  
  23001664.817 8 120874562.620 8     -2818.305 8        50.206                  
  21783249.386 9 114471724.133 9      1786.415 9        54.226                  
  23471943.854 8 123345894.470 8     -3663.426 8        50.486                  
  24961982.032 7 131176095.041 7     -1909.812 7        46.110                  
  20445541.823 9 107442037.516 9       867.789 9        56.826                  
 02  5 18 00 00 45.0000000  0  7G01G10G23G21G16G07G08                           
  23762299.002 7 124871719.311 7      3394.041 7        47.506                  
  21313963.044 9 112005637.022 9      -798.032 9        54.606                  
  23002198.993 8 120877382.250 8     -2818.296 8        51.035                  
  21782906.712 8 114469937.232 8      1786.910 8        53.223                  
  23472640.764 8 123349558.442 8     -3662.072 8        50.281                  
  24962342.700 7 131177999.923 7     -1904.901 7        46.790                  
  20445380.198 9 107441170.149 9       867.250 9        57.368                  
 02  5 18 00 00 46.0000000  0  7G01G10G23G21G16G07G08                           
  23761651.178 8 124868322.515 8      3395.471 8        48.419                  
  21314115.253 9 112006436.619 9      -799.383 9        54.143                  
  23002736.529 8 120880202.292 8     -2822.643 8        50.576                  
  21782563.537 8 114468150.641 8      1786.830 8        53.634                  
  23473337.673 8 123353222.599 8     -3665.612 8        49.297                  
  24962709.069 7 131179905.164 7     -1905.457 7        45.007                  
  20445215.677 9 107440303.259 9       866.660 9        56.303                  
 02  5 18 00 00 47.0000000  0  7G01G10G23G21G16G07G08                           
  23761005.713 7 124864925.872 7      3392.839 7        47.627                  
  21314268.462 8 112007236.812 8      -801.047 8        53.803                  
  23003272.582 8 120883022.723 8     -2822.779 8        49.775                  
  21782227.278 8 114466364.352 8      1785.611 8        52.245                  
  23474035.637 8 123356886.951 8     -3665.565 8        50.481                  
  24963068.433 7 131181810.745 7     -1907.415 7        45.943                  
  20445048.388 9 107439436.823 9       865.979 9        55.630                  
 02  5 18 00 00 48.0000000  0  7G01G10G23G21G16G07G08                           
  23760360.034 7 124861529.391 7      3396.517 7        47.346                  
  21314420.241 9 112008037.612 9      -801.059 9        56.882                  
  23003811.941 8 120885843.546 8     -2822.510 8        50.775                  
  21781887.784 8 114464578.358 8      1785.158 8        52.282                  
  23474732.958 8 123360551.505 8     -3664.552 8        50.438                  
  24963433.175 7 131183716.683 7     -1905.886 7        46.245                  
  20444880.991 9 107438570.862 9       864.952 9        57.923                  
 02  5 18 00 00 49.0000000  0  7G01G10G23G21G16G07G08                           
  23759712.085 8 124858133.070 8      3396.604 8        49.105                  
  21314573.522 9 112008839.055 9      -802.226 9        57.282                  
  23004345.849 8 120888664.780 8     -2821.148 8        49.431                  
  21781545.575 8 114462792.662 8      1785.502 8        53.589                  
  23475429.671 8 123364216.251 8     -3667.134 8        50.711                  
  24963795.113 7 131185622.983 7     -1907.314 7        46.814                  
  20444713.254 9 107437705.377 9       865.610 9        57.235                  
 02  5 18 00 00 50.0000000  0  7G01G10G23G21G16G07G08                           
  23759066.281 7 124854736.906 7      3396.990 7        47.096                  
  21314726.105 9 112009641.095 9      -801.909 9        56.270                  
  23004883.832 8 120891486.407 8     -2822.126 8        49.603                  
  21781204.937 8 114461007.265 8      1787.111 8        53.308                  
  23476128.386 8 123367881.173 8     -3665.728 8        48.834                  
  24964157.050 7 131187529.626 7     -1905.313 7        47.782                  
  20444545.267 9 107436840.361 9       864.883 9        58.656                  
 02  5 18 00 00 51.0000000  0  7G01G10G23G21G16G07G08                           
  23758421.549 7 124851340.921 7      3393.905 7        47.527                  
  21314878.993 9 112010443.732 9      -802.743 9        54.761                  
  23005422.261 8 120894308.419 8     -2821.814 8        49.857                  
  21780869.375 8 114459222.167 8      1783.596 8        53.158                  
  23476824.849 8 123371546.307 8     -3665.764 8        50.493                  
  24964522.900 7 131189436.629 7     -1906.597 7        47.332                  
  20444381.391 9 107435975.807 9       863.708 9        54.629                  
 02  5 18 00 00 52.0000000  0  7G01G10G23G21G16G07G08                           
  23757774.333 8 124847945.075 8      3397.190 8        48.307                  
  21315031.952 9 112011246.989 9      -804.183 9        54.027                  
  23005957.188 8 120897130.815 8     -2822.242 8        51.387                  
  21780530.221 8 114457437.364 8      1784.977 8        51.519                  
  23477522.170 8 123375211.640 8     -3666.343 8        49.675                  
  24964882.460 7 131191343.991 7     -1911.302 7        46.039                  
  20444219.229 9 107435111.730 9       864.520 9        56.364                  
 02  5 18 00 00 53.0000000  0  7G01G10G23G21G16G07G08                           
  23757127.188 7 124844549.402 7      3393.063 7        47.986                  
  21315184.857 9 112012050.876 9      -805.068 9        55.024                  
  23006496.976 8 120899953.603 8     -2823.619 8        49.660                  
  21780186.135 8 114455652.858 8      1784.931 8        51.848                  
  23478220.813 8 123378877.143 8     -3662.367 8        49.493                  
  24965249.383 7 131193251.699 7     -1908.636 7        46.797                  
  20444056.979 9 107434248.131 9       863.371 9        57.123                  
 02  5 18 00 00 54.0000000  0  7G01G10G23G21G16G07G08                           
  23756482.510 7 124841153.887 7      3394.703 7        46.979                  
  21315338.173 9 112012855.360 9      -805.104 9        54.014                  
  23007032.225 8 120902776.776 8     -2824.017 8        50.437                  
  21779846.981 8 114453868.667 8      1783.999 8        53.867                  
  23478916.847 8 123382542.856 8     -3666.087 8        50.115                  
  24965609.086 7 131195159.759 7     -1906.380 7        46.832                  
  20443895.210 9 107433385.008 9       863.128 9        54.943                  
 02  5 18 00 00 55.0000000  0  7G01G10G23G21G16G07G08                           
  23755836.723 8 124837758.521 8      3394.965 8        48.816                  
  21315491.203 9 112013660.441 9      -805.396 9        54.167                  
  23007570.725 8 120905600.340 8     -2822.359 8        49.873                  
  21779511.615 8 114452084.796 8      1782.432 8        53.360                  
  23479614.704 8 123386208.755 8     -3667.160 8        49.606                  
  24965973.632 7 131197068.174 7     -1908.912 7        47.058                  
  20443734.175 9 107432522.338 9       862.160 9        56.864                  
 02  5 18 00 00 56.0000000  0  7G01G10G23G21G16G07G08                           
  23755189.239 7 124834363.326 7      3392.403 7        46.772                  
  21315644.805 9 112014466.138 9      -806.163 9        54.590                  
  23008107.922 8 120908424.322 8     -2824.775 8        51.899                  
  21779171.568 9 114450301.209 9      1782.481 9        54.233                  
  23480314.079 7 123389874.845 7     -3668.050 7        47.428                  
  24966337.589 7 131198976.942 7     -1904.841 7        46.368                  
  20443571.674 9 107431660.145 9       861.569 9        56.020                  
 02  5 18 00 00 57.0000000  0  7G01G10G23G21G16G07G08                           
  23754544.650 8 124830968.292 8      3395.845 8        48.709                  
  21315798.336 9 112015272.470 9      -806.509 9        55.378                  
  23008644.386 8 120911248.685 8     -2824.401 8        50.930                  
  21778828.089 8 114448517.933 8      1784.772 8        51.743                  
  23481009.506 7 123393541.124 7     -3663.732 7        47.421                  
  24966698.364 7 131200886.067 7     -1912.640 7        45.963                  
  20443405.277 9 107430798.429 9       861.552 9        58.265                  
 02  5 18 00 00 58.0000000  0  7G01G10G23G21G16G07G08                           
  23753898.202 8 124827573.410 8      3397.125 8        48.503                  
  21315952.081 9 112016079.397 9      -806.607 9        55.501                  
  23009182.940 8 120914073.446 8     -2825.137 8        50.078                  
  21778490.329 8 114446734.946 8      1783.034 8        51.993                  
  23481707.827 7 123397207.601 7     -3665.607 7        47.738                  
  24967065.037 7 131202795.535 7     -1911.458 7        45.918                  
  20443239.113 9 107429937.189 9       861.865 9        56.998                  
 02  5 18 00 00 59.0000000  0  7G01G10G23G21G16G07G08                           
  23753251.076 8 124824178.700 8      3395.360 8        49.095                  
  21316105.969 9 112016886.921 9      -807.637 9        56.594                  
  23009718.796 8 120916898.586 8     -2824.324 8        49.960                  
  21778154.999 8 114444952.266 8      1782.947 8        50.761                  
  23482406.274 8 123400874.275 8     -3666.557 8        48.522                  
  24967425.347 7 131204705.368 7     -1910.914 7        44.696                  
  20443072.681 9 107429076.403 9       860.777 9        55.321                  
 02  5 18 00 01  0.0000000  0  7G01G10G23G21G16G07G08                           
  23752605.861 8 124820784.142 8      3397.692 8        49.837                  
  21316259.643 9 112017695.078 9      -807.977 9        57.438                  
  23010258.709 8 120919724.103 8     -2826.585 8        51.590                  
  21777813.522 8 114443169.873 8      1780.439 8        52.409                  
  23483102.773 8 123404541.131 8     -3670.428 8        48.699                  
  24967791.162 7 131206615.536 7     -1908.935 7        46.980                  
  20442905.695 9 107428216.093 9       859.875 9        57.005                  
 02  5 18 00 01  1.0000000  0  7G01G10G23G21G16G07G08                           
  23751959.914 8 124817389.741 8      3396.173 8        50.107                  
  21316414.138 9 112018503.852 9      -808.688 9        55.335                  
  23010795.155 8 120922550.020 8     -2823.881 8        49.272                  
  21777470.294 8 114441387.790 8      1782.212 8        53.964                  
  23483801.166 8 123408208.186 8     -3665.098 8        49.381                  
  24968153.278 7 131208526.075 7     -1912.307 7        47.399                  
  20442740.425 9 107427356.259 9       859.802 9        56.642                  
 02  5 18 00 01  2.0000000  0  7G01G10G23G21G16G07G08                           
  23751313.180 8 124813995.510 8      3395.810 8        49.067                  
  21316567.401 9 112019313.225 9      -810.838 9        54.345                  
  23011333.263 8 120925376.329 8     -2824.886 8        50.196                  
  21777134.696 8 114439605.991 8      1782.071 8        50.746                  
  23484499.755 8 123411875.434 8     -3666.529 8        49.124                  
  24968517.806 7 131210436.945 7     -1912.135 7        45.641                  
  20442578.621 9 107426496.904 9       858.932 9        57.192                  
 02  5 18 00 01  3.0000000  0  7G01G10G23G21G16G07G08                           
  23750667.947 8 124810601.432 8      3396.392 8        48.965                  
  21316721.039 9 112020123.192 9      -810.331 9        55.032                  
  23011872.067 8 120928203.043 8     -2826.686 8        50.886                  
  21776798.651 8 114437824.515 8      1781.650 8        51.973                  
  23485196.022 8 123415542.857 8     -3666.903 8        51.018                  
  24968882.030 7 131212348.184 7     -1910.559 7        44.745                  
  20442416.924 9 107425638.000 9       858.104 9        55.570                  
 02  5 18 00 01  4.0000000  0  7G01G10G23G21G16G07G08                           
  23750023.180 8 124807207.508 8      3390.088 8        49.269                  
  21316875.088 9 112020933.780 9      -810.880 9        54.672                  
  23012407.602 8 120931030.149 8     -2826.596 8        53.064                  
  21776456.387 9 114436043.350 9      1780.675 9        54.058                  
  23485895.344 8 123419210.501 8     -3668.043 8        52.166                  
  24969242.842 7 131214259.774 7     -1910.283 7        45.144                  
  20442255.888 9 107424779.575 9       858.148 9        56.759                  
 02  5 18 00 01  5.0000000  0  7G01G10G23G21G16G07G08                           
  23749375.803 8 124803813.766 8      3389.047 8        48.141                  
  21317028.833 9 112021744.999 9      -812.003 9        56.107                  
  23012947.765 8 120933857.640 8     -2827.707 8        51.190                  
  21776115.411 8 114434262.482 8      1779.852 8        53.746                  
  23486593.469 8 123422878.316 8     -3666.011 8        49.209                  
  24969609.996 7 131216171.713 7     -1912.791 7        45.787                  
  20442094.638 9 107423921.625 9       858.151 9        56.301                  
 02  5 18 00 01  6.0000000  0  7G01G10G23G21G16G07G08                           
  23748729.569 8 124800420.169 8      3392.093 8        48.428                  
  21317182.703 9 112022556.814 9      -812.129 9        56.324                  
  23013485.032 8 120936685.498 8     -2827.004 8        48.882                  
  21775779.956 8 114432481.913 8      1779.896 8        52.030                  
  23487290.468 8 123426546.329 8     -3664.422 8        48.788                  
  24969970.879 7 131218083.992 7     -1910.492 7        46.428                  
  20441934.710 9 107423064.154 9       857.032 9        57.028                  
 02  5 18 00 01  7.0000000  0  7G01G10G23G21G16G07G08                           
  23748085.481 8 124797026.723 8      3392.592 8        49.180                  
  21317336.662 9 112023369.226 9      -813.274 9        54.948                  
  23014023.247 8 120939513.762 8     -2827.343 8        48.924                  
  21775443.035 8 114430701.640 8      1779.828 8        52.923                  
  23487989.665 8 123430214.541 8     -3668.269 8        50.152                  
  24970337.462 7 131219996.640 7     -1914.433 7        46.143                  
  20441772.817 9 107422207.146 9       856.574 9        57.068                  
 02  5 18 00 01  8.0000000  0  7G01G10G23G21G16G07G08                           
  23747438.568 8 124793633.467 8      3393.927 8        48.889                  
  21317491.408 9 112024182.271 9      -813.296 9        57.848                  
  23014562.427 8 120942342.417 8     -2828.543 8        49.932                  
  21775100.897 8 114428921.669 8      1778.966 8        52.583                  
  23488687.432 8 123433882.933 8     -3666.718 8        50.798                  
  24970700.025 8 131221909.639 8     -1914.162 8        48.190                  
  20441607.314 9 107421350.601 9       857.239 9        58.692                  
 02  5 18 00 01  9.0000000  0  7G01G10G23G21G16G07G08                           
  23746792.496 8 124790240.353 8      3391.219 8        48.028                  
  21317645.475 9 112024995.930 9      -813.809 9        55.603                  
  23015099.338 8 120945171.476 8     -2829.958 8        50.450                  
  21774760.492 8 114427141.990 8      1780.312 8        53.913                  
  23489384.413 8 123437551.528 8     -3667.219 8        48.444                  
  24971064.499 8 131223822.982 8     -1912.738 8        48.041                  
  20441442.580 9 107420494.537 9       855.923 9        57.489                  
 02  5 18 00 01 10.0000000  0  7G01G10G23G21G16G07G08                           
  23746148.782 8 124786847.394 8      3397.264 8        49.662                  
  21317800.560 9 112025810.190 9      -814.380 9        54.983                  
  23015639.447 8 120948000.930 8     -2828.589 8        50.120                  
  21774425.144 8 114425362.613 8      1779.871 8        53.374                  
  23490083.825 8 123441220.312 8     -3669.608 8        49.565                  
  24971429.760 8 131225736.682 8     -1914.152 8        48.424                  
  20441277.524 9 107419638.949 9       855.830 9        56.886                  
 02  5 18 00 01 11.0000000  0  7G01G10G23G21G16G07G08                           
  23745502.317 7 124783454.613 7      3393.349 7        47.541                  
  21317955.324 9 112026625.045 9      -815.053 9        56.147                  
  23016176.500 8 120950830.753 8     -2827.747 8        50.589                  
  21774088.474 8 114423583.533 8      1779.056 8        51.792                  
  23490781.914 8 123444889.279 8     -3669.680 8        50.921                  
  24971791.840 8 131227650.729 8     -1913.670 8        48.147                  
  20441111.824 9 107418783.837 9       854.974 9        57.306                  
 02  5 18 00 01 12.0000000  0  7G01G10G23G21G16G07G08                           
  23744855.887 8 124780061.977 8      3389.538 8        50.000                  
  21318109.748 9 112027440.519 9      -816.640 9        57.107                  
  23016715.734 8 120953660.963 8     -2829.950 8        50.663                  
  21773745.228 8 114421804.764 8      1779.355 8        53.133                  
  23491479.449 8 123448558.446 8     -3669.312 8        51.403                  
  24972158.762 7 131229565.130 7     -1918.453 7        47.878                  
  20440946.553 9 107417929.178 9       854.478 9        57.348                  
 02  5 18 00 01 13.0000000  0  7G01G10G23G21G16G07G08                           
  23744211.298 8 124776669.505 8      3391.713 8        48.965                  
  21318266.030 9 112028256.629 9      -816.409 9        56.970                  
  23017255.253 8 120956491.562 8     -2828.607 8        50.185                  
  21773406.360 8 114420026.306 8      1778.243 8        52.769                  
  23492178.503 8 123452227.792 8     -3669.395 8        50.377                  
  24972519.055 7 131231479.871 7     -1913.301 7        46.492                  
  20440784.410 9 107417074.994 9       854.123 9        56.040                  
 02  5 18 00 01 14.0000000  0  7G01G10G23G21G16G07G08                           
  23743565.815 8 124773277.202 8      3392.187 8        48.569                  
  21318421.151 9 112029073.330 9      -816.833 9        54.917                  
  23017792.396 8 120959322.566 8     -2830.582 8        50.851                  
  21773072.709 8 114418248.155 8      1778.607 8        51.988                  
  23492876.288 8 123455897.338 8     -3670.833 8        49.976                  
  24972887.390 7 131233394.973 7     -1915.977 7        46.568                  
  20440624.053 9 107416221.288 9       854.178 9        54.649                  
 02  5 18 00 01 15.0000000  0  7G01G10G23G21G16G07G08                           
  23742918.849 8 124769885.055 8      3390.615 8        48.704                  
  21318576.290 9 112029890.630 9      -817.226 9        55.308                  
  23018333.863 8 120962153.968 8     -2830.897 8        50.293                  
  21772733.484 8 114416470.292 8      1778.187 8        52.841                  
  23493573.984 8 123459567.079 8     -3669.919 8        49.046                  
  24973249.648 7 131235310.428 7     -1916.101 7        46.904                  
  20440463.804 9 107415368.060 9       853.195 9        55.708                  
 02  5 18 00 01 16.0000000  0  7G01G10G23G21G16G07G08                           
  23742273.813 8 124766493.061 8      3395.035 8        48.234                  
  21318731.358 9 112030708.537 9      -818.504 9        55.979                  
  23018869.988 8 120964985.752 8     -2831.743 8        50.732                  
  21772392.310 8 114414692.739 8      1778.254 8        52.833                  
  23494273.950 8 123463236.995 8     -3672.083 8        49.588                  
  24973615.838 7 131237226.229 7     -1915.940 7        46.184                  
  20440303.823 9 107414515.308 9       853.054 9        56.603                  
 02  5 18 00 01 17.0000000  0  7G01G10G23G21G16G07G08                           
  23741629.724 7 124763101.249 7      3388.895 7        46.926                  
  21318887.979 9 112031527.086 9      -819.215 9        56.123                  
  23019409.257 8 120967817.905 8     -2834.099 8        50.226                  
  21772053.782 9 114412915.472 9      1777.477 9        54.417                  
  23494971.199 8 123466907.115 8     -3670.897 8        50.234                  
  24973980.742 8 131239142.390 8     -1916.847 8        48.113                  
  20440143.252 9 107413663.011 9       852.010 9        57.660                  
 02  5 18 00 01 18.0000000  0  7G01G10G23G21G16G07G08                           
  23740983.938 7 124759709.579 7      3392.965 7        47.717                  
  21319043.762 9 112032346.234 9      -820.193 9        55.371                  
  23019949.169 8 120970650.452 8     -2830.600 8        49.602                  
  21771719.292 8 114411138.520 8      1775.583 8        53.195                  
  23495669.449 8 123470577.416 8     -3672.517 8        49.396                  
  24974342.553 7 131241058.889 7     -1914.788 7        47.697                  
  20439983.771 9 107412811.189 9       850.983 9        57.425                  
 02  5 18 00 01 19.0000000  0  7G01G10G23G21G16G07G08                           
  23740337.043 7 124756318.076 7      3392.725 7        47.750                  
  21319200.973 9 112033165.976 9      -819.749 9        54.667                  
  23020485.794 8 120973483.406 8     -2832.119 8        50.266                  
  21771381.442 8 114409361.842 8      1774.968 8        52.676                  
  23496368.503 8 123474247.912 8     -3669.740 8        50.748                  
  24974711.120 8 131242975.739 8     -1916.068 8        48.138                  
  20439822.217 9 107411959.844 9       850.792 9        56.586                  
 02  5 18 00 01 20.0000000  0  7G01G10G23G21G16G07G08                           
  23739693.741 7 124752927.004 7      3389.365 7        47.300                  
  21319357.971 8 112033986.149 8      -819.461 8        53.408                  
  23021027.333 8 120976316.628 8     -2831.849 8        50.786                  
  21771039.572 8 114407585.707 8      1774.806 8        50.988                  
  23497066.682 8 123477918.468 8     -3671.948 8        50.064                  
  24975072.414 7 131244893.301 7     -1918.531 7        47.198                  
  20439658.590 9 107411109.082 9       849.373 9        56.528                  
 02  5 18 00 01 21.0000000  0  7G01G10G23G21G16G07G08                           
  23739049.670 7 124749547.303 7      3370.642 7        46.363                  
  21319513.663 9 112034800.255 9      -808.650 9        55.042                  
  23021565.047 8 120979145.113 8     -2823.706 8        51.586                  
  21770703.527 8 114405819.074 8      1760.021 8        51.257                  
  23497763.806 8 123481583.702 8     -3663.065 8        50.861                  
  24975443.232 7 131246826.085 7     -1944.567 7        44.701                  
  20439496.071 9 107410263.200 9       841.719 9        57.000                  
 02  5 18 00 01 22.0000000  0  7G01G10G23G21G16G07G08                           
  23738408.565 7 124746186.665 7      3349.869 7        43.774                  
  21319666.443 8 112035603.745 8      -797.931 8        52.366                  
  23022102.279 8 120981965.449 8     -2816.803 8        52.952                  
  21770374.808 8 114404068.245 8      1744.761 8        50.492                  
  23498461.770 8 123485239.936 8     -3652.013 8        50.602                  
  24975813.281 7 131248784.007 7     -1970.775 7        45.788                  
  20439334.428 9 107409425.119 9       834.107 9        58.402                  
 02  5 18 00 01 23.0000000  0  7G01G10G23G21G16G07G08                           
  23737774.125 8 124742844.746 8      3334.478 8        49.805                  
  21319817.580 8 112036396.569 8      -788.002 8        51.421                  
  23022637.117 8 120984777.609 8     -2807.849 8        48.005                  
  21770044.142 8 114402332.996 8      1728.326 8        52.446                  
  23499151.925 7 123488887.083 7     -3640.656 7        46.743                  
  24976193.034 8 131250766.765 8     -1995.559 8        49.559                  
  20439176.019 9 107408594.874 9       827.711 9        57.004                  
 02  5 18 00 01 24.0000000  0  7G01G10G23G21G16G07G08                           
  23737141.347 8 124739516.658 8      3329.404 8        52.173                  
  21319966.983 9 112037181.937 9      -785.698 9        55.122                  
  23023170.365 7 120987583.837 7     -2806.938 7        47.127                  
  21769713.851 9 114400609.223 9      1723.472 9        57.170                  
  23499846.941 7 123492527.776 7     -3641.508 7        47.851                  
  24976572.036 7 131252768.032 7     -2005.166 7        45.907                  
  20439018.271 8 107407770.477 8       825.348 8        52.361                  
 02  5 18 00 01 25.0000000  0  7G01G10G23G21G16G07G08                           
  23736507.730 8 124736189.791 8      3326.573 8        49.543                  
  21320116.403 9 112037967.319 9      -786.828 9        56.947                  
  23023704.630 8 120990389.966 8     -2805.547 8        49.218                  
  21769383.167 9 114398886.550 9      1722.437 9        57.639                  
  23500542.189 8 123496168.356 8     -3639.917 8        49.775                  
  24976956.238 7 131254770.991 7     -2002.717 7        43.583                  
  20438858.505 8 107406946.871 8       821.885 8        52.370                  
 02  5 18 00 01 26.0000000  0  7G01G10G23G21G16G07G08                           
  23735874.630 8 124732863.657 8      3327.230 8        48.548                  
  21320265.985 9 112038753.060 9      -786.005 9        56.951                  
  23024238.092 8 120993195.741 8     -2805.586 8        50.760                  
  21769056.164 9 114397164.441 9      1723.194 9        54.108                  
  23501230.843 8 123499810.018 8     -3642.942 8        49.385                  
  24977333.417 7 131256774.145 7     -2001.765 7        47.088                  
  20438700.739 8 107406123.597 8       824.204 8        53.293                  
 02  5 18 00 01 27.0000000  0  7G01G10G23G21G16G07G08                           
  23735241.191 7 124729529.134 7      3343.392 7        46.581                  
  21320416.210 8 112039544.627 8      -796.762 8        53.759                  
  23024775.378 7 120996003.961 7     -2809.048 7        47.091                  
  21768730.894 8 114395435.328 8      1737.141 8        50.882                  
  23501927.520 7 123503459.758 7     -3654.207 7        46.864                  
  24977715.046 8 131258764.720 8     -1977.051 8        49.087                  
  20438542.598 8 107405296.652 8       828.997 8        52.089                  
 02  5 18 00 01 28.0000000  0  7G01G10G23G21G16G07G08                           
  23734603.392 7 124726179.118 7      3359.728 7        42.413                  
  21320569.240 8 112040346.154 8      -807.758 8        48.859                  
  23025306.106 7 120998816.594 7     -2817.144 7        42.832                  
  21768400.800 8 114393692.675 8      1747.491 8        48.092                  
  23502624.287 7 123507124.197 7     -3664.157 7        42.579                  
  24978084.720 7 131260731.700 7     -1954.567 7        47.696                  
  20438385.118 8 107404462.369 8       837.702 8        51.874                  
 02  5 18 00 01 29.0000000  0  7G01G10G23G21G16G07G08                           
  23733963.502 6 124722816.149 6      3364.571 6        40.436                  
  21320723.968 7 112041156.125 7      -806.456 7        45.737                  
  23025843.642 6 121001633.183 6     -2819.250 6        40.403                  
  21768064.111 7 114391939.114 7      1755.109 7        45.078                  
  23503323.288 6 123510800.249 6     -3687.520 6        40.421                  
  24978460.291 7 131262679.118 7     -1952.332 7        44.881                  
  20438226.459 8 107403622.406 8       840.785 8        51.992                  
 02  5 18 00 01 30.0000000  0  7G01G10G23G21G16G07G08                           
  23733325.543 6 124719467.898 6      3335.050 6        38.215                  
  21320875.926 6 112041958.419 6      -791.215 6        40.615                  
  23026377.711 6 121004433.278 6     -2787.748 6        38.594                  
  21767729.264 6 114390195.154 6      1741.402 6        39.889                  
  23504026.505 6 123514490.930 6     -3696.636 6        38.302                  
  24978829.179 6 131264635.306 6     -1962.580 6        40.060                  
  20438068.229 9 107402783.494 9       837.958 9        57.931                  
 02  5 18 00 01 31.0000000  0  7G01G10G23G21G16G07G08                           
  23732692.372 6 124716142.409 6      3316.431 6        38.307                  
  21321026.258 6 112042748.137 6      -789.573 6        38.447                  
  23026905.937 6 121007210.282 6     -2763.745 6        38.403                  
  21767402.082 6 114388466.736 6      1711.597 6        38.250                  
  23504732.903 6 123518198.513 6     -3716.093 6        38.597                  
  24979206.984 6 131266608.007 6     -1977.775 6        37.681                  
  20437910.732 9 107401947.444 9       834.721 9        55.234                  
 02  5 18 00 01 32.0000000  0  7G01G10G23G21G16G07G08                           
  23732063.543 6 124712828.563 6      3315.417 6        38.529                  
  21321175.375 6 112043531.684 6      -779.156 6        38.381                  
  23027433.127 6 121009978.850 6     -2779.054 6        39.196                  
  21767079.582 6 114386747.123 6      1722.549 6        38.393                  
  23505436.371 6 123521908.225 6     -3704.900 6        38.848                  
  24979582.162 6 131268592.356 6     -1981.568 6        37.545                  
  20437753.895 8 107401114.851 8       831.944 8        52.647                  
 02  5 18 00 01 33.0000000  0  7G01G10G23G21G16G07G08                           
  23731429.997 6 124709499.883 6      3333.941 6        39.090                  
  21321327.048 6 112044324.515 6      -798.931 6        39.409                  
  23027960.424 6 121012765.139 6     -2795.061 6        39.439                  
  21766749.184 6 114385018.127 6      1737.804 6        39.119                  
  23506140.607 6 123525603.249 6     -3685.383 6        39.358                  
  24979961.378 6 131270568.395 6     -1964.815 6        38.934                  
  20437596.326 9 107400281.838 9       833.421 9        54.829                  
 02  5 18 00 01 34.0000000  0  7G01G10G23G21G16G07G08                           
  23730792.412 6 124706155.330 6      3341.929 6        39.505                  
  21321480.435 6 112045127.270 6      -802.163 6        41.716                  
  23028498.014 6 121015569.074 6     -2797.928 6        39.989                  
  21766415.998 6 114383278.786 6      1736.744 6        41.473                  
  23506843.235 6 123529285.371 6     -3675.549 6        39.367                  
  24980331.732 7 131272533.915 7     -1970.193 7        42.170                  
  20437439.668 9 107399447.778 9       831.637 9        55.683                  
 02  5 18 00 01 35.0000000  0  7G01G10G23G21G16G07G08                           
  23730157.561 6 124702815.419 6      3336.644 6        40.000                  
  21321631.178 7 112045927.836 7      -801.912 7        42.564                  
  23029030.707 6 121018374.174 6     -2806.233 6        40.587                  
  21766082.562 7 114381544.122 7      1737.477 7        42.060                  
  23507540.949 6 123532959.647 6     -3670.964 6        40.249                  
  24980711.055 6 131274508.745 6     -1973.503 6        41.489                  
  20437283.743 9 107398617.370 9       830.339 9        55.169                  
 02  5 18 00 01 36.0000000  0  7G01G10G23G21G16G07G08                           
  23729522.657 6 124699472.528 6      3348.811 6        41.944                  
  21321784.852 7 112046730.835 7      -802.899 7        46.004                  
  23029567.350 7 121021185.649 7     -2815.467 7        42.729                  
  21765753.754 7 114379808.376 7      1739.209 7        44.268                  
  23508236.143 7 123536625.864 7     -3660.219 7        42.395                  
  24981081.820 7 131276484.552 7     -1972.676 7        43.553                  
  20437127.336 8 107397788.305 8       827.537 8        52.844                  
 02  5 18 00 01 37.0000000  0  7G01G10G23G21G16G07G08                           
  23728879.551 7 124696124.134 7      3351.052 7        45.186                  
  21321943.743 8 112047537.642 8      -806.940 8        51.504                  
  23030096.255 7 121024005.159 7     -2818.868 7        47.025                  
  21765420.372 8 114378069.469 8      1737.485 8        49.159                  
  23508928.479 7 123540284.343 7     -3656.666 7        46.873                  
  24981468.166 7 131278458.684 7     -1975.737 7        44.858                  
  20436966.550 8 107396960.099 8       828.044 8        51.303                  
 02  5 18 00 01 38.0000000  0  7G01G10G23G21G16G07G08                           
  23728252.545 7 124692773.110 7      3351.576 7        47.339                  
  21322093.646 8 112048346.557 8      -810.715 8        52.002                  
  23030642.279 8 121026830.984 8     -2831.007 8        48.848                  
  21765100.320 8 114376329.909 8      1743.762 8        53.045                  
  23509622.815 7 123543934.663 7     -3647.985 7        47.674                  
  24981838.073 7 131280434.222 7     -1970.936 7        45.855                  
  20436807.873 9 107396133.418 9       826.985 9        54.469                  
 02  5 18 00 01 39.0000000  0  7G01G10G23G21G16G07G08                           
  23727603.935 7 124689413.034 7      3364.420 7        44.696                  
  21322247.124 8 112049161.518 8      -823.628 8        49.286                  
  23031180.065 7 121029666.165 7     -2837.792 7        45.105                  
  21764761.862 8 114374584.045 8      1755.269 8        48.248                  
  23510320.422 7 123547579.801 7     -3649.733 7        45.065                  
  24982215.037 7 131282402.653 7     -1953.260 7        45.135                  
  20436649.268 9 107395305.877 9       828.683 9        54.404                  
 02  5 18 00 01 40.0000000  0  7G01G10G23G21G16G07G08                           
  23726964.403 6 124686038.994 6      3376.073 6        40.876                  
  21322404.818 7 112049985.418 7      -824.077 7        44.394                  
  23031721.711 6 121032511.239 6     -2846.460 6        41.687                  
  21764424.299 7 114372827.843 7      1755.737 7        43.363                  
  23511016.170 7 123551225.368 7     -3641.415 7        43.306                  
  24982582.121 6 131284356.291 6     -1950.183 6        41.833                  
  20436490.466 8 107394474.751 8       832.010 8        53.279                  
 02  5 18 00 01 41.0000000  0  7G01G10G23G21G16G07G08                           
  23726322.172 6 124682659.846 6      3387.863 6        39.792                  
  21322562.047 7 112050812.865 7      -829.310 7        42.756                  
  23032265.125 6 121035368.782 6     -2863.916 6        40.145                  
  21764093.346 6 114371069.923 6      1759.461 6        41.961                  
  23511704.306 6 123554853.592 6     -3626.504 6        40.323                  
  24982956.620 7 131286313.237 7     -1950.725 7        42.541                  
  20436331.181 8 107393646.709 8       827.033 8        53.557                  
 02  5 18 00 01 42.0000000  0  7G01G10G23G21G16G07G08                           
  23725677.529 6 124679272.489 6      3394.023 6        39.006                  
  21322719.044 6 112051645.781 6      -838.351 6        40.503                  
  23032810.131 6 121038235.706 6     -2865.265 6        40.084                  
  21763759.928 6 114369306.865 6      1763.738 6        40.070                  
  23512397.803 6 123558475.077 6     -3616.020 6        39.783                  
  24983325.204 6 131288264.905 6     -1948.711 6        40.201                  
  20436172.915 8 107392818.476 8       829.709 8        51.191                  
 02  5 18 00 01 43.0000000  0  7G01G10G23G21G16G07G08                           
  23725030.474 6 124675878.751 6      3397.989 6        38.889                  
  21322877.292 6 112052483.212 6      -835.564 6        39.172                  
  23033356.673 6 121041108.314 6     -2869.755 6        39.534                  
  21763421.471 6 114367539.225 6      1762.388 6        39.058                  
  23513084.063 6 123562095.178 6     -3625.262 6        39.430                  
  24983701.079 6 131290210.675 6     -1940.804 6        39.213                  
  20436012.863 8 107391989.097 8       828.668 8        49.672                  
 02  5 18 00 01 44.0000000  0  7G01G10G23G21G16G07G08                           
  23724384.777 6 124672485.951 6      3380.189 6        38.581                  
  21323035.755 6 112053320.858 6      -838.128 6        38.796                  
  23033902.946 6 121043977.848 6     -2866.444 6        38.839                  
  21763081.495 6 114365771.760 6      1768.493 6        38.575                  
  23513775.737 6 123565721.620 6     -3627.500 6        38.888                  
  24984065.857 6 131292154.547 6     -1947.175 6        39.014                  
  20435852.167 9 107391159.171 9       831.189 9        57.333                  
 02  5 18 00 01 45.0000000  0  7G01G10G23G21G16G07G08                           
  23723740.706 6 124669102.678 6      3373.434 6        38.262                  
  21323193.699 6 112054153.857 6      -830.719 6        39.345                  
  23034443.645 6 121046830.907 6     -2849.789 6        38.501                  
  21762747.827 6 114364009.133 6      1764.417 6        38.998                  
  23514469.323 6 123569370.158 6     -3656.136 6        38.411                  
  24984438.230 6 131294097.954 6     -1944.515 6        38.774                  
  20435693.918 9 107390327.074 9       832.659 9        54.573                  
 02  5 18 00 01 46.0000000  0  7G01G10G23G21G16G07G08                           
  23723100.923 6 124665732.245 6      3366.348 6        39.709                  
  21323349.660 7 112054980.023 7      -823.803 7        43.392                  
  23034989.991 6 121049674.136 6     -2835.446 6        38.313                  
  21762419.001 7 114362256.057 7      1746.230 7        42.997                  
  23515163.231 6 123573022.126 6     -3650.521 6        37.922                  
  24984809.852 7 131296053.842 7     -1968.307 7        44.079                  
  20435537.636 8 107389498.375 8       821.078 8        52.090                  
 02  5 18 00 01 47.0000000  0  7G01G10G23G21G16G07G08                           
  23722464.804 6 124662384.255 6      3344.446 6        41.949                  
  21323506.657 7 112055793.540 7      -806.590 7        47.135                  
  23035515.697 7 121052505.523 7     -2825.047 7        45.215                  
  21762087.656 7 114360521.019 7      1724.348 7        44.182                  
  23515859.104 6 123576667.726 6     -3648.522 6        38.015                  
  24985190.462 6 131298037.131 6     -1990.064 6        38.948                  
  20435382.318 7 107388677.648 7       819.041 7        46.309                  
 02  5 18 00 01 48.0000000  0  7G01G10G23G21G16G07G08                           
  23721832.187 6 124659055.035 6      3324.200 6        40.489                  
  21323659.205 7 112056596.670 7      -798.276 7        44.663                  
  23036057.039 7 121055326.690 7     -2818.259 7        46.467                  
  21761757.204 6 114358800.950 6      1713.954 6        41.443                  
  23516549.170 6 123580308.551 6     -3640.626 6        38.158                  
  24985567.641 6 131300043.163 6     -2005.458 6        37.609                  
  20435228.448 7 107387863.737 7       808.665 7        44.202                  
 02  5 18 00 01 49.0000000  0  7G01G10G23G21G16G07G08                           
  23721194.424 7 124655729.146 7      3325.653 7        43.462                  
  21323813.093 8 112057398.510 8      -803.485 8        49.830                  
  23036596.755 8 121058146.255 8     -2819.685 8        48.425                  
  21761430.272 7 114357083.677 7      1715.106 7        45.649                  
  23517243.632 6 123583949.715 6     -3642.190 6        40.478                  
  24985953.934 6 131302052.941 6     -2015.868 6        40.034                  
  20435072.916 8 107387051.015 8       813.144 8        48.931                  
 02  5 18 00 01 50.0000000  0  7G01G10G23G21G16G07G08                           
  23720565.273 7 124652403.358 7      3325.524 7        45.033                  
  21323962.246 8 112058201.003 8      -804.064 8        53.497                  
  23037133.273 7 121060966.062 7     -2818.644 7        47.442                  
  21761100.392 8 114355366.593 8      1715.957 8        50.136                  
  23517937.218 7 123587591.130 7     -3638.816 7        44.679                  
  24986323.447 7 131304063.170 7     -2013.051 7        42.964                  
  20434917.974 9 107386238.897 9       811.760 9        55.878                  
 02  5 18 00 01 51.0000000  0  7G01G10G23G21G16G07G08                           
  23719930.137 7 124649072.952 7      3333.598 7        43.696                  
  21324116.938 8 112059007.019 8      -814.096 8        49.348                  
  23037674.097 7 121063789.301 7     -2826.298 7        45.208                  
  21760778.625 7 114353646.015 7      1724.992 7        47.052                  
  23518628.499 7 123591233.302 7     -3644.896 7        47.133                  
  24986715.297 7 131306067.982 7     -2003.264 7        42.929                  
  20434767.678 8 107385425.541 8       817.887 8        52.782                  
 02  5 18 00 01 52.0000000  0  7G01G10G23G21G16G07G08                           
  23719293.642 6 124645722.667 6      3364.901 6        39.432                  
  21324272.756 7 112059825.484 7      -823.610 7        43.127                  
  23038211.918 6 121066623.899 6     -2838.983 6        41.714                  
  21760449.692 6 114351909.885 6      1746.304 6        41.549                  
  23519326.284 7 123594881.459 7     -3651.221 7        47.816                  
  24987090.797 6 131308048.866 6     -1961.104 6        38.925                  
  20434611.324 7 107384605.910 7       821.649 7        47.723                  
 02  5 18 00 01 53.0000000  0  7G01G10G23G21G16G07G08                           
  23718649.303 6 124642349.350 6      3378.154 6        38.025                  
  21324431.165 6 112060658.392 6      -839.078 6        40.568                  
  23038753.725 6 121069471.896 6     -2856.759 6        39.873                  
  21760111.949 6 114350155.619 6      1758.632 6        39.197                  
  23520021.175 7 123598536.331 7     -3659.329 7        47.348                  
  24987465.832 6 131310001.852 6     -1929.894 6        37.638                  
  20434454.880 7 107383778.911 7       827.448 7        45.424                  
 02  5 18 00 01 54.0000000  0  7G01G10G23G21G16G07G08                           
  23718005.053 6 124638960.826 6      3393.211 6        38.216                  
  21324591.754 6 112061500.957 6      -845.263 6        41.507                  
  23039297.962 6 121072329.369 6     -2866.180 6        40.429                  
  21759774.314 6 114348389.657 6      1770.254 6        39.820                  
  23520715.851 8 123602194.416 8     -3651.502 8        50.763                  
  24987830.521 6 131311937.385 6     -1936.538 6        37.663                  
  20434298.580 7 107382947.427 7       830.797 7        46.807                  
 02  5 18 00 01 55.0000000  0  7G01G10G23G21G16G07G08                           
  23717358.606 6 124635552.802 6      3418.815 6        38.401                  
  21324756.917 7 112062355.610 7      -864.883 7        42.163                  
  23039841.341 6 121075209.522 6     -2891.060 6        38.875                  
  21759440.324 6 114346611.211 6      1782.762 6        40.850                  
  23521407.829 7 123605834.203 7     -3623.491 7        42.353                  
  24988201.446 6 131313860.985 6     -1915.498 6        39.310                  
  20434141.100 8 107382115.295 8       832.481 8        52.822                  
 02  5 18 00 01 56.0000000  0  7G01G10G23G21G16G07G08                           
  23716704.313 6 124632121.203 6      3446.051 6        38.004                  
  21324922.831 6 112063224.766 6      -875.194 6        40.771                  
  23040398.676 6 121078115.117 6     -2912.589 6        38.075                  
  21759099.669 6 114344817.188 6      1801.740 6        39.853                  
  23522097.395 6 123609456.190 6     -3615.911 6        38.883                  
  24988559.273 6 131315768.254 6     -1903.432 6        38.711                  
  20433984.746 8 107381280.901 8       836.316 8        52.101                  
 02  5 18 00 01 57.0000000  0  7G01G10G23G21G16G07G08                           
  23716047.269 6 124628671.259 6      3462.509 6        38.595                  
  21325091.658 6 112064105.435 6      -884.963 6        41.720                  
  23040955.725 6 121081038.333 6     -2931.008 6        38.880                  
  21758750.741 6 114343010.520 6      1812.304 6        40.394                  
  23522784.458 6 123613068.926 6     -3615.303 6        41.106                  
  24988918.351 6 131317660.551 6     -1885.177 6        39.130                  
  20433825.194 8 107380444.225 8       840.365 8        51.268                  
 02  5 18 00 01 58.0000000  0  7G01G10G23G21G16G07G08                           
  23715386.723 7 124625217.615 7      3451.195 7        42.088                  
  21325257.232 7 112064988.923 7      -881.334 7        47.747                  
  23041502.070 7 121083962.089 7     -2917.345 7        45.841                  
  21758409.925 7 114341200.754 7      1805.343 7        45.677                  
  23523476.133 7 123616687.062 7     -3619.764 7        45.368                  
  24989279.913 6 131319546.584 6     -1886.321 6        41.292                  
  20433664.230 8 107379605.814 8       837.509 8        52.753                  
 02  5 18 00 01 59.0000000  0  7G01G10G23G21G16G07G08                           
  23714734.557 7 124621775.625 7      3442.084 7        43.235                  
  21325424.450 8 112065866.593 8      -879.204 8        49.621                  
  23042063.265 7 121086870.725 7     -2903.061 7        42.810                  
  21758068.394 8 114339397.837 8      1801.807 8        48.508                  
  23524164.054 6 123620321.412 6     -3638.672 6        41.579                  
  24989635.882 7 131321437.357 7     -1887.880 7        43.570                  
  20433503.337 9 107378767.324 9       838.445 9        56.088                  
 02  5 18 00 02  0.0000000  0  7G01G10G23G21G16G07G08                           
  23714079.032 7 124618323.897 7      3460.171 7        44.710                  
  21325589.864 8 112066750.617 8      -888.242 8        49.379                  
  23042618.348 7 121089785.725 7     -2920.951 7        47.167                  
  21757722.397 8 114337587.842 8      1814.984 8        48.967                  
  23524854.996 7 123623957.429 7     -3631.184 7        43.890                  
  24989998.230 7 131323317.145 7     -1863.990 7        44.919                  
  20433340.014 8 107377926.191 8       846.683 8        53.140                  
 02  5 18 00 02  1.0000000  0  7G01G10G23G21G16G07G08                           
  23713418.647 6 124614858.488 6      3475.069 6        40.801                  
  21325761.782 7 112067643.481 7      -897.483 7        44.614                  
  23043175.897 7 121092711.330 7     -2920.147 7        42.465                  
  21757372.861 7 114335767.551 7      1824.434 7        43.373                  
  23525553.478 8 123627592.549 8     -3639.924 8        49.541                  
  24990350.321 6 131325182.736 6     -1865.862 6        40.350                  
  20433178.085 8 107377082.024 8       844.442 8        49.863                  
 02  5 18 00 02  2.0000000  0  7G01G10G23G21G16G07G08                           
  23712755.992 7 124611390.778 7      3471.868 7        44.857                  
  21325935.397 8 112068538.578 8      -895.860 8        49.873                  
  23043732.732 7 121095634.863 7     -2925.743 7        46.461                  
  21757027.863 7 114333944.687 7      1822.955 7        47.829                  
  23526240.935 7 123631236.523 7     -3643.831 7        44.941                  
  24990707.326 7 131327041.884 7     -1856.710 7        42.116                  
  20433015.030 8 107376235.829 8       846.385 8        52.286                  
 02  5 18 00 02  3.0000000  0  7G01G10G23G21G16G07G08                           
  23712110.313 8 124607922.349 8      3469.316 8        48.754                  
  21326103.580 9 112069434.675 9      -896.818 9        54.357                  
  23044286.975 7 121098554.838 7     -2920.253 7        46.541                  
  21756676.201 8 114332120.351 8      1824.371 8        49.403                  
  23526938.703 7 123634890.164 7     -3653.079 7        43.141                  
  24991062.277 7 131328895.641 7     -1853.100 7        43.844                  
  20432850.349 8 107375387.538 8       852.006 8        52.474                  
 02  5 18 00 02  4.0000000  0  7G01G10G23G21G16G07G08                           
  23711423.553 7 124604454.169 7      3470.601 7        44.256                  
  21326270.799 8 112070331.602 8      -897.730 8        52.642                  
  23044843.667 7 121101471.601 7     -2920.462 7        46.227                  
  21756331.025 8 114330295.670 8      1822.908 8        50.126                  
  23527633.968 7 123638551.371 7     -3671.172 7        43.182                  
  24991410.848 7 131330746.381 7     -1854.957 7        44.724                  
  20432691.351 8 107374538.308 8       849.486 8        53.654                  
 02  5 18 00 02  6.0000000  0  7G01G10G23G21G16G07G08                           
  23710108.196 8 124597520.552 8      3460.458 8        48.261                  
  21326615.635 9 112072125.975 9      -897.193 9        56.016                  
  23045948.705 8 121107298.217 8     -2910.679 8        48.470                  
  21755633.579 8 114326647.115 8      1823.336 8        50.110                  
  23529030.808 7 123645888.508 7     -3670.643 7        45.780                  
  24992110.563 7 131334444.069 7     -1849.775 7        43.231                  
  20432367.189 8 107372838.413 8       851.612 8        53.522                  
 02  5 18 00 02  7.0000000  0  7G01G10G23G21G16G07G08                           
  23709455.512 7 124594056.551 7      3460.505 7        47.617                  
  21326783.264 9 112073022.563 9      -896.898 9        54.943                  
  23046503.645 7 121110205.217 7     -2904.230 7        45.921                  
  21755286.420 9 114324823.891 9      1822.840 9        54.840                  
  23529730.594 7 123649567.959 7     -3689.329 7        44.164                  
  24992450.182 7 131336291.074 7     -1845.165 7        43.044                  
  20432207.297 9 107371987.590 9       851.840 9        55.124                  
 02  5 18 00 02  8.0000000  0  7G01G10G23G21G16G07G08                           
  23708806.223 7 124590595.573 7      3460.630 7        46.965                  
  21326959.846 8 112073917.983 8      -894.300 8        52.764                  
  23047055.459 7 121113106.684 7     -2901.477 7        45.912                  
  21754951.733 8 114323002.344 8      1819.879 8        53.426                  
  23530431.918 7 123653255.622 7     -3693.135 7        43.682                  
  24992805.453 7 131338137.836 7     -1847.094 7        43.205                  
  20432048.673 8 107371136.371 8       852.845 8        53.303                  
 02  5 18 00 02  9.0000000  0  7G01G10G23G21G16G07G08                           
  23708147.607 7 124587137.400 7      3454.592 7        47.076                  
  21327126.761 8 112074812.783 8      -894.602 8        52.935                  
  23047606.396 7 121116004.247 7     -2897.410 7        46.213                  
  21754594.317 8 114321182.549 8      1817.107 8        52.140                  
  23531135.314 7 123656948.767 7     -3694.267 7        44.226                  
  24993178.308 7 131339984.851 7     -1850.142 7        46.132                  
  20431890.300 9 107370284.944 9       851.833 9        54.612                  
 02  5 18 00 02 10.0000000  0  7G01G10G23G21G16G07G08                           
  23707489.133 7 124583682.327 7      3456.715 7        47.421                  
  21327292.549 8 112075706.467 8      -893.845 8        53.183                  
  23048157.799 7 121118897.556 7     -2894.951 7        45.309                  
  21754255.341 8 114319364.319 8      1817.736 8        52.237                  
  23531838.389 7 123660647.757 7     -3699.797 7        44.486                  
  24993495.841 7 131341832.735 7     -1848.510 7        44.755                  
  20431724.386 9 107369433.678 9       852.523 9        55.252                  
 02  5 18 00 02 11.0000000  0  7G01G10G23G21G16G07G08                           
  23706831.964 7 124580233.009 7      3448.442 7        45.388                  
  21327467.541 8 112076597.287 8      -891.129 8        50.340                  
  23048708.808 7 121121783.488 7     -2877.727 7        44.198                  
  21753906.699 8 114317549.960 8      1811.736 8        49.977                  
  23532543.107 7 123664354.866 7     -3712.534 7        43.211                  
  24993873.449 7 131343683.051 7     -1852.398 7        44.645                  
  20431568.479 9 107368582.728 9       849.850 9        56.272                  
 02  5 18 00 02 12.0000000  0  7G01G10G23G21G16G07G08                           
  23706176.368 6 124576799.252 6      3431.063 6        41.337                  
  21327635.849 7 112077479.706 7      -877.301 7        45.912                  
  23049255.386 7 121124658.672 7     -2872.504 7        42.289                  
  21753568.438 7 114315747.329 7      1799.412 7        44.313                  
  23533249.559 7 123668063.317 7     -3708.057 7        46.365                  
  24994230.097 6 131345549.805 6     -1873.059 6        41.311                  
  20431403.191 8 107367736.133 8       841.241 8        52.427                  
 02  5 18 00 02 13.0000000  0  7G01G10G23G21G16G07G08                           
  23705527.329 6 124573376.300 6      3425.050 6        40.239                  
  21327803.782 7 112078356.471 7      -878.523 7        44.798                  
  23049802.839 6 121127525.421 6     -2867.505 6        41.935                  
  21753222.816 7 114313952.802 7      1796.864 7        43.058                  
  23533955.350 8 123671775.055 8     -3712.888 8        48.110                  
  24994582.974 6 131347426.819 6     -1876.194 6        40.509                  
  20431240.297 8 107366892.241 8       840.203 8        50.044                  
 02  5 18 00 02 14.0000000  0  7G01G10G23G21G16G07G08                           
  23704872.072 7 124569956.811 7      3417.701 7        44.285                  
  21327967.820 8 112079231.975 8      -875.177 8        49.971                  
  23050343.895 7 121130388.861 7     -2863.344 7        45.477                  
  21752881.017 7 114312160.583 7      1793.524 7        47.968                  
  23534661.122 7 123675490.170 7     -3726.229 7        45.738                  
  24994945.412 7 131349306.138 7     -1884.650 7        43.477                  
  20431081.155 9 107366049.031 9       842.764 9        55.732                  
 02  5 18 00 02 15.0000000  0  7G01G10G23G21G16G07G08                           
  23704224.945 7 124566540.598 7      3413.077 7        46.236                  
  21328132.393 8 112080106.207 8      -873.843 8        51.475                  
  23050888.829 7 121133248.971 7     -2852.638 7        45.825                  
  21752542.185 8 114310370.905 8      1786.051 8        48.103                  
  23535370.773 7 123679208.188 7     -3720.670 7        47.581                  
  24995299.987 7 131351188.043 7     -1883.703 7        44.875                  
  20430915.456 9 107365206.526 9       841.830 9        56.038                  
 02  5 18 00 02 17.0000000  0  7G01G10G23G21G16G07G08                           
  23702929.244 7 124559722.320 7      3408.760 7        46.158                  
  21328462.917 9 112081848.371 9      -871.399 9        54.358                  
  23051973.943 7 121138948.444 7     -2836.752 7        44.077                  
  21751862.715 8 114306799.401 8      1786.489 8        50.589                  
  23536791.164 6 123686671.644 6     -3745.482 6        41.349                  
  24996022.289 7 131354954.294 7     -1878.696 7        44.743                  
  20430593.188 8 107363520.885 8       843.405 8        51.823                  
 02  5 18 00 02 18.0000000  0  7G01G10G23G21G16G07G08                           
  23702279.402 7 124556320.951 7      3399.047 7        44.866                  
  21328628.223 8 112082716.009 8      -867.101 8        52.374                  
  23052515.928 7 121141785.378 7     -2833.097 7        43.514                  
  21751521.399 8 114305017.635 8      1779.118 8        49.934                  
  23537503.244 6 123690420.756 6     -3746.588 6        41.303                  
  24996372.289 7 131356837.854 7     -1885.540 7        46.493                  
  20430436.816 9 107362677.108 9       843.590 9        54.920                  
 02  5 18 00 02 19.0000000  0  7G01G10G23G21G16G07G08                           
  23701634.562 7 124552925.575 7      3391.294 7        43.484                  
  21328794.405 8 112083580.786 8      -860.648 8        49.649                  
  23053052.339 7 121144617.246 7     -2832.297 7        44.352                  
  21751187.016 7 114303240.519 7      1775.514 7        47.306                  
  23538216.254 7 123694172.711 7     -3749.485 7        46.780                  
  24996738.068 7 131358726.525 7     -1885.198 7        45.195                  
  20430272.368 9 107361834.815 9       840.772 9        55.665                  
 02  5 18 00 02 20.0000000  0  7G01G10G23G21G16G07G08                           
  23700989.955 7 124549535.506 7      3389.019 7        44.308                  
  21328959.979 8 112084443.083 8      -862.611 8        49.631                  
  23053592.376 7 121147445.052 7     -2820.124 7        44.925                  
  21750849.506 8 114301467.207 8      1765.671 8        48.565                  
  23538930.568 8 123697926.976 8     -3754.483 8        48.364                  
  24997095.288 7 131360620.286 7     -1904.082 7        45.504                  
  20430118.658 9 107360993.762 9       839.597 9        55.469                  
 02  5 18 00 02 21.0000000  0  7G01G10G23G21G16G07G08                           
  23700344.758 7 124546154.231 7      3381.949 7        43.288                  
  21329123.552 8 112085300.863 8      -853.696 8        48.543                  
  23054129.215 7 121150265.956 7     -2816.187 7        45.416                  
  21750509.619 7 114299700.488 7      1760.938 7        47.203                  
  23539651.655 8 123701684.262 8     -3761.210 8        48.168                  
  24997460.459 7 131362522.311 7     -1903.018 7        43.398                  
  20429959.302 8 107360155.181 8       838.497 8        52.837                  
 02  5 18 00 02 22.0000000  0  7G01G10G23G21G16G07G08                           
  23699703.385 7 124542777.930 7      3373.688 7        43.854                  
  21329287.018 8 112086156.398 8      -853.802 8        48.947                  
  23054664.267 7 121153083.224 7     -2818.198 7        46.541                  
  21750174.003 7 114297937.478 7      1762.571 7        47.437                  
  23540359.089 8 123705442.892 8     -3757.127 8        48.228                  
  24997821.931 7 131364429.303 7     -1905.751 7        43.418                  
  20429802.484 9 107359317.915 9       836.303 9        55.028                  
 02  5 18 00 02 23.0000000  0  7G01G10G23G21G16G07G08                           
  23699061.870 7 124539407.024 7      3367.448 7        44.072                  
  21329449.894 8 112087009.371 8      -852.727 8        48.883                  
  23055202.053 7 121155896.742 7     -2811.553 7        47.609                  
  21749842.819 8 114296178.855 8      1752.051 8        48.557                  
  23541077.513 8 123709202.806 8     -3758.626 8        48.572                  
  24998182.868 7 131366341.958 7     -1919.096 7        44.195                  
  20429645.540 9 107358482.458 9       833.260 9        54.415                  
 02  5 18 00 02 24.0000000  0  7G01G10G23G21G16G07G08                           
  23698421.497 7 124536045.563 7      3362.745 7        42.594                  
  21329610.358 7 112087857.535 7      -847.201 7        47.274                  
  23055733.264 7 121158703.773 7     -2799.479 7        45.578                  
  21749511.134 7 114294427.225 7      1746.905 7        46.352                  
  23541797.671 7 123712963.971 7     -3760.736 7        47.225                  
  24998552.042 7 131368264.162 7     -1927.897 7        42.880                  
  20429486.667 8 107357649.883 8       828.805 8        52.024                  
 02  5 18 00 02 25.0000000  0  7G01G10G23G21G16G07G08                           
  23697783.109 7 124532692.908 7      3354.183 7        42.574                  
  21329769.750 7 112088701.187 7      -838.734 7        47.552                  
  23056268.548 7 121161505.079 7     -2800.412 7        44.015                  
  21749175.625 7 114292682.495 7      1743.777 7        45.464                  
  23542502.854 7 123716725.488 7     -3761.509 7        47.648                  
  24998916.909 6 131370196.139 6     -1928.756 6        41.023                  
  20429329.473 8 107356820.052 8       828.804 8        52.067                  
 02  5 18 00 02 26.0000000  0  7G01G10G23G21G16G07G08                           
  23697147.275 7 124529346.416 7      3349.809 7        42.390                  
  21329929.427 8 112089541.809 8      -843.209 8        48.291                  
  23056794.076 7 121164306.505 7     -2806.385 7        46.307                  
  21748842.368 7 114290943.380 7      1736.174 7        46.593                  
  23543224.369 7 123720479.278 7     -3744.193 7        45.457                  
  24999288.978 6 131372138.722 6     -1942.131 6        40.666                  
  20429171.475 8 107355993.958 8       824.860 8        50.028                  
 02  5 18 00 02 27.0000000  0  7G01G10G23G21G16G07G08                           
  23696509.619 7 124525993.508 7      3359.521 7        46.302                  
  21330089.981 8 112090386.798 8      -846.229 8        50.906                  
  23057337.598 7 121167123.638 7     -2827.024 7        43.035                  
  21748514.007 8 114289202.353 8      1743.458 8        50.660                  
  23543933.233 6 123724210.621 6     -3729.722 6        39.941                  
  24999655.990 7 131374085.530 7     -1943.889 7        42.086                  
  20429013.620 8 107355171.633 8       822.480 8        50.348                  
 02  5 18 00 02 28.0000000  0  7G01G10G23G21G16G07G08                           
  23695868.979 6 124522628.711 6      3374.346 6        41.802                  
  21330250.605 7 112091239.523 7      -856.749 7        46.509                  
  23057876.171 6 121169960.373 6     -2841.529 6        39.294                  
  21748184.377 7 114287455.305 7      1753.455 7        47.408                  
  23544640.793 6 123727919.345 6     -3693.962 6        38.345                  
  25000029.685 7 131376030.777 7     -1942.044 7        45.899                  
  20428856.801 8 107354351.495 8       820.462 8        53.025                  
 02  5 18 00 02 29.0000000  0  7G01G10G23G21G16G07G08                           
  23695225.373 6 124519251.458 6      3383.274 6        40.456                  
  21330414.768 7 112092100.139 7      -861.056 7        44.924                  
  23058418.406 6 121172816.064 6     -2856.486 6        38.679                  
  21747849.601 7 114285701.421 7      1752.642 7        45.039                  
  23545343.064 6 123731607.631 6     -3687.510 6        38.130                  
  25000396.357 7 131377972.815 7     -1941.278 7        45.407                  
  20428698.303 8 107353533.217 8       818.293 8        52.712                  
 02  5 18 00 02 30.0000000  0  7G01G10G23G21G16G07G08                           
  23694583.464 7 124515871.529 7      3383.363 7        43.121                  
  21330577.769 8 112092962.992 8      -863.845 8        49.171                  
  23058969.666 6 121175676.457 6     -2859.699 6        41.997                  
  21747511.572 8 114283946.254 8      1754.700 8        48.482                  
  23546042.118 6 123735291.354 6     -3681.394 6        41.102                  
  25000768.998 7 131379914.254 7     -1943.774 7        47.335                  
  20428541.788 9 107352715.461 9       817.761 9        55.173                  
 02  5 18 00 02 31.0000000  0  7G01G10G23G21G16G07G08                           
  23693940.822 8 124512491.712 8      3379.375 8        48.544                  
  21330744.666 9 112093826.582 9      -863.687 9        55.260                  
  23059507.058 8 121178537.152 8     -2862.809 8        49.277                  
  21747177.153 8 114282191.258 8      1754.914 8        51.359                  
  23546744.156 8 123738975.357 8     -3682.555 8        49.537                  
  25001135.599 8 131381856.201 8     -1936.536 8        48.088                  
  20428386.524 9 107351898.178 9       817.108 9        56.337                  
 02  5 18 00 02 32.0000000  0  7G01G10G23G21G16G07G08                           
  23693295.661 8 124509112.067 8      3379.245 8        48.950                  
  21330909.543 8 112094690.789 8      -864.728 8        53.329                  
  23060053.332 8 121181398.262 8     -2860.400 8        50.819                  
  21746847.273 8 114280436.615 8      1754.127 8        51.532                  
  23547445.908 8 123742659.477 8     -3684.932 8        52.391                  
  25001508.061 7 131383798.387 7     -1944.165 7        47.281                  
  20428230.992 9 107351081.403 9       816.757 9        55.987                  
 02  5 18 00 02 33.0000000  0  7G01G10G23G21G16G07G08                           
  23692653.234 8 124505732.591 8      3378.968 8        50.632                  
  21331074.582 8 112095555.591 8      -865.911 8        52.968                  
  23060599.785 8 121184259.778 8     -2860.209 8        50.530                  
  21746514.910 8 114278682.273 8      1753.688 8        53.532                  
  23548145.748 8 123746343.795 8     -3684.586 8        51.450                  
  25001875.769 7 131385740.915 7     -1944.008 7        45.597                  
  20428073.691 9 107350265.109 9       815.885 9        55.746                  
 02  5 18 00 02 34.0000000  0  7G01G10G23G21G16G07G08                           
  23692011.075 8 124502353.283 8      3376.795 8        50.004                  
  21331240.192 9 112096420.933 9      -863.471 9        54.064                  
  23061138.929 8 121187121.665 8     -2862.123 8        50.792                  
  21746178.043 9 114276928.217 9      1754.064 9        54.731                  
  23548848.180 8 123750028.277 8     -3684.627 8        50.568                  
  25002245.819 8 131387683.807 8     -1949.361 8        48.970                  
  20427916.766 9 107349449.303 9       814.601 9        56.763                  
 02  5 18 00 02 35.0000000  0  7G01G10G23G21G16G07G08                           
  23691367.004 7 124498974.089 7      3380.026 7        47.883                  
  21331405.284 8 112097286.818 8      -865.103 8        53.881                  
  23061687.526 8 121189983.970 8     -2862.467 8        50.595                  
  21745841.355 8 114275174.439 8      1753.633 8        53.366                  
  23549549.539 8 123753712.964 8     -3682.768 8        50.661                  
  25002616.244 7 131389627.073 7     -1947.452 7        46.914                  
  20427761.037 9 107348633.986 9       814.553 9        55.017                  
