     2.11           OBSERVATION DATA    G                   RINEX VERSION / TYPE
BLANK OR G = GPS,  R = GLONASS,  E = GALILEO,  M = MIXED    COMMENT             
GNSS-SDR            joel                17-APR-25 08:53     PGM / RUN BY / DATE 
GPS OBSERVATION DATA FILE GENERATED BY GNSS-SDR             COMMENT             
GNSS-SDR VERSION 0.0.16                                     COMMENT             
See https://gnss-sdr.org                                    COMMENT             
DEFAULT MARKER NAME                                         MARKER NAME         
joel                CTTC                                    OBSERVER / AGENCY   
GNSS-SDR            Software Receiver   0.0.16              REC # / TYPE / VERS 
Antenna number      Antenna type                            ANT # / TYPE        
        0.0000        0.0000        0.0000                  APPROX POSITION XYZ 
        0.0000        0.0000        0.0000                  ANTENNA: DELTA H/E/N
     1     1                                                WAVELENGTH FACT L1/2
     4    C1    L1    D1    S1                              # / TYPES OF OBSERV 
  2002    05    18    00    00   42.4800000     GPS         TIME OF FIRST OBS   
    18                                                      LEAP SECONDS        
                                                            END OF HEADER       
 02  5 18 00 00 43.0000000  0  7G01G16G21G23G10G07G08                           
  23763590.557 7 124878514.381 7      3399.697 7        46.684                  
  23471245.193 8 123342234.695 8     -3662.994 8        49.405                  
  21783585.538 8 114473506.344 8      1786.635 8        53.259                  
  23001127.174 8 120871736.352 8     -2818.484 8        49.978                  
  21313658.681 9 112004038.667 9      -798.336 9        54.379                  
  24961618.648 7 131174190.514 7     -1906.865 7        45.638                  
  20445704.806 9 107442919.360 9       868.249 9        55.799                  
 02  5 18 00 00 44.0000000  0  7G01G16G21G23G10G07G08                           
  23762945.610 7 124875117.259 7      3394.653 7        46.770                  
  23471943.854 8 123345898.470 8     -3663.427 8        50.486                  
  21783249.386 9 114471719.133 9      1786.415 9        54.226                  
  23001664.817 8 120874555.620 8     -2818.304 8        50.206                  
  21313811.211 8 112004837.024 8      -799.530 8        53.914                  
  24961981.978 7 131176095.041 7     -1909.805 7        46.107                  
  20445541.823 9 107442051.516 9       867.789 9        56.828                  
 02  5 18 00 00 45.0000000  0  7G01G16G21G23G10G07G08                           
  23762299.002 7 124871720.311 7      3394.041 7        47.506                  
  23472640.764 8 123349562.442 8     -3662.073 8        50.283                  
  21782906.712 8 114469932.232 8      1786.910 8        53.225                  
  23002198.993 8 120877375.250 8     -2818.289 8        51.032                  
  21313963.044 9 112005636.022 9      -798.032 9        54.604                  
  24962342.700 7 131177999.923 7     -1904.900 7        46.788                  
  20445380.198 9 107441184.149 9       867.250 9        57.369                  
 02  5 18 00 00 46.0000000  0  7G01G16G21G23G10G07G08                           
  23761651.178 8 124868323.515 8      3395.471 8        48.417                  
  23473337.655 8 123353226.599 8     -3665.612 8        49.297                  
  21782563.555 8 114468145.641 8      1786.830 8        53.635                  
  23002736.511 8 120880195.292 8     -2822.643 8        50.576                  
  21314115.253 9 112006435.619 9      -799.383 9        54.143                  
  24962709.051 7 131179905.164 7     -1905.457 7        45.007                  
  20445215.677 9 107440317.259 9       866.660 9        56.300                  
 02  5 18 00 00 47.0000000  0  7G01G16G21G23G10G07G08                           
  23761005.713 7 124864926.872 7      3392.840 7        47.627                  
  23474035.620 8 123356890.951 8     -3665.565 8        50.480                  
  21782227.278 8 114466359.352 8      1785.611 8        52.245                  
  23003272.582 8 120883015.723 8     -2822.779 8        49.774                  
  21314268.462 8 112007235.812 8      -801.047 8        53.804                  
  24963068.433 7 131181810.745 7     -1907.415 7        45.943                  
  20445048.388 9 107439450.823 9       865.979 9        55.631                  
 02  5 18 00 00 48.0000000  0  7G01G16G21G23G10G07G08                           
  23760360.052 7 124861530.391 7      3396.517 7        47.347                  
  23474732.958 8 123360555.505 8     -3664.552 8        50.438                  
  21781887.784 8 114464573.358 8      1785.159 8        52.284                  
  23003811.941 8 120885836.546 8     -2822.510 8        50.773                  
  21314420.241 9 112008036.612 9      -801.060 9        56.881                  
  24963433.175 7 131183716.683 7     -1905.886 7        46.245                  
  20444880.991 9 107438584.862 9       864.952 9        57.922                  
 02  5 18 00 00 49.0000000  0  7G01G16G21G23G10G07G08                           
  23759712.085 8 124858134.070 8      3396.604 8        49.106                  
  23475429.671 8 123364220.251 8     -3667.134 8        50.711                  
  21781545.575 8 114462787.662 8      1785.502 8        53.589                  
  23004345.849 8 120888657.780 8     -2821.148 8        49.431                  
  21314573.540 9 112008838.055 9      -802.225 9        57.280                  
  24963795.095 7 131185622.983 7     -1907.314 7        46.816                  
  20444713.254 9 107437719.377 9       865.609 9        57.235                  
 02  5 18 00 00 50.0000000  0  7G01G16G21G23G10G07G08                           
  23759066.317 7 124854737.906 7      3396.991 7        47.095                  
  23476128.386 8 123367885.173 8     -3665.728 8        48.834                  
  21781204.937 8 114461002.265 8      1787.111 8        53.306                  
  23004883.832 8 120891479.407 8     -2822.126 8        49.599                  
  21314726.105 9 112009640.095 9      -801.909 9        56.271                  
  24964157.050 7 131187529.626 7     -1905.313 7        47.781                  
  20444545.267 9 107436854.361 9       864.884 9        58.656                  
 02  5 18 00 00 51.0000000  0  7G01G16G21G23G10G07G08                           
  23758421.549 7 124851341.921 7      3393.905 7        47.528                  
  23476824.849 8 123371550.307 8     -3665.764 8        50.493                  
  21780869.375 8 114459217.167 8      1783.596 8        53.158                  
  23005422.261 8 120894301.419 8     -2821.814 8        49.856                  
  21314878.993 9 112010442.732 9      -802.743 9        54.758                  
  24964522.918 7 131189436.629 7     -1906.597 7        47.331                  
  20444381.391 9 107435989.807 9       863.709 9        54.628                  
 02  5 18 00 00 52.0000000  0  7G01G16G21G23G10G07G08                           
  23757774.333 8 124847946.075 8      3397.190 8        48.305                  
  23477522.152 8 123375215.640 8     -3666.343 8        49.676                  
  21780530.221 8 114457432.364 8      1784.977 8        51.519                  
  23005957.188 8 120897123.815 8     -2822.241 8        51.386                  
  21315031.952 9 112011245.989 9      -804.183 9        54.026                  
  24964882.460 7 131191343.991 7     -1911.302 7        46.037                  
  20444219.229 9 107435125.730 9       864.520 9        56.362                  
 02  5 18 00 00 53.0000000  0  7G01G16G21G23G10G07G08                           
  23757127.188 7 124844550.402 7      3393.063 7        47.985                  
  23478220.813 8 123378881.143 8     -3662.367 8        49.495                  
  21780186.153 8 114455647.858 8      1784.931 8        51.848                  
  23006496.958 8 120899946.603 8     -2823.607 8        49.660                  
  21315184.857 9 112012049.876 9      -805.068 9        55.027                  
  24965249.383 7 131193251.699 7     -1908.636 7        46.797                  
  20444056.979 9 107434262.131 9       863.371 9        57.121                  
 02  5 18 00 00 54.0000000  0  7G01G16G21G23G10G07G08                           
  23756482.528 7 124841154.887 7      3394.706 7        46.979                  
  23478916.865 8 123382546.856 8     -3666.088 8        50.115                  
  21779846.981 8 114453863.667 8      1783.999 8        53.864                  
  23007032.225 8 120902769.776 8     -2824.017 8        50.436                  
  21315338.173 9 112012854.360 9      -805.104 9        54.014                  
  24965609.086 7 131195159.759 7     -1906.379 7        46.831                  
  20443895.210 9 107433399.008 9       863.128 9        54.943                  
 02  5 18 00 00 55.0000000  0  7G01G16G21G23G10G07G08                           
  23755836.741 8 124837759.521 8      3394.966 8        48.816                  
  23479614.704 8 123386212.755 8     -3667.160 8        49.606                  
  21779511.615 8 114452079.796 8      1782.432 8        53.359                  
  23007570.725 8 120905593.340 8     -2822.359 8        49.873                  
  21315491.203 9 112013659.441 9      -805.396 9        54.168                  
  24965973.632 7 131197068.174 7     -1908.913 7        47.057                  
  20443734.175 9 107432536.338 9       862.160 9        56.865                  
 02  5 18 00 00 56.0000000  0  7G01G16G21G23G10G07G08                           
  23755189.239 7 124834364.326 7      3392.404 7        46.772                  
  23480314.097 7 123389878.845 7     -3668.049 7        47.429                  
  21779171.568 9 114450296.209 9      1782.481 9        54.233                  
  23008107.922 8 120908417.322 8     -2824.765 8        51.899                  
  21315644.805 9 112014465.138 9      -806.163 9        54.592                  
  24966337.553 7 131198976.942 7     -1904.850 7        46.368                  
  20443571.674 9 107431674.145 9       861.569 9        56.022                  
 02  5 18 00 00 57.0000000  0  7G01G16G21G23G10G07G08                           
  23754544.650 8 124830969.292 8      3395.845 8        48.707                  
  23481009.506 7 123393545.124 7     -3663.732 7        47.422                  
  21778828.089 8 114448512.933 8      1784.772 8        51.743                  
  23008644.386 8 120911241.685 8     -2824.402 8        50.929                  
  21315798.336 9 112015271.470 9      -806.509 9        55.377                  
  24966698.346 7 131200886.067 7     -1912.638 7        45.965                  
  20443405.295 9 107430812.429 9       861.553 9        58.264                  
 02  5 18 00 00 58.0000000  0  7G01G16G21G23G10G07G08                           
  23753898.202 8 124827574.410 8      3397.145 8        48.510                  
  23481707.827 7 123397211.601 7     -3665.607 7        47.741                  
  21778490.329 8 114446729.946 8      1783.034 8        51.991                  
  23009182.940 8 120914066.446 8     -2825.137 8        50.079                  
  21315952.081 9 112016078.397 9      -806.609 9        55.502                  
  24967065.037 7 131202795.535 7     -1911.458 7        45.920                  
  20443239.113 9 107429951.189 9       861.865 9        56.998                  
 02  5 18 00 00 59.0000000  0  7G01G16G21G23G10G07G08                           
  23753251.076 8 124824179.700 8      3395.358 8        49.096                  
  23482406.274 8 123400878.275 8     -3666.557 8        48.523                  
  21778154.999 8 114444947.266 8      1782.947 8        50.760                  
  23009718.796 8 120916891.586 8     -2824.324 8        49.960                  
  21316105.969 9 112016885.921 9      -807.637 9        56.595                  
  24967425.347 7 131204705.368 7     -1910.910 7        44.693                  
  20443072.681 9 107429090.403 9       860.775 9        55.324                  
 02  5 18 00 01  0.0000000  0  7G01G16G21G23G10G07G08                           
  23752605.861 8 124820785.142 8      3397.692 8        49.838                  
  23483102.755 8 123404545.131 8     -3670.428 8        48.696                  
  21777813.522 8 114443164.873 8      1780.439 8        52.409                  
  23010258.709 8 120919717.103 8     -2826.592 8        51.591                  
  21316259.643 9 112017694.078 9      -807.977 9        57.439                  
  24967791.144 7 131206615.536 7     -1908.935 7        46.977                  
  20442905.695 9 107428230.093 9       859.896 9        57.006                  
 02  5 18 00 01  1.0000000  0  7G01G16G21G23G10G07G08                           
  23751959.914 8 124817390.741 8      3396.173 8        50.106                  
  23483801.166 8 123408212.186 8     -3665.098 8        49.379                  
  21777470.294 8 114441382.790 8      1782.212 8        53.967                  
  23010795.155 8 120922543.020 8     -2823.873 8        49.272                  
  21316414.138 9 112018502.852 9      -808.689 9        55.333                  
  24968153.278 7 131208526.075 7     -1912.307 7        47.399                  
  20442740.425 9 107427370.259 9       859.801 9        56.641                  
 02  5 18 00 01  2.0000000  0  7G01G16G21G23G10G07G08                           
  23751313.180 8 124813996.510 8      3395.810 8        49.066                  
  23484499.755 8 123411879.434 8     -3666.528 8        49.124                  
  21777134.678 8 114439600.991 8      1782.071 8        50.746                  
  23011333.263 8 120925369.329 8     -2824.886 8        50.199                  
  21316567.401 9 112019312.225 9      -810.838 9        54.344                  
  24968517.806 7 131210436.945 7     -1912.135 7        45.639                  
  20442578.621 9 107426510.904 9       858.932 9        57.193                  
 02  5 18 00 01  3.0000000  0  7G01G16G21G23G10G07G08                           
  23750667.947 8 124810602.432 8      3396.393 8        48.965                  
  23485196.004 8 123415546.857 8     -3666.905 8        51.016                  
  21776798.651 8 114437819.515 8      1781.650 8        51.973                  
  23011872.067 8 120928196.043 8     -2826.686 8        50.886                  
  21316721.039 9 112020122.192 9      -810.331 9        55.032                  
  24968882.030 7 131212348.184 7     -1910.559 7        44.743                  
  20442416.924 9 107425652.000 9       858.104 9        55.570                  
 02  5 18 00 01  4.0000000  0  7G01G16G21G23G10G07G08                           
  23750023.180 8 124807208.508 8      3390.087 8        49.268                  
  23485895.344 8 123419214.501 8     -3668.044 8        52.162                  
  21776456.387 9 114436038.350 9      1780.678 9        54.057                  
  23012407.602 8 120931023.149 8     -2826.597 8        53.064                  
  21316875.088 9 112020932.780 9      -810.880 9        54.674                  
  24969242.842 7 131214259.774 7     -1910.283 7        45.143                  
  20442255.888 9 107424793.575 9       858.148 9        56.759                  
 02  5 18 00 01  5.0000000  0  7G01G16G21G23G10G07G08                           
  23749375.803 8 124803814.766 8      3389.047 8        48.140                  
  23486593.469 8 123422882.316 8     -3666.011 8        49.208                  
  21776115.429 8 114434257.482 8      1779.827 8        53.745                  
  23012947.782 8 120933850.640 8     -2827.707 8        51.187                  
  21317028.833 9 112021743.999 9      -812.003 9        56.108                  
  24969609.996 7 131216171.713 7     -1912.792 7        45.786                  
  20442094.638 9 107423935.625 9       858.151 9        56.301                  
 02  5 18 00 01  6.0000000  0  7G01G16G21G23G10G07G08                           
  23748729.552 8 124800421.169 8      3392.093 8        48.428                  
  23487290.468 8 123426550.329 8     -3664.422 8        48.789                  
  21775779.938 8 114432476.913 8      1779.896 8        52.031                  
  23013485.032 8 120936678.498 8     -2827.004 8        48.881                  
  21317182.703 9 112022555.814 9      -812.129 9        56.325                  
  24969970.879 7 131218083.992 7     -1910.493 7        46.429                  
  20441934.710 9 107423078.154 9       857.032 9        57.028                  
 02  5 18 00 01  7.0000000  0  7G01G16G21G23G10G07G08                           
  23748085.463 8 124797027.723 8      3392.592 8        49.176                  
  23487989.665 8 123430218.541 8     -3668.269 8        50.151                  
  21775443.035 8 114430696.640 8      1779.829 8        52.922                  
  23014023.247 8 120939506.762 8     -2827.343 8        48.924                  
  21317336.662 9 112023368.226 9      -813.274 9        54.950                  
  24970337.480 7 131219996.640 7     -1914.431 7        46.142                  
  20441772.817 9 107422221.146 9       856.574 9        57.068                  
 02  5 18 00 01  8.0000000  0  7G01G16G21G23G10G07G08                           
  23747438.568 8 124793634.467 8      3393.928 8        48.889                  
  23488687.432 8 123433886.933 8     -3666.721 8        50.797                  
  21775100.897 8 114428916.669 8      1778.966 8        52.583                  
  23014562.427 8 120942335.417 8     -2828.542 8        49.933                  
  21317491.408 9 112024181.271 9      -813.296 9        57.848                  
  24970700.025 8 131221909.639 8     -1914.162 8        48.190                  
  20441607.314 9 107421364.601 9       857.239 9        58.693                  
 02  5 18 00 01  9.0000000  0  7G01G16G21G23G10G07G08                           
  23746792.532 8 124790241.353 8      3391.219 8        48.028                  
  23489384.413 8 123437555.528 8     -3667.219 8        48.443                  
  21774760.474 8 114427136.990 8      1780.312 8        53.912                  
  23015099.338 8 120945164.476 8     -2829.959 8        50.448                  
  21317645.475 9 112024994.930 9      -813.810 9        55.602                  
  24971064.445 8 131223822.982 8     -1912.737 8        48.040                  
  20441442.580 9 107420508.537 9       855.923 9        57.489                  
 02  5 18 00 01 10.0000000  0  7G01G16G21G23G10G07G08                           
  23746148.782 8 124786848.394 8      3397.264 8        49.663                  
  23490083.825 8 123441224.312 8     -3669.609 8        49.564                  
  21774425.126 8 114425357.613 8      1779.872 8        53.373                  
  23015639.429 8 120947993.930 8     -2828.592 8        50.119                  
  21317800.560 9 112025809.190 9      -814.380 9        54.984                  
  24971429.760 8 131225736.682 8     -1914.152 8        48.425                  
  20441277.541 9 107419652.949 9       855.830 9        56.888                  
 02  5 18 00 01 11.0000000  0  7G01G16G21G23G10G07G08                           
  23745502.299 7 124783455.613 7      3393.349 7        47.540                  
  23490781.896 8 123444893.279 8     -3669.680 8        50.920                  
  21774088.474 8 114423578.533 8      1779.056 8        51.791                  
  23016176.500 8 120950823.753 8     -2827.748 8        50.589                  
  21317955.324 9 112026624.045 9      -815.053 9        56.145                  
  24971791.822 8 131227650.729 8     -1913.670 8        48.145                  
  20441111.842 9 107418797.837 9       854.972 9        57.307                  
 02  5 18 00 01 12.0000000  0  7G01G16G21G23G10G07G08                           
  23744855.905 8 124780062.977 8      3389.545 8        49.997                  
  23491479.467 8 123448562.446 8     -3669.312 8        51.402                  
  21773745.228 8 114421799.764 8      1779.355 8        53.133                  
  23016715.734 8 120953653.963 8     -2829.950 8        50.663                  
  21318109.748 9 112027439.519 9      -816.640 9        57.107                  
  24972158.744 7 131229565.130 7     -1918.453 7        47.877                  
  20440946.553 9 107417943.178 9       854.478 9        57.349                  
 02  5 18 00 01 13.0000000  0  7G01G16G21G23G10G07G08                           
  23744211.298 8 124776670.505 8      3391.713 8        48.964                  
  23492178.503 8 123452231.792 8     -3669.395 8        50.376                  
  21773406.360 8 114420021.306 8      1778.243 8        52.768                  
  23017255.253 8 120956484.562 8     -2828.607 8        50.185                  
  21318266.030 9 112028255.629 9      -816.409 9        56.969                  
  24972519.055 7 131231479.871 7     -1913.301 7        46.492                  
  20440784.410 9 107417088.995 9       854.123 9        56.039                  
 02  5 18 00 01 14.0000000  0  7G01G16G21G23G10G07G08                           
  23743565.815 8 124773278.202 8      3392.187 8        48.569                  
  23492876.306 8 123455901.338 8     -3670.834 8        49.976                  
  21773072.709 8 114418243.155 8      1778.607 8        51.988                  
  23017792.396 8 120959315.566 8     -2830.582 8        50.850                  
  21318421.151 9 112029072.330 9      -816.833 9        54.918                  
  24972887.372 7 131233394.973 7     -1915.978 7        46.572                  
  20440624.053 9 107416235.288 9       854.178 9        54.651                  
 02  5 18 00 01 15.0000000  0  7G01G16G21G23G10G07G08                           
  23742918.849 8 124769886.055 8      3390.615 8        48.705                  
  23493573.984 8 123459571.080 8     -3669.919 8        49.045                  
  21772733.484 8 114416465.292 8      1778.187 8        52.843                  
  23018333.863 8 120962146.968 8     -2830.897 8        50.295                  
  21318576.290 9 112029889.630 9      -817.226 9        55.309                  
  24973249.648 7 131235310.428 7     -1916.106 7        46.907                  
  20440463.804 9 107415382.060 9       853.195 9        55.708                  
 02  5 18 00 01 16.0000000  0  7G01G16G21G23G10G07G08                           
  23742273.813 8 124766494.061 8      3395.032 8        48.236                  
  23494273.932 8 123463240.995 8     -3672.089 8        49.589                  
  21772392.310 8 114414687.739 8      1778.254 8        52.833                  
  23018869.988 8 120964978.752 8     -2831.744 8        50.733                  
  21318731.358 9 112030707.537 9      -818.504 9        55.980                  
  24973615.820 7 131237226.229 7     -1915.940 7        46.184                  
  20440303.823 9 107414529.308 9       853.041 9        56.603                  
 02  5 18 00 01 17.0000000  0  7G01G16G21G23G10G07G08                           
  23741629.742 7 124763102.249 7      3388.895 7        46.925                  
  23494971.199 8 123466911.115 8     -3670.897 8        50.234                  
  21772053.782 9 114412910.472 9      1777.477 9        54.415                  
  23019409.275 8 120967810.905 8     -2834.098 8        50.225                  
  21318887.979 9 112031526.086 9      -819.215 9        56.123                  
  24973980.724 8 131239142.390 8     -1916.848 8        48.112                  
  20440143.252 9 107413677.011 9       852.010 9        57.663                  
 02  5 18 00 01 18.0000000  0  7G01G16G21G23G10G07G08                           
  23740983.956 7 124759710.579 7      3392.968 7        47.716                  
  23495669.449 8 123470581.416 8     -3672.516 8        49.396                  
  21771719.292 8 114411133.520 8      1775.583 8        53.196                  
  23019949.169 8 120970643.452 8     -2830.600 8        49.601                  
  21319043.762 9 112032345.234 9      -820.193 9        55.371                  
  24974342.553 7 131241058.889 7     -1914.788 7        47.701                  
  20439983.771 9 107412825.189 9       850.983 9        57.427                  
 02  5 18 00 01 19.0000000  0  7G01G16G21G23G10G07G08                           
  23740337.043 7 124756319.076 7      3392.726 7        47.749                  
  23496368.503 8 123474251.912 8     -3669.740 8        50.746                  
  21771381.442 8 114409356.842 8      1774.968 8        52.676                  
  23020485.776 8 120973476.406 8     -2832.118 8        50.264                  
  21319200.973 9 112033164.975 9      -819.750 9        54.666                  
  24974711.120 8 131242975.739 8     -1916.068 8        48.138                  
  20439822.217 9 107411973.844 9       850.792 9        56.585                  
 02  5 18 00 01 20.0000000  0  7G01G16G21G23G10G07G08                           
  23739693.741 7 124752927.997 7      3389.648 7        47.299                  
  23497066.682 8 123477922.471 8     -3671.971 8        50.065                  
  21771039.554 8 114407580.702 8      1774.762 8        50.990                  
  23021027.333 8 120976309.633 8     -2831.792 8        50.789                  
  21319357.971 8 112033985.154 8      -819.464 8        53.410                  
  24975072.396 7 131244893.294 7     -1918.419 7        47.201                  
  20439658.572 9 107411123.079 9       849.414 9        56.529                  
 02  5 18 00 01 21.0000000  0  7G01G16G21G23G10G07G08                           
  23739049.509 7 124749548.211 7      3371.695 7        46.121                  
  23497763.556 8 123481587.745 8     -3662.440 8        51.088                  
  21770703.598 8 114405814.006 8      1759.681 8        51.081                  
  23021565.101 8 120979138.146 8     -2824.073 8        51.718                  
  21319513.592 9 112034799.304 9      -808.340 9        55.019                  
  24975444.500 7 131246825.907 7     -1948.669 7        43.238                  
  20439496.053 9 107410277.172 9       841.524 9        57.251                  
 02  5 18 00 01 22.0000000  0  7G01G16G21G23G10G07G08                           
  23738416.320 6 124746202.320 6      3301.080 6        37.969                  
  23498461.663 8 123485244.034 8     -3651.830 8        50.796                  
  21770368.661 7 114404062.935 7      1744.159 7        42.469                  
  23022102.190 8 120981958.527 8     -2816.107 8        53.554                  
  21319666.479 8 112035602.900 8      -796.264 8        51.495                  
  24975812.477 7 131248783.543 7     -1970.287 7        43.985                  
  20439334.392 9 107409439.058 9       834.235 9        59.272                  
 02  5 18 00 01 23.0000000  0  7G01G16G21G23G10G07G08                           
  23737774.214 8 124742862.256 8      3334.332 8        49.918                  
  23499157.161 6 123488891.256 6     -3659.638 6        41.369                  
  21770044.500 8 114402327.544 8      1728.510 8        51.264                  
  23022636.134 7 120984770.775 7     -2812.153 7        45.741                  
  21319822.976 7 112036395.421 7      -786.899 7        43.432                  
  24976193.195 8 131250766.209 8     -1995.329 8        50.151                  
  20439174.625 9 107408608.745 9       827.369 9        56.865                  
 02  5 18 00 01 24.0000000  0  7G01G16G21G23G10G07G08                           
  23737141.294 8 124739534.144 8      3328.584 8        53.110                  
  23499826.499 5 123492533.064 5     -3635.689 5        32.475                  
  21769713.762 9 114400603.739 9      1723.045 9        58.864                  
  23023194.398 5 120987572.397 5     -2787.269 5        34.373                  
  21319966.965 8 112037180.841 8      -785.836 8        52.852                  
  24976571.250 7 131252767.399 7     -2008.602 7        45.448                  
  20439018.682 7 107407784.293 7       825.104 7        47.507                  
 02  5 18 00 01 25.0000000  0  7G01G16G21G23G10G07G08                           
  23736507.980 8 124736207.191 8      3326.189 8        49.832                  
  23500541.563 7 123496173.380 7     -3639.989 7        47.108                  
  21769383.149 9 114398881.033 9      1722.668 9        59.678                  
  23023705.131 7 120990333.366 7     -2805.496 7        46.607                  
  21320116.564 9 112037966.280 9      -786.453 9        57.183                  
  24976985.936 5 131254771.156 5     -2008.342 5        35.746                  
  20438859.523 7 107406960.676 7       820.975 7        44.239                  
 02  5 18 00 01 26.0000000  0  7G01G16G21G23G10G07G08                           
  23735875.720 7 124732880.170 7      3328.325 7        45.880                  
  23501231.629 7 123499814.062 7     -3642.023 7        46.496                  
  21769056.271 8 114397158.438 8      1723.729 8        51.990                  
  23024237.413 7 120993140.226 7     -2806.701 7        47.302                  
  21320259.945 8 112038752.481 8      -787.041 8        53.686                  
  24977333.560 7 131256782.598 7     -2001.864 7        45.375                  
  20438698.577 7 107406137.424 7       824.839 7        45.826                  
 02  5 18 00 01 27.0000000  0  7G01G16G21G23G10G07G08                           
  23735241.566 7 124729542.569 7      3346.568 7        43.157                  
  23501923.482 7 123503460.199 7     -3651.523 7        43.073                  
  21768732.252 7 114395427.316 7      1738.765 7        46.902                  
  23024778.076 7 120995952.317 7     -2821.436 7        42.708                  
  21320417.014 8 112039545.707 8      -798.539 8        49.728                  
  24977715.028 7 131258771.627 7     -1976.135 7        46.335                  
  20438544.814 5 107405310.703 5       812.544 5        35.459                  
 02  5 18 00 01 28.0000000  0  7G01G16G21G23G10G07G08                           
  23734599.693 6 124726185.544 6      3365.715 6        38.316                  
  23502624.162 6 123507116.079 6     -3659.279 6        38.147                  
  21768399.781 7 114393680.444 7      1755.380 7        43.264                  
  23025307.786 6 120998773.768 6     -2826.331 6        38.041                  
  21320570.330 7 112040351.254 7      -810.999 7        43.864                  
  24978088.276 7 131260735.238 7     -1951.231 7        43.360                  
  20438397.162 6 107404394.147 6       969.298 6        37.883                  
 02  5 18 00 01 29.0000000  0  7G01G16G21G23G10G07G08                           
  23733956.962 5 124722812.546 5      3372.336 5        35.818                  
  23503316.605 5 123510780.331 5     -3665.542 5        35.287                  
  21768054.855 6 114391920.605 6      1762.131 6        39.841                  
  23025846.376 5 121001602.865 5     -2830.640 5        35.168                  
  21320726.505 6 112041167.056 6      -815.517 6        40.571                  
  24978458.737 6 131262677.766 6     -1941.268 6        40.667                  
  20438235.269 6 107403531.833 6       738.012 6        40.158                  
 02  5 18 00 01 30.0000000  0  7G01G16G21G23G10G07G08                           
  23733322.147 5 124719441.409 5      3368.662 5        33.872                  
  23504017.892 5 123514444.193 5     -3667.597 5        33.834                  
  21767723.992 5 114390162.406 5      1756.532 5        34.983                  
  23026386.342 5 121004431.432 5     -2827.778 5        33.928                  
  21320881.555 5 112041982.458 5      -814.178 5        35.346                  
  24978824.587 5 131264622.710 5     -1951.204 5        35.615                  
  20438068.444 9 107402892.060 9       570.639 9        54.042                  
 02  5 18 00 01 31.0000000  0  7G01G16G21G23G10G07G08                           
  23732675.092 5 124716076.369 5      3361.523 5        33.614                  
  23504713.658 5 123518106.948 5     -3666.313 5        33.781                  
  21767387.197 5 114388409.213 5      1747.027 5        33.764                  
  23026923.127 5 121007256.908 5     -2822.209 5        33.603                  
  21321035.675 5 112042794.938 5      -809.915 5        33.950                  
  24979195.816 5 131266575.084 5     -1953.971 5        33.635                  
  20437910.535 8 107402305.342 8       567.630 8        51.946                  
 02  5 18 00 01 32.0000000  0  6G01G16G21G23G10G07                              
  23732038.526 5 124712719.514 5      3355.006 5        33.403                  
  23505408.781 5 123521770.143 5     -3661.111 5        33.628                  
  21767063.535 5 114386662.399 5      1745.318 5        33.791                  
  23027462.486 5 121010077.156 5     -2820.940 5        33.724                  
  21321189.670 5 112043603.285 5      -809.414 5        33.811                  
  24979564.811 5 131268536.288 5     -1964.505 5        33.390                  
 02  5 18 00 01 33.0000000  0  6G01G16G21G23G10G07                              
  23731396.635 5 124709359.492 5      3362.845 5        33.592                  
  23506105.280 5 123525429.171 5     -3656.853 5        33.457                  
  21766732.673 5 114384913.836 5      1750.986 5        33.840                  
  23027997.467 5 121012902.138 5     -2831.563 5        33.488                  
  21321343.684 5 112044414.174 5      -813.832 5        33.848                  
  24979946.065 5 131270496.387 5     -1957.773 5        34.069                  
 02  5 18 00 01 34.0000000  0  6G01G16G21G23G10G07                              
  23730757.675 5 124705995.839 5      3360.079 5        33.562                  
  23506799.420 5 123529084.342 5     -3650.210 5        33.454                  
  21766392.250 5 114383163.169 5      1741.896 5        35.492                  
  23028538.541 5 121015732.017 5     -2825.413 5        33.695                  
  21321499.269 5 112045227.869 5      -809.635 5        35.720                  
  24980314.524 6 131272454.767 6     -1954.281 6        37.471                  
 02  5 18 00 01 35.0000000  0  6G01G16G21G23G10G07                              
  23730123.074 5 124702638.038 5      3358.210 5        33.549                  
  23507498.099 5 123532740.637 5     -3654.972 5        33.513                  
  21766058.528 5 114381417.035 5      1744.250 5        35.816                  
  23029075.005 5 121018557.980 5     -2840.766 5        33.747                  
  21321653.282 6 112046038.831 6      -809.252 6        36.570                  
  24980689.720 6 131274419.189 6     -1968.468 6        36.376                  
 02  5 18 00 01 36.0000000  0  6G01G16G21G23G10G07                              
  23729481.701 5 124699283.496 5      3353.512 5        35.129                  
  23508194.544 5 123536394.642 5     -3648.430 5        35.392                  
  21765731.864 6 114379673.858 6      1742.024 6        38.453                  
  23029609.699 5 121021383.309 5     -2824.718 5        34.799                  
  21321807.224 6 112046848.541 6      -810.379 6        40.033                  
  24981065.345 6 131276388.507 6     -1970.903 6        38.801                  
