     2.11           OBSERVATION DATA    G                   RINEX VERSION / TYPE
BLANK OR G = GPS,  R = GLONASS,  E = GALILEO,  M = MIXED    COMMENT             
GNSS-SDR            joel                22-APR-25 09:09     PGM / RUN BY / DATE 
GPS OBSERVATION DATA FILE GENERATED BY GNSS-SDR             COMMENT             
GNSS-SDR VERSION 0.0.16                                     COMMENT             
See https://gnss-sdr.org                                    COMMENT             
DEFAULT MARKER NAME                                         MARKER NAME         
joel                CTTC                                    OBSERVER / AGENCY   
GNSS-SDR            Software Receiver   0.0.16              REC # / TYPE / VERS 
Antenna number      Antenna type                            ANT # / TYPE        
        0.0000        0.0000        0.0000                  APPROX POSITION XYZ 
        0.0000        0.0000        0.0000                  ANTENNA: DELTA H/E/N
     1     1                                                WAVELENGTH FACT L1/2
     4    C1    L1    D1    S1                              # / TYPES OF OBSERV 
  2002    05    18    00    00   42.3600000     GPS         TIME OF FIRST OBS   
    18                                                      LEAP SECONDS        
                                                            END OF HEADER       
 02  5 18 00 00 43.0000000  0  6G01G23G10G21G07G08                              
  23763590.539 7 124878515.381 7      3399.695 7        46.684                  
  23001127.174 8 120871745.352 8     -2818.485 8        49.978                  
  21313658.681 9 112004045.667 9      -798.336 9        54.379                  
  21783585.520 8 114473521.344 8      1786.635 8        53.260                  
  24961618.648 7 131174203.514 7     -1906.864 7        45.637                  
  20445704.806 9 107442936.360 9       868.248 9        55.798                  
 02  5 18 00 00 44.0000000  0  6G01G23G10G21G07G08                              
  23762945.592 7 124875118.259 7      3394.653 7        46.771                  
  23001664.817 8 120874564.620 8     -2818.305 8        50.206                  
  21313811.211 8 112004844.024 8      -799.530 8        53.914                  
  21783249.386 9 114471734.133 9      1786.418 9        54.226                  
  24961982.050 7 131176108.041 7     -1909.814 7        46.108                  
  20445541.823 9 107442068.516 9       867.788 9        56.825                  
 02  5 18 00 00 45.0000000  0  6G01G23G10G21G07G08                              
  23762299.002 7 124871721.311 7      3394.042 7        47.505                  
  23002198.993 8 120877384.250 8     -2818.296 8        51.032                  
  21313963.044 9 112005643.022 9      -798.033 9        54.605                  
  21782906.712 8 114469947.232 8      1786.911 8        53.226                  
  24962342.700 7 131178012.923 7     -1904.900 7        46.791                  
  20445380.198 9 107441201.149 9       867.250 9        57.368                  
 02  5 18 00 00 46.0000000  0  6G01G23G10G21G07G08                              
  23761651.178 8 124868324.515 8      3395.470 8        48.417                  
  23002736.529 8 120880204.292 8     -2822.643 8        50.577                  
  21314115.253 9 112006442.619 9      -799.383 9        54.143                  
  21782563.555 8 114468160.641 8      1786.830 8        53.634                  
  24962709.087 7 131179918.164 7     -1905.451 7        45.007                  
  20445215.677 9 107440334.259 9       866.660 9        56.303                  
 02  5 18 00 00 47.0000000  0  6G01G23G10G21G07G08                              
  23761005.713 7 124864927.872 7      3392.839 7        47.626                  
  23003272.582 8 120883024.723 8     -2822.779 8        49.775                  
  21314268.462 8 112007242.812 8      -801.048 8        53.803                  
  21782227.278 8 114466374.352 8      1785.611 8        52.245                  
  24963068.469 7 131181823.745 7     -1907.410 7        45.938                  
  20445048.388 9 107439467.823 9       865.979 9        55.630                  
 02  5 18 00 00 48.0000000  0  7G01G16G23G10G21G07G08                           
  23760360.034 7 124861531.391 7      3396.517 7        47.346                  
  23474732.958 8 123360550.504 8     -3664.552 8        50.440                  
  23003811.941 8 120885845.546 8     -2822.509 8        50.774                  
  21314420.241 9 112008043.612 9      -801.059 9        56.882                  
  21781887.784 8 114464588.358 8      1785.159 8        52.282                  
  24963433.193 7 131183729.683 7     -1905.884 7        46.245                  
  20444880.991 9 107438601.862 9       864.953 9        57.924                  
 02  5 18 00 00 49.0000000  0  7G01G16G23G10G21G07G08                           
  23759712.085 8 124858135.070 8      3396.604 8        49.105                  
  23475429.671 8 123364215.250 8     -3667.135 8        50.711                  
  23004345.867 8 120888666.780 8     -2821.148 8        49.431                  
  21314573.540 9 112008845.055 9      -802.225 9        57.279                  
  21781545.575 8 114462802.662 8      1785.502 8        53.589                  
  24963795.113 7 131185635.983 7     -1907.314 7        46.817                  
  20444713.254 9 107437736.377 9       865.609 9        57.235                  
 02  5 18 00 00 50.0000000  0  7G01G16G23G10G21G07G08                           
  23759066.317 7 124854738.906 7      3396.992 7        47.098                  
  23476128.386 8 123367880.171 8     -3665.728 8        48.834                  
  23004883.850 8 120891488.407 8     -2822.128 8        49.600                  
  21314726.105 9 112009647.095 9      -801.909 9        56.270                  
  21781204.937 8 114461017.265 8      1787.111 8        53.307                  
  24964157.050 7 131187542.626 7     -1905.316 7        47.782                  
  20444545.267 9 107436871.361 9       864.884 9        58.654                  
 02  5 18 00 00 51.0000000  0  7G01G16G23G10G21G07G08                           
  23758421.549 7 124851342.921 7      3393.909 7        47.527                  
  23476824.831 8 123371545.306 8     -3665.768 8        50.493                  
  23005422.261 8 120894310.419 8     -2821.813 8        49.856                  
  21314878.993 9 112010449.732 9      -802.743 9        54.759                  
  21780869.375 8 114459232.167 8      1783.596 8        53.160                  
  24964522.918 7 131189449.629 7     -1906.597 7        47.331                  
  20444381.391 9 107436006.807 9       863.708 9        54.627                  
 02  5 18 00 00 52.0000000  0  7G01G16G23G10G21G07G08                           
  23757774.333 8 124847947.075 8      3397.191 8        48.306                  
  23477522.170 8 123375210.638 8     -3666.343 8        49.674                  
  23005957.206 8 120897132.815 8     -2822.246 8        51.387                  
  21315031.952 9 112011252.989 9      -804.183 9        54.026                  
  21780530.221 8 114457447.364 8      1784.977 8        51.520                  
  24964882.460 7 131191356.991 7     -1911.302 7        46.039                  
  20444219.211 9 107435142.730 9       864.520 9        56.362                  
 02  5 18 00 00 53.0000000  0  7G01G16G23G10G21G07G08                           
  23757127.188 7 124844551.402 7      3393.062 7        47.985                  
  23478220.813 8 123378876.141 8     -3662.366 8        49.494                  
  23006496.958 8 120899955.603 8     -2823.607 8        49.658                  
  21315184.857 9 112012056.876 9      -805.068 9        55.024                  
  21780186.153 8 114455662.858 8      1784.931 8        51.848                  
  24965249.383 7 131193264.699 7     -1908.636 7        46.797                  
  20444056.979 9 107434279.131 9       863.372 9        57.121                  
 02  5 18 00 00 54.0000000  0  7G01G16G23G10G21G07G08                           
  23756482.528 7 124841155.887 7      3394.707 7        46.978                  
  23478916.865 8 123382541.854 8     -3666.088 8        50.115                  
  23007032.225 8 120902778.776 8     -2824.017 8        50.439                  
  21315338.173 9 112012861.360 9      -805.104 9        54.014                  
  21779846.981 8 114453878.667 8      1783.999 8        53.865                  
  24965609.086 7 131195172.759 7     -1906.379 7        46.832                  
  20443895.210 9 107433416.008 9       863.128 9        54.941                  
 02  5 18 00 00 55.0000000  0  7G01G16G23G10G21G07G08                           
  23755836.741 8 124837760.521 8      3394.965 8        48.816                  
  23479614.686 8 123386207.754 8     -3667.159 8        49.607                  
  23007570.725 8 120905602.340 8     -2822.360 8        49.874                  
  21315491.221 9 112013666.441 9      -805.396 9        54.167                  
  21779511.615 8 114452094.796 8      1782.433 8        53.359                  
  24965973.632 7 131197081.174 7     -1908.912 7        47.058                  
  20443734.175 9 107432553.338 9       862.160 9        56.862                  
 02  5 18 00 00 56.0000000  0  7G01G16G23G10G21G07G08                           
  23755189.239 7 124834365.326 7      3392.405 7        46.773                  
  23480314.079 7 123389873.844 7     -3668.050 7        47.429                  
  23008107.922 8 120908426.322 8     -2824.774 8        51.900                  
  21315644.805 9 112014472.138 9      -806.163 9        54.590                  
  21779171.568 9 114450311.209 9      1782.481 9        54.233                  
  24966337.589 7 131198989.942 7     -1904.841 7        46.368                  
  20443571.674 9 107431691.145 9       861.569 9        56.021                  
 02  5 18 00 00 57.0000000  0  7G01G16G23G10G21G07G08                           
  23754544.650 8 124830970.292 8      3395.848 8        48.708                  
  23481009.506 7 123393540.122 7     -3663.732 7        47.422                  
  23008644.403 8 120911250.685 8     -2824.401 8        50.931                  
  21315798.336 9 112015278.470 9      -806.510 9        55.377                  
  21778828.089 8 114448527.933 8      1784.773 8        51.742                  
  24966698.364 7 131200899.067 7     -1912.640 7        45.962                  
  20443405.295 9 107430829.429 9       861.553 9        58.264                  
 02  5 18 00 00 58.0000000  0  7G01G16G23G10G21G07G08                           
  23753898.202 8 124827575.410 8      3397.145 8        48.506                  
  23481707.827 7 123397206.599 7     -3665.607 7        47.740                  
  23009182.940 8 120914075.446 8     -2825.136 8        50.079                  
  21315952.081 9 112016085.397 9      -806.609 9        55.501                  
  21778490.329 8 114446744.946 8      1783.034 8        51.992                  
  24967065.037 7 131202808.535 7     -1911.458 7        45.918                  
  20443239.113 9 107429968.189 9       861.866 9        56.998                  
 02  5 18 00 00 59.0000000  0  7G01G16G23G10G21G07G08                           
  23753251.076 8 124824180.700 8      3395.358 8        49.095                  
  23482406.274 8 123400873.273 8     -3666.558 8        48.523                  
  23009718.796 8 120916900.586 8     -2824.324 8        49.959                  
  21316105.969 9 112016892.921 9      -807.637 9        56.595                  
  21778154.999 8 114444962.266 8      1782.947 8        50.760                  
  24967425.347 7 131204718.368 7     -1910.911 7        44.695                  
  20443072.681 9 107429107.403 9       860.776 9        55.321                  
 02  5 18 00 01  0.0000000  0  7G01G16G23G10G21G07G08                           
  23752605.825 8 124820786.142 8      3397.672 8        49.840                  
  23483102.773 8 123404540.129 8     -3670.427 8        48.699                  
  23010258.709 8 120919726.103 8     -2826.593 8        51.590                  
  21316259.643 9 112017701.078 9      -807.976 9        57.439                  
  21777813.522 8 114443179.873 8      1780.440 8        52.411                  
  24967791.144 7 131206628.536 7     -1908.935 7        46.980                  
  20442905.695 9 107428247.093 9       859.875 9        57.002                  
 02  5 18 00 01  1.0000000  0  7G01G16G23G10G21G07G08                           
  23751959.914 8 124817391.741 8      3396.173 8        50.108                  
  23483801.166 8 123408207.185 8     -3665.098 8        49.381                  
  23010795.155 8 120922552.020 8     -2823.883 8        49.271                  
  21316414.138 9 112018509.852 9      -808.688 9        55.334                  
  21777470.294 8 114441397.790 8      1782.212 8        53.968                  
  24968153.278 7 131208539.075 7     -1912.297 7        47.399                  
  20442740.425 9 107427387.259 9       859.801 9        56.642                  
 02  5 18 00 01  2.0000000  0  7G01G16G23G10G21G07G08                           
  23751313.180 8 124813997.510 8      3395.811 8        49.065                  
  23484499.755 8 123411874.433 8     -3666.528 8        49.124                  
  23011333.263 8 120925378.329 8     -2824.887 8        50.197                  
  21316567.401 9 112019319.225 9      -810.838 9        54.344                  
  21777134.696 8 114439615.991 8      1782.070 8        50.746                  
  24968517.806 7 131210449.945 7     -1912.135 7        45.639                  
  20442578.621 9 107426527.904 9       858.932 9        57.192                  
 02  5 18 00 01  3.0000000  0  7G01G16G23G10G21G07G08                           
  23750667.965 8 124810603.432 8      3396.394 8        48.963                  
  23485196.004 8 123415541.855 8     -3666.903 8        51.016                  
  23011872.085 8 120928205.043 8     -2826.686 8        50.887                  
  21316721.039 9 112020129.192 9      -810.330 9        55.032                  
  21776798.651 8 114437834.515 8      1781.650 8        51.973                  
  24968882.030 7 131212361.184 7     -1910.559 7        44.745                  
  20442416.942 9 107425669.000 9       858.103 9        55.570                  
 02  5 18 00 01  4.0000000  0  7G01G16G23G10G21G07G08                           
  23750023.180 8 124807209.508 8      3390.087 8        49.268                  
  23485895.344 8 123419209.500 8     -3668.042 8        52.165                  
  23012407.602 8 120931032.149 8     -2826.596 8        53.064                  
  21316875.088 9 112020939.780 9      -810.881 9        54.672                  
  21776456.387 9 114436053.350 9      1780.677 9        54.058                  
  24969242.842 7 131214272.774 7     -1910.282 7        45.145                  
  20442255.888 9 107424810.575 9       858.148 9        56.759                  
 02  5 18 00 01  5.0000000  0  7G01G16G23G10G21G07G08                           
  23749375.803 8 124803815.766 8      3389.048 8        48.141                  
  23486593.469 8 123422877.314 8     -3666.010 8        49.209                  
  23012947.782 8 120933859.640 8     -2827.707 8        51.188                  
  21317028.833 9 112021750.999 9      -812.003 9        56.110                  
  21776115.411 8 114434272.482 8      1779.852 8        53.745                  
  24969609.996 7 131216184.713 7     -1912.791 7        45.787                  
  20442094.638 9 107423952.625 9       858.151 9        56.299                  
 02  5 18 00 01  6.0000000  0  7G01G16G23G10G21G07G08                           
  23748729.552 8 124800422.169 8      3392.092 8        48.421                  
  23487290.468 8 123426545.328 8     -3664.423 8        48.788                  
  23013485.015 8 120936687.498 8     -2827.004 8        48.881                  
  21317182.703 9 112022562.814 9      -812.130 9        56.325                  
  21775779.956 8 114432491.913 8      1779.896 8        52.031                  
  24969970.879 7 131218096.992 7     -1910.493 7        46.430                  
  20441934.710 9 107423095.154 9       857.032 9        57.027                  
 02  5 18 00 01  7.0000000  0  7G01G16G23G10G21G07G08                           
  23748085.463 8 124797028.723 8      3392.591 8        49.177                  
  23487989.665 8 123430213.540 8     -3668.269 8        50.152                  
  23014023.247 8 120939515.762 8     -2827.344 8        48.925                  
  21317336.662 9 112023375.226 9      -813.274 9        54.951                  
  21775443.053 8 114430711.640 8      1779.831 8        52.922                  
  24970337.462 7 131220009.640 7     -1914.433 7        46.142                  
  20441772.817 9 107422238.146 9       856.574 9        57.069                  
 02  5 18 00 01  8.0000000  0  7G01G16G23G10G21G07G08                           
  23747438.568 8 124793635.467 8      3393.927 8        48.890                  
  23488687.414 8 123433881.932 8     -3666.719 8        50.799                  
  23014562.427 8 120942344.417 8     -2828.543 8        49.932                  
  21317491.408 9 112024188.271 9      -813.296 9        57.850                  
  21775100.897 8 114428931.669 8      1778.966 8        52.584                  
  24970700.025 8 131221922.639 8     -1914.162 8        48.191                  
  20441607.314 9 107421381.601 9       857.240 9        58.692                  
 02  5 18 00 01  9.0000000  0  7G01G16G23G10G21G07G08                           
  23746792.514 8 124790242.352 8      3391.218 8        48.028                  
  23489384.413 8 123437550.527 8     -3667.220 8        48.443                  
  23015099.338 8 120945173.476 8     -2829.959 8        50.450                  
  21317645.475 9 112025001.930 9      -813.811 9        55.602                  
  21774760.474 8 114427151.990 8      1780.312 8        53.913                  
  24971064.499 8 131223835.982 8     -1912.734 8        48.047                  
  20441442.580 9 107420525.537 9       855.923 9        57.489                  
 02  5 18 00 01 10.0000000  0  7G01G16G23G10G21G07G08                           
  23746148.782 8 124786849.393 8      3397.263 8        49.666                  
  23490083.825 8 123441219.311 8     -3669.608 8        49.564                  
  23015639.447 8 120948002.930 8     -2828.590 8        50.119                  
  21317800.560 9 112025816.190 9      -814.381 9        54.984                  
  21774425.144 8 114425372.613 8      1779.871 8        53.373                  
  24971429.760 8 131225749.682 8     -1914.152 8        48.426                  
  20441277.541 9 107419669.949 9       855.830 9        56.887                  
 02  5 18 00 01 11.0000000  0  7G01G16G23G10G21G07G08                           
  23745502.299 7 124783456.613 7      3393.349 7        47.541                  
  23490781.896 8 123444888.277 8     -3669.680 8        50.922                  
  23016176.500 8 120950832.753 8     -2827.748 8        50.590                  
  21317955.324 9 112026631.045 9      -815.053 9        56.145                  
  21774088.474 8 114423593.533 8      1779.056 8        51.791                  
  24971791.822 8 131227663.729 8     -1913.669 8        48.146                  
  20441111.842 9 107418814.837 9       854.973 9        57.310                  
 02  5 18 00 01 12.0000000  0  7G01G16G23G10G21G07G08                           
  23744855.887 8 124780063.977 8      3389.540 8        49.998                  
  23491479.449 8 123448557.444 8     -3669.312 8        51.404                  
  23016715.734 8 120953662.963 8     -2829.949 8        50.665                  
  21318109.748 9 112027446.519 9      -816.639 9        57.108                  
  21773745.228 8 114421814.764 8      1779.354 8        53.131                  
  24972158.744 7 131229578.130 7     -1918.453 7        47.876                  
  20440946.553 9 107417960.178 9       854.478 9        57.349                  
 02  5 18 00 01 13.0000000  0  7G01G16G23G10G21G07G08                           
  23744211.298 8 124776671.505 8      3391.713 8        48.965                  
  23492178.503 8 123452226.790 8     -3669.395 8        50.377                  
  23017255.235 8 120956493.562 8     -2828.607 8        50.187                  
  21318266.030 9 112028262.629 9      -816.410 9        56.969                  
  21773406.360 8 114420036.306 8      1778.243 8        52.767                  
  24972519.055 7 131231492.871 7     -1913.307 7        46.492                  
  20440784.410 9 107417105.995 9       854.123 9        56.039                  
 02  5 18 00 01 14.0000000  0  7G01G16G23G10G21G07G08                           
  23743565.815 8 124773279.202 8      3392.187 8        48.569                  
  23492876.306 8 123455896.337 8     -3670.834 8        49.976                  
  23017792.396 8 120959324.566 8     -2830.583 8        50.850                  
  21318421.151 9 112029079.330 9      -816.833 9        54.917                  
  21773072.709 8 114418258.155 8      1778.606 8        51.987                  
  24972887.390 7 131233407.973 7     -1915.972 7        46.569                  
  20440624.053 9 107416252.288 9       854.177 9        54.649                  
 02  5 18 00 01 15.0000000  0  7G01G16G23G10G21G07G08                           
  23742918.849 8 124769887.055 8      3390.616 8        48.707                  
  23493573.984 8 123459566.078 8     -3669.919 8        49.045                  
  23018333.863 8 120962155.968 8     -2830.898 8        50.296                  
  21318576.290 9 112029896.630 9      -817.226 9        55.307                  
  21772733.484 8 114416480.292 8      1778.187 8        52.842                  
  24973249.648 7 131235323.428 7     -1916.101 7        46.907                  
  20440463.822 9 107415399.060 9       853.194 9        55.708                  
 02  5 18 00 01 16.0000000  0  7G01G16G23G10G21G07G08                           
  23742273.813 8 124766495.061 8      3395.033 8        48.235                  
  23494273.950 8 123463235.994 8     -3672.082 8        49.587                  
  23018869.988 8 120964987.752 8     -2831.743 8        50.731                  
  21318731.358 9 112030714.537 9      -818.504 9        55.980                  
  21772392.310 8 114414702.739 8      1778.254 8        52.836                  
  24973615.838 7 131237239.229 7     -1915.940 7        46.185                  
  20440303.823 9 107414546.308 9       853.054 9        56.602                  
 02  5 18 00 01 17.0000000  0  7G01G16G23G10G21G07G08                           
  23741629.724 7 124763103.249 7      3388.896 7        46.925                  
  23494971.199 8 123466906.113 8     -3670.897 8        50.235                  
  23019409.257 8 120967819.905 8     -2834.099 8        50.226                  
  21318887.997 9 112031533.086 9      -819.215 9        56.123                  
  21772053.782 9 114412925.472 9      1777.476 9        54.417                  
  24973980.724 8 131239155.390 8     -1916.864 8        48.113                  
  20440143.252 9 107413694.011 9       852.009 9        57.662                  
 02  5 18 00 01 18.0000000  0  7G01G16G23G10G21G07G08                           
  23740983.956 7 124759711.579 7      3392.965 7        47.716                  
  23495669.449 8 123470576.415 8     -3672.516 8        49.396                  
  23019949.169 8 120970652.452 8     -2830.600 8        49.602                  
  21319043.762 9 112032352.234 9      -820.193 9        55.370                  
  21771719.292 8 114411148.520 8      1775.583 8        53.196                  
  24974342.553 7 131241071.889 7     -1914.789 7        47.698                  
  20439983.771 9 107412842.189 9       850.983 9        57.425                  
 02  5 18 00 01 19.0000000  0  7G01G16G23G10G21G07G08                           
  23740337.043 7 124756320.076 7      3392.725 7        47.748                  
  23496368.485 8 123474246.910 8     -3669.738 8        50.748                  
  23020485.776 8 120973485.406 8     -2832.119 8        50.265                  
  21319200.973 9 112033171.976 9      -819.749 9        54.667                  
  21771381.442 8 114409371.842 8      1774.968 8        52.675                  
  24974711.120 8 131242988.739 8     -1916.073 8        48.139                  
  20439822.199 9 107411990.844 9       850.792 9        56.584                  
 02  5 18 00 01 20.0000000  0  7G01G16G23G10G21G07G08                           
  23739693.741 7 124752929.000 7      3389.533 7        47.299                  
  23497066.682 8 123477917.468 8     -3671.962 8        50.064                  
  23021027.333 8 120976318.631 8     -2831.817 8        50.788                  
  21319357.971 8 112033992.152 8      -819.463 8        53.410                  
  21771039.572 8 114407595.704 8      1774.780 8        50.988                  
  24975072.396 7 131244906.297 7     -1918.465 7        47.200                  
  20439658.572 9 107411140.080 9       849.392 9        56.528                  
 02  5 18 00 01 21.0000000  0  7G01G16G23G10G21G07G08                           
  23739049.545 7 124749549.252 7      3371.219 7        46.138                  
  23497763.663 8 123481582.725 8     -3662.713 8        51.022                  
  23021565.065 8 120979147.132 8     -2823.886 8        51.697                  
  21319513.628 9 112034806.283 9      -808.461 9        55.031                  
  21770703.545 8 114405829.036 8      1759.806 8        51.130                  
  24975443.017 7 131246839.013 7     -1945.743 7        43.609                  
  20439496.071 9 107410294.184 9       841.592 9        57.187                  
 02  5 18 00 01 22.0000000  0  7G01G16G23G10G21G07G08                           
  23738409.226 6 124746188.730 6      3349.415 6        40.160                  
  23498461.698 8 123485238.987 8     -3651.697 8        50.785                  
  23022102.262 8 120981967.492 8     -2816.266 8        53.444                  
  21319666.426 8 112035609.811 8      -796.905 8        51.686                  
  21770375.648 7 114404078.295 7      1746.379 7        46.775                  
  24975813.335 7 131248797.027 7     -1970.467 7        44.935                  
  20439334.410 9 107409456.084 9       834.150 9        59.111                  
 02  5 18 00 01 23.0000000  0  7G01G16G23G10G21G07G08                           
  23737774.214 8 124742846.754 8      3334.429 8        49.986                  
  23499150.228 7 123488886.105 7     -3641.633 7        43.948                  
  23022637.492 7 120984779.674 7     -2810.707 7        46.486                  
  21319817.651 7 112036402.503 7      -787.581 7        47.723                  
  21770044.339 8 114402343.024 8      1728.447 8        51.930                  
  24976193.195 8 131250779.734 8     -1995.487 8        50.253                  
  20439175.483 9 107408625.810 9       827.705 9        56.907                  
 02  5 18 00 01 24.0000000  0  7G01G16G23G10G21G07G08                           
  23737141.312 8 124739518.650 8      3328.933 8        52.930                  
  23499847.102 7 123492526.823 7     -3642.226 7        42.889                  
  23023171.705 6 120987585.786 6     -2806.923 6        41.924                  
  21319966.947 8 112037187.885 8      -785.868 8        53.785                  
  21769713.798 9 114400619.233 9      1723.243 9        58.545                  
  24976571.964 7 131252780.968 7     -2006.779 7        45.690                  
  20439019.183 8 107407801.411 8       826.135 8        49.374                  
 02  5 18 00 01 25.0000000  0  7G01G16G23G10G21G07G08                           
  23736507.783 8 124736191.739 8      3326.317 8        49.798                  
  23500542.135 8 123496167.369 8     -3639.926 8        48.925                  
  23023704.613 8 120990391.950 8     -2805.572 8        48.161                  
  21320116.493 9 112037973.296 9      -786.616 9        57.186                  
  21769383.185 9 114398896.541 9      1722.567 9        59.143                  
  24976965.136 6 131254784.018 6     -2003.974 6        39.352                  
  20438859.344 7 107406977.813 7       821.119 7        47.682                  
 02  5 18 00 01 26.0000000  0  7G01G16G23G10G21G07G08                           
  23735874.612 7 124732865.680 7      3328.134 7        47.138                  
  23501230.986 8 123499809.074 8     -3642.307 8        48.115                  
  23024237.717 8 120993197.701 8     -2806.434 8        48.969                  
  21320265.913 9 112038758.998 9      -786.571 9        55.485                  
  21769056.128 8 114397174.436 8      1723.415 8        53.110                  
  24977333.435 7 131256787.117 7     -2001.780 7        46.252                  
  20438700.274 8 107406154.532 8       824.619 8        48.850                  
 02  5 18 00 01 27.0000000  0  7G01G16G23G10G21G07G08                           
  23735240.834 7 124729531.119 7      3345.502 7        44.449                  
  23501927.199 7 123503458.752 7     -3652.509 7        44.565                  
  23024776.897 7 120996005.930 7     -2807.356 7        44.059                  
  21320416.246 8 112039550.666 8      -797.833 8        51.468                  
  21768730.930 8 114395445.344 8      1738.256 8        48.608                  
  24977714.635 7 131258777.664 7     -1976.470 7        47.617                  
  20438542.813 7 107405327.658 7       826.826 7        46.000                  
 02  5 18 00 01 28.0000000  0  7G01G16G23G10G21G07G08                           
  23734600.694 6 124726181.116 6      3361.675 6        39.330                  
  23502623.876 6 123507123.187 6     -3662.548 6        39.038                  
  23025305.445 6 120998818.610 6     -2820.650 6        39.039                  
  21320569.383 7 112040352.189 7      -809.277 7        45.434                  
  21768400.764 7 114393702.653 7      1747.717 7        44.706                  
  24978084.952 7 131260744.739 7     -1953.889 7        44.960                  
  20438385.690 7 107404493.305 7       837.727 7        46.079                  
 02  5 18 00 01 29.0000000  0  7G01G16G23G10G21G07G08                           
  23733962.555 6 124722816.152 6      3366.883 6        36.789                  
  23503322.609 6 123510799.263 6     -3688.754 6        36.620                  
  23025843.267 6 121001635.185 6     -2822.768 6        36.518                  
  21320723.861 6 112041162.102 6      -804.787 6        41.905                  
  21768063.629 6 114391949.132 6      1756.467 6        41.148                  
  24978459.952 6 131262692.141 6     -1952.592 6        41.791                  
  20438226.567 7 107403653.477 7       841.244 7        46.663                  
 02  5 18 00 01 30.0000000  0  7G01G16G23G10G21G07G08                           
  23733326.222 5 124719467.907 5      3333.814 5        34.894                  
  23504025.308 5 123514489.923 5     -3693.208 5        34.891                  
  23026377.872 5 121004435.271 5     -2787.416 5        35.128                  
  21320875.497 6 112041964.425 6      -789.882 6        36.745                  
  21767729.264 6 114390205.162 6      1743.498 6        36.218                  
  24978828.232 6 131264647.792 6     -1960.620 6        36.579                  
  20438068.211 9 107402814.504 9       838.019 9        57.385                  
 02  5 18 00 01 31.0000000  0  7G01G16G23G10G21G07G08                           
  23732690.281 5 124716142.416 5      3316.389 5        34.875                  
  23504733.672 5 123518197.518 5     -3716.856 5        35.105                  
  23026906.134 5 121007212.276 5     -2763.295 5        34.950                  
  21321026.223 5 112042754.130 5      -792.093 5        35.053                  
  21767402.725 5 114388476.738 5      1704.388 5        34.871                  
  24979202.267 5 131266620.506 5     -1978.187 5        34.570                  
  20437910.732 9 107401978.405 9       834.933 9        54.101                  
 02  5 18 00 01 32.0000000  0  7G01G16G23G10G21G07G08                           
  23732062.739 5 124712828.569 5      3315.948 5        34.996                  
  23505435.638 5 123521907.230 5     -3704.752 5        35.250                  
  23027438.095 5 121009980.853 5     -2784.137 5        35.490                  
  21321175.608 5 112043537.676 5      -775.390 5        34.999                  
  21767081.780 5 114386757.133 5      1724.261 5        34.971                  
  24979581.090 5 131268604.844 5     -1977.331 5        34.412                  
  20437753.967 8 107401145.890 8       832.809 8        50.223                  
 02  5 18 00 01 33.0000000  0  7G01G16G23G10G21G07G08                           
  23731426.101 5 124709499.886 5      3329.684 5        35.431                  
  23506136.569 5 123525602.255 5     -3684.376 5        35.567                  
  23027966.339 5 121012767.132 5     -2793.567 5        35.614                  
  21321326.422 5 112044330.511 5      -797.079 5        35.668                  
  21766747.182 5 114385028.117 5      1740.885 5        35.518                  
  24979959.270 5 131270580.906 5     -1964.823 5        35.499                  
  20437596.112 8 107400312.884 8       833.047 8        53.607                  
 02  5 18 00 01 34.0000000  0  6G01G23G10G21G07G08                              
  23730786.587 5 124706155.342 5      3341.091 5        35.707                  
  23028505.787 6 121015571.065 6     -2792.815 6        36.093                  
  21321482.079 6 112045133.278 6      -803.406 6        37.727                  
  21766414.979 6 114383288.782 6      1735.355 6        37.470                  
  24980330.463 6 131272546.381 6     -1966.608 6        39.058                  
  20437439.615 9 107399478.784 9       831.687 9        54.435                  
 02  5 18 00 01 35.0000000  0  5G23G10G21G07G08                                 
  23029032.923 6 121018376.188 6     -2803.631 6        36.573                  
  21321631.411 6 112045933.821 6      -802.617 6        38.496                  
  21766080.614 6 114381554.114 6      1739.361 6        37.984                  
  24980709.697 6 131274521.247 6     -1971.397 6        37.737                  
  20437283.779 8 107398648.446 8       830.842 8        52.387                  
 02  5 18 00 01 36.0000000  0  5G23G10G21G07G08                                 
  23029569.476 6 121021187.658 6     -2817.553 6        38.699                  
  21321785.424 7 112046736.859 7      -801.600 7        42.233                  
  21765752.914 6 114379818.390 6      1740.454 6        40.542                  
  24981079.765 6 131276497.048 6     -1971.626 6        40.547                  
  20437128.908 8 107397819.280 8       827.241 8        51.032                  
 02  5 18 00 01 37.0000000  0  5G23G10G21G07G08                                 
  23030099.060 7 121024007.171 7     -2816.962 7        43.964                  
  21321950.176 8 112047543.706 8      -806.892 8        48.495                  
  21765414.957 7 114378079.417 7      1738.455 7        46.578                  
  24981466.844 7 131278471.228 7     -1975.792 7        42.775                  
  20436965.907 7 107396991.120 7       828.160 7        47.621                  
 02  5 18 00 01 38.0000000  0  5G23G10G21G07G08                                 
  23030646.335 7 121026832.948 7     -2830.883 7        47.097                  
  21322097.989 8 112048352.565 8      -810.264 8        48.904                  
  21765095.298 8 114376339.953 8      1745.335 8        52.289                  
  24981831.372 7 131280446.755 7     -1971.657 7        44.150                  
  20436807.444 8 107396164.425 8       827.026 8        52.750                  
 02  5 18 00 01 39.0000000  0  5G23G10G21G07G08                                 
  23031181.476 6 121029668.168 6     -2836.645 6        41.585                  
  21322248.464 7 112049167.505 7      -823.876 7        45.938                  
  21764762.059 7 114374594.028 7      1757.074 7        45.080                  
  24982214.430 7 131282415.136 7     -1952.243 7        42.538                  
  20436648.911 8 107395336.888 8       828.523 8        52.551                  
 02  5 18 00 01 40.0000000  0  5G23G10G21G07G08                                 
  23031725.320 6 121032513.224 6     -2843.377 6        37.847                  
  21322405.908 6 112049991.404 6      -821.768 6        40.296                  
  21764423.763 6 114372837.848 6      1754.144 6        39.417                  
  24982582.728 6 131284368.783 6     -1947.665 6        38.169                  
  20436491.056 8 107394505.699 8       833.610 8        50.116                  
 02  5 18 00 01 41.0000000  0  5G23G10G21G07G08                                 
  23032272.023 6 121035370.770 6     -2862.592 6        36.227                  
  21322563.423 6 112050818.851 6      -827.129 6        38.631                  
  21764093.150 6 114371079.920 6      1758.123 6        37.905                  
  24982957.120 6 131286325.752 6     -1944.783 6        39.236                  
  20436330.788 8 107393677.640 8       826.963 8        51.710                  
 02  5 18 00 01 42.0000000  0  5G23G10G21G07G08                                 
  23032813.972 6 121038237.700 6     -2862.690 6        36.164                  
  21322718.741 6 112051651.781 6      -840.636 6        36.514                  
  21763758.284 6 114369316.877 6      1759.829 6        36.172                  
  24983326.544 6 131288277.388 6     -1948.644 6        36.790                  
  20436174.470 7 107392849.521 7       829.257 7        46.252                  
 02  5 18 00 01 43.0000000  0  5G23G10G21G07G08                                 
  23033360.246 5 121041110.307 5     -2863.963 5        35.780                  
  21322877.203 5 112052489.221 5      -833.833 5        35.448                  
  21763420.828 5 114367549.221 5      1759.661 5        35.377                  
  24983702.294 5 131290223.703 5     -1941.517 5        35.697                  
  20436013.863 7 107392020.027 7       827.898 7        43.991                  
 02  5 18 00 01 44.0000000  0  5G23G10G21G07G08                                 
  23033902.786 5 121043979.852 5     -2870.816 5        35.249                  
  21323035.344 5 112053326.870 5      -839.813 5        35.157                  
  21763080.709 5 114365781.747 5      1770.190 5        35.035                  
  24984064.660 5 131292167.558 5     -1949.457 5        35.479                  
  20435851.952 9 107391190.204 9       830.896 9        56.747                  
 02  5 18 00 01 45.0000000  0  5G23G10G21G07G08                                 
  23034442.716 5 121046832.899 5     -2852.198 5        35.093                  
  21323193.664 5 112054159.859 5      -829.192 5        35.571                  
  21762747.505 5 114364019.134 5      1768.413 5        35.317                  
  24984436.497 5 131294110.956 5     -1948.196 5        35.224                  
  20435693.847 8 107390358.067 8       832.137 8        52.554                  
 02  5 18 00 01 46.0000000  0  5G23G10G21G07G08                                 
  23034990.384 5 121049676.145 5     -2834.116 5        34.913                  
  21323349.303 6 112054986.051 6      -827.440 6        39.430                  
  21762420.020 6 114362266.026 6      1749.602 6        39.411                  
  24984810.120 6 131296066.852 6     -1967.134 6        41.755                  
  20435538.315 8 107389529.400 8       817.914 8        49.757                  
 02  5 18 00 01 47.0000000  0  5G23G10G21G07G08                                 
  23035507.317 6 121052507.596 6     -2825.596 6        41.881                  
  21323506.639 7 112055799.550 7      -806.025 7        43.474                  
  21762087.459 6 114360531.021 6      1723.384 6        40.629                  
  24985189.426 5 131298050.133 5     -1987.303 5        35.877                  
  20435382.140 7 107388708.627 7       822.221 7        42.622                  
 02  5 18 00 01 48.0000000  0  5G23G10G21G07G08                                 
  23036059.505 7 121055328.639 7     -2818.315 7        44.464                  
  21323659.563 6 112056602.681 6      -798.004 6        40.752                  
  21761757.579 6 114358810.944 6      1709.742 6        37.566                  
  24985565.426 5 131300056.165 5     -2002.920 5        34.499                  
  20435229.056 6 107387894.740 6       805.998 6        40.132                  
 02  5 18 00 01 49.0000000  0  5G23G10G21G07G08                                 
  23036595.362 7 121058148.311 7     -2820.203 7        46.209                  
  21323814.094 7 112057404.511 7      -803.742 7        46.417                  
  21761431.094 7 114357093.720 7      1715.430 7        42.079                  
  24985955.078 6 131302065.918 6     -2021.225 6        36.782                  
  20435072.434 7 107387081.993 7       814.038 7        45.588                  
 02  5 18 00 01 50.0000000  0  4G23G10G21G08                                    
  23037132.558 7 121060968.105 7     -2817.775 7        44.389                  
  21323960.012 8 112058207.008 8      -806.989 8        51.255                  
  21761099.892 7 114355376.605 7      1715.098 7        47.994                  
  20434916.812 9 107386269.916 9       811.988 9        54.601                  
 02  5 18 00 01 51.0000000  0  4G23G10G21G08                                    
  23037674.293 6 121063791.316 6     -2824.249 6        41.747                  
  21324116.849 7 112059013.027 7      -817.362 7        46.221                  
  21760777.410 7 114353656.040 7      1723.571 7        44.161                  
  20434768.339 8 107385456.495 8       820.265 8        50.925                  
 02  5 18 00 01 52.0000000  0  4G23G10G21G08                                    
  23038212.276 6 121066625.882 6     -2835.178 6        37.898                  
  21324272.577 6 112059831.475 6      -821.504 6        39.155                  
  21760450.299 6 114351919.882 6      1747.939 6        37.790                  
  20434611.449 7 107384636.882 7       820.811 7        44.278                  
 02  5 18 00 01 53.0000000  0  4G23G10G21G08                                    
  23038754.172 6 121069473.913 6     -2857.210 6        36.067                  
  21324431.129 6 112060664.400 6      -839.433 6        36.580                  
  21760112.289 5 114350165.615 5      1756.193 5        35.508                  
  20434454.684 6 107383809.898 6       825.708 6        41.436                  
 02  5 18 00 01 54.0000000  0  4G23G10G21G08                                    
  23039298.141 6 121072331.338 6     -2862.683 6        36.544                  
  21324591.504 6 112061506.954 6      -842.701 6        37.302                  
  21759774.439 5 114348399.659 5      1772.484 5        35.917                  
  20434298.955 7 107382978.394 7       829.849 7        42.744                  
 02  5 18 00 01 55.0000000  0  5G16G23G10G21G08                                 
  23521407.061 6 123605846.181 6     -3618.141 6        38.842                  
  23039840.233 5 121075211.488 5     -2887.028 5        35.259                  
  21324757.543 6 112062361.610 6      -868.875 6        38.019                  
  21759439.663 6 114346621.210 6      1779.800 6        36.727                  
  20434141.065 8 107382146.329 8       831.970 8        50.458                  
 02  5 18 00 01 56.0000000  0  5G16G23G10G21G08                                 
  23522097.734 5 123609468.177 5     -3618.363 5        35.382                  
  23040398.336 5 121078117.126 5     -2911.242 5        34.758                  
  21324922.742 6 112063230.756 6      -872.673 6        36.694                  
  21759101.045 5 114344827.187 5      1800.129 5        35.952                  
  20433985.014 8 107381311.842 8       835.782 8        49.027                  
 02  5 18 00 01 57.0000000  0  5G16G23G10G21G08                                 
  23522786.138 6 123613080.962 6     -3617.222 6        37.485                  
  23040955.314 5 121081040.338 5     -2935.003 5        35.275                  
  21325091.997 6 112064111.439 6      -888.680 6        37.628                  
  21758749.276 6 114343020.508 6      1814.902 6        36.315                  
  20433825.158 7 107380475.202 7       843.326 7        47.928                  
 02  5 18 00 01 58.0000000  0  4G16G10G21G08                                    
  23523476.972 7 123616699.036 7     -3618.976 7        42.945                  
  21325254.730 7 112064994.865 7      -881.073 7        44.672                  
  21758411.480 7 114341210.797 7      1804.841 7        42.327                  
  20433664.373 8 107379636.845 8       836.752 8        49.826                  
 02  5 18 00 01 59.0000000  0  4G16G10G21G08                                    
  23524164.126 6 123620333.426 6     -3638.473 6        37.848                  
  21325424.343 7 112065872.589 7      -880.248 7        46.293                  
  21758069.270 7 114339407.794 7      1801.603 7        45.342                  
  20433503.784 9 107378798.365 9       837.524 9        54.437                  
 02  5 18 00 02  0.0000000  0  4G16G10G21G08                                    
  23524853.888 6 123623969.468 6     -3631.299 6        40.558                  
  21325587.719 7 112066756.627 7      -886.473 7        45.913                  
  21757724.219 7 114337597.859 7      1813.022 7        45.260                  
  20433339.424 8 107377957.158 8       849.986 8        50.044                  
 02  5 18 00 02  1.0000000  0  4G16G10G21G08                                    
  23525555.801 8 123627604.560 8     -3640.041 8        48.509                  
  21325762.854 6 112067649.471 6      -898.015 6        40.948                  
  21757372.914 6 114335777.548 6      1829.414 6        39.352                  
  20433178.049 7 107377113.004 7       843.382 7        46.438                  
 02  5 18 00 02  2.0000000  0  4G16G10G21G08                                    
  23526241.042 7 123631248.538 7     -3642.550 7        42.218                  
  21325938.631 7 112068544.633 7      -895.547 7        46.287                  
  21757026.076 7 114333954.650 7      1821.791 7        44.052                  
  20433014.637 8 107376266.855 8       845.480 8        49.175                  
 02  5 18 00 02  3.0000000  0  4G16G10G21G08                                    
  23526939.900 6 123634902.128 6     -3649.273 6        39.513                  
  21326098.577 8 112069440.611 8      -896.535 8        53.224                  
  21756674.646 7 114332130.296 7      1823.610 7        46.787                  
  20432849.438 8 107375418.492 8       853.945 8        48.977                  
 02  5 18 00 02  4.0000000  0  4G16G10G21G08                                    
  23527633.414 6 123638563.363 6     -3682.477 6        39.488                  
  21326268.100 8 112070337.628 8      -897.875 8        51.960                  
  21756332.276 8 114330305.660 8      1822.353 8        48.561                  
  20432691.833 8 107374569.328 8       849.199 8        51.052                  
 02  5 18 00 02  5.0000000  0  4G16G10G21G08                                    
  23528330.807 7 123642228.956 7     -3666.288 7        42.292                  
  21326485.459 8 112071234.694 8      -895.782 8        50.545                  
  21755979.095 8 114328481.255 8      1826.358 8        50.315                  
  20432533.532 9 107373719.661 9       849.956 9        54.202                  
 02  5 18 00 02  6.0000000  0  4G16G10G21G08                                    
  23529030.897 7 123645900.514 7     -3669.442 7        42.391                  
  21326612.830 9 112072132.028 9      -896.849 9        55.274                  
  21755640.119 7 114326657.170 7      1823.324 7        45.548                  
  20432365.384 8 107372869.342 8       851.564 8        51.028                  
 02  5 18 00 02  7.0000000  0  4G16G10G21G08                                    
  23529731.041 6 123649579.982 6     -3692.787 6        40.552                  
  21326781.567 8 112073028.575 8      -897.211 8        53.327                  
  21755289.511 8 114324833.834 8      1822.987 8        53.777                  
  20432205.438 8 107372018.519 8       851.442 8        52.391                  
 02  5 18 00 02  8.0000000  0  4G16G10G21G08                                    
  23530432.114 6 123653267.645 6     -3696.733 6        39.933                  
  21326963.777 8 112073923.918 8      -894.786 8        50.278                  
  21754955.521 8 114323012.299 8      1820.046 8        52.242                  
  20432048.012 8 107371167.407 8       855.378 8        51.551                  
 02  5 18 00 02  9.0000000  0  4G16G10G21G08                                    
  23531135.582 6 123656960.711 6     -3689.051 6        40.948                  
  21327126.814 8 112074818.814 8      -894.060 8        50.990                  
  21754587.348 8 114321192.620 8      1817.190 8        50.108                  
  20431891.230 8 107370315.920 8       851.517 8        52.531                  
 02  5 18 00 02 10.0000000  0  4G16G10G21G08                                    
  23531838.281 6 123660658.763 6     -3698.388 6        41.292                  
  21327290.298 8 112075712.520 8      -893.984 8        51.193                  
  21754258.093 8 114319374.285 8      1818.085 8        50.478                  
  20431717.328 8 107369464.606 8       853.630 8        52.737                  
 02  5 18 00 02 11.0000000  0  4G16G10G21G08                                    
  23532542.750 6 123664365.817 6     -3711.744 6        40.063                  
  21327467.523 7 112076603.269 7      -892.139 7        47.367                  
  21753905.573 7 114317560.001 7      1812.568 7        47.122                  
  20431570.034 9 107368613.752 9       850.010 9        56.234                  
 02  5 18 00 02 12.0000000  0  4G16G10G21G08                                    
  23533249.059 7 123668074.292 7     -3707.474 7        44.106                  
  21327635.938 7 112077485.681 7      -877.452 7        42.054                  
  21753569.207 6 114315757.321 6      1802.217 6        40.514                  
  20431402.405 8 107367767.172 8       837.920 8        49.667                  
 02  5 18 00 02 13.0000000  0  4G16G10G21G08                                    
  23533954.724 7 123671786.025 7     -3712.382 7        46.519                  
  21327803.979 6 112078362.464 6      -879.998 6        40.776                  
  21753223.370 6 114313962.808 6      1798.462 6        39.063                  
  20431239.010 7 107366923.249 7       835.478 7        47.023                  
 02  5 18 00 02 14.0000000  0  4G16G10G21G08                                    
  23534659.532 7 123675501.112 7     -3734.942 7        43.522                  
  21327967.230 7 112079237.987 7      -875.827 7        46.905                  
  21752881.517 7 114312170.570 7      1793.998 7        45.136                  
  20431082.049 9 107366080.039 9       842.809 9        54.858                  
 02  5 18 00 02 15.0000000  0  4G16G10G21G08                                    
  23535369.540 7 123679219.122 7     -3719.420 7        45.362                  
  21328131.482 8 112080112.265 8      -874.591 8        49.186                  
  21752541.255 7 114310380.956 7      1786.894 7        45.638                  
  20430917.046 9 107365237.470 9       841.940 9        55.896                  
 02  5 18 00 02 16.0000000  0  4G16G10G21G08                                    
  23536079.565 7 123682941.950 7     -3727.673 7        44.199                  
  21328298.808 7 112080982.823 7      -873.767 7        46.846                  
  21752206.604 7 114308595.951 7      1787.916 7        45.940                  
  20430740.607 8 107364396.379 8       844.748 8        51.202                  
 02  5 18 00 02 17.0000000  0  4G16G10G21G08                                    
  23536790.449 6 123686682.652 6     -3744.135 6        37.614                  
  21328462.363 8 112081854.386 8      -871.633 8        51.846                  
  21751865.878 8 114306809.456 8      1786.201 8        49.239                  
  20430593.224 8 107363551.860 8       842.672 8        49.023                  
 02  5 18 00 02 18.0000000  0  5G16G10G27G21G08                                 
  23537502.243 6 123690431.767 6     -3745.094 6        37.478                  
  21328628.223 8 112082722.020 8      -868.210 8        49.335                  
  20504612.310 7 107752398.553 7     -1446.299 7        47.890                  
  21751521.738 8 114305027.600 8      1780.887 8        48.113                  
  20430437.727 8 107362708.110 8       843.616 8        53.194                  
 02  5 18 00 02 19.0000000  0  5G16G10G27G21G08                                 
  23538215.343 7 123694183.692 7     -3749.154 7        44.029                  
  21328794.244 7 112083586.802 7      -857.620 7        46.288                  
  20504871.822 8 107753841.707 8     -1443.484 8        53.004                  
  21751186.694 7 114303250.558 7      1776.499 7        43.864                  
  20430269.383 8 107361865.891 8       840.491 8        53.031                  
 02  5 18 00 02 20.0000000  0  5G16G10G27G21G08                                 
  23538929.103 7 123697937.953 7     -3753.790 7        46.320                  
  21328959.640 7 112084449.092 7      -863.667 7        46.485                  
  20505142.305 8 107755284.234 8     -1442.697 8        52.735                  
  21750849.952 7 114301477.179 7      1761.908 7        45.440                  
  20430120.016 9 107361024.712 9       840.424 9        54.020                  
 02  5 18 00 02 21.0000000  0  5G16G10G27G21G08                                 
  23539654.478 7 123701695.293 7     -3763.250 7        46.036                  
  21329123.713 7 112085306.823 7      -851.602 7        44.999                  
  20505415.826 8 107756725.190 8     -1442.298 8        51.339                  
  21750509.655 7 114299710.521 7      1758.121 7        43.584                  
  20429959.427 8 107360186.202 8       839.159 8        50.377                  
 02  5 18 00 02 22.0000000  0  5G16G10G27G21G08                                 
  23540357.070 7 123705453.881 7     -3757.281 7        46.580                  
  21329285.714 7 112086162.345 7      -852.578 7        45.489                  
  20505690.116 8 107758165.372 8     -1441.286 8        51.474                  
  21750173.967 7 114297947.461 7      1763.811 7        44.192                  
  20429803.413 8 107359348.863 8       836.585 8        53.202                  
 02  5 18 00 02 23.0000000  0  5G16G10G27G21G08                                 
  23541075.834 7 123709213.802 7     -3758.641 7        46.963                  
  21329449.698 7 112087015.352 7      -853.650 7        45.878                  
  20505968.497 8 107759604.709 8     -1437.410 8        51.255                  
  21749842.372 7 114296188.901 7      1751.364 7        45.215                  
  20429646.416 8 107358513.408 8       833.329 8        52.780                  
 02  5 18 00 02 24.0000000  0  5G16G10G27G21G08                                 
  23541798.189 7 123712974.982 7     -3760.065 7        45.657                  
  21329609.715 7 112087863.515 7      -848.456 7        43.870                  
  20506244.877 8 107761041.704 8     -1436.289 8        49.776                  
  21749511.134 7 114294437.257 7      1746.597 7        42.738                  
  20429485.630 8 107357680.942 8       827.171 8        49.354                  
 02  5 18 00 02 25.0000000  0  6G16G23G10G27G21G08                              
  23542495.938 7 123716736.512 7     -3762.081 7        46.560                  
  23056269.299 6 121161522.084 6     -2801.886 6        41.008                  
  21329769.678 7 112088707.206 7      -837.350 7        43.950                  
  20506518.113 8 107762476.272 8     -1429.260 8        48.185                  
  21749175.357 6 114292692.526 6      1744.965 6        41.541                  
  20429329.348 8 107356851.089 8       829.515 8        48.827                  
 02  5 18 00 02 26.0000000  0  6G16G23G10G27G21G08                              
  23543224.941 7 123720490.252 7     -3745.597 7        42.643                  
  23056792.754 7 121164323.543 7     -2806.081 7        43.511                  
  21329929.553 7 112089547.812 7      -843.875 7        45.199                  
  20506786.112 7 107763906.972 7     -1431.178 7        45.790                  
  21748842.886 7 114290953.339 7      1734.105 7        43.155                  
  20429171.546 7 107356024.965 7       825.756 7        47.037                  
 02  5 18 00 02 27.0000000  0  6G16G23G10G27G21G08                              
  23543932.036 6 123724221.625 6     -3734.583 6        36.395                  
  23057337.991 6 121167140.648 6     -2826.980 6        39.434                  
  21330090.284 8 112090392.775 8      -845.061 8        48.578                  
  20507055.184 7 107765333.808 7     -1428.703 7        44.599                  
  21748515.097 8 114289212.295 8      1743.136 8        48.555                  
  20429013.584 7 107355202.627 7       823.211 7        47.090                  
 02  5 18 00 02 28.0000000  0  6G16G23G10G27G21G08                              
  23544640.757 5 123727930.361 5     -3689.300 5        34.958                  
  23057876.081 5 121169977.377 5     -2839.022 5        35.650                  
  21330250.891 7 112091245.553 7      -855.860 7        42.794                  
  20507329.331 7 107766758.379 7     -1425.855 7        47.344                  
  21748185.878 7 114287465.295 7      1757.052 7        44.049                  
  20428856.909 8 107354382.453 8       821.075 8        50.411                  
 02  5 18 00 02 29.0000000  0  6G16G23G10G27G21G08                              
  23545343.832 5 123731618.611 5     -3688.537 5        34.689                  
  23058418.156 5 121172833.073 5     -2854.869 5        35.089                  
  21330414.697 6 112092106.160 6      -859.809 6        40.950                  
  20507603.888 8 107768181.476 8     -1423.688 8        49.916                  
  21747849.082 6 114285711.404 6      1751.147 6        41.148                  
  20428697.463 8 107353564.265 8       819.077 8        50.038                  
 02  5 18 00 02 30.0000000  0  6G16G23G10G27G21G08                              
  23546041.582 6 123735302.303 6     -3680.499 6        37.492                  
  23058970.470 6 121175690.990 6     -2858.160 6        38.255                  
  21330578.019 7 112092968.929 7      -863.628 7        46.140                  
  20507875.640 8 107769604.568 8     -1423.485 8        53.712                  
  21747511.733 7 114283956.270 7      1753.811 7        45.588                  
  20428541.556 8 107352746.484 8       817.921 8        53.493                  
 02  5 18 00 02 31.0000000  0  6G16G23G10G27G21G08                              
  23546744.191 8 123738986.351 8     -3682.541 8        48.794                  
  23059506.987 8 121178551.658 8     -2862.845 8        48.463                  
  21330744.237 9 112093832.552 9      -863.484 9        54.365                  
  20508142.389 8 107771028.290 8     -1424.039 8        53.669                  
  21747177.171 8 114282201.250 8      1754.824 8        50.777                  
  20428386.524 9 107351929.185 9       817.131 9        56.229                  
 02  5 18 00 02 32.0000000  0  6G16G23G10G27G21G08                              
  23547445.908 8 123742670.469 8     -3684.887 8        52.455                  
  23060053.922 8 121181412.770 8     -2860.201 8        50.927                  
  21330909.115 8 112094696.759 8      -864.735 8        52.924                  
  20508410.389 8 107772452.412 8     -1425.571 8        52.458                  
  21746847.273 8 114280446.609 8      1754.136 8        51.718                  
  20428231.046 9 107351112.410 9       816.700 9        56.206                  
 02  5 18 00 02 33.0000000  0  6G16G23G10G27G21G08                              
  23548145.748 8 123746354.787 8     -3684.526 8        51.639                  
  23060599.660 8 121184274.284 8     -2860.210 8        50.571                  
  21331074.546 8 112095561.562 8      -866.001 8        52.644                  
  20508683.052 8 107773877.010 8     -1425.130 8        50.359                  
  21746514.927 8 114278692.266 8      1753.741 8        53.677                  
  20428073.727 9 107350296.115 9       815.892 9        55.937                  
 02  5 18 00 02 34.0000000  0  6G16G23G10G27G21G08                              
  23548848.215 8 123750039.270 8     -3684.598 8        50.731                  
  23061139.215 8 121187136.171 8     -2862.284 8        50.862                  
  21331240.085 8 112096426.913 8      -863.991 8        53.784                  
  20508958.431 8 107775302.154 8     -1430.774 8        51.767                  
  21746178.061 9 114276938.212 9      1753.977 9        54.826                  
  20427916.694 9 107349480.308 9       814.890 9        56.911                  
 02  5 18 00 02 35.0000000  0  6G16G23G10G27G21G08                              
  23549549.539 8 123753723.957 8     -3682.773 8        50.683                  
  23061687.544 8 121189998.472 8     -2862.469 8        50.601                  
  21331405.284 8 112097292.818 8      -865.097 8        53.869                  
  20509231.238 8 107776727.812 8     -1424.826 8        53.185                  
  21745841.355 8 114275184.439 8      1753.630 8        53.379                  
  20427761.055 9 107348664.986 9       814.551 9        55.036                  
