     2.11           OBSERVATION DATA    G                   RINEX VERSION / TYPE
BLANK OR G = GPS,  R = GLONASS,  E = GALILEO,  M = MIXED    COMMENT             
GNSS-SDR            joel                 6-MAY-25 12:55     PGM / RUN BY / DATE 
GPS OBSERVATION DATA FILE GENERATED BY GNSS-SDR             COMMENT             
GNSS-SDR VERSION 0.0.16                                     COMMENT             
See https://gnss-sdr.org                                    COMMENT             
DEFAULT MARKER NAME                                         MARKER NAME         
joel                CTTC                                    OBSERVER / AGENCY   
GNSS-SDR            Software Receiver   0.0.16              REC # / TYPE / VERS 
Antenna number      Antenna type                            ANT # / TYPE        
        0.0000        0.0000        0.0000                  APPROX POSITION XYZ 
        0.0000        0.0000        0.0000                  ANTENNA: DELTA H/E/N
     1     1                                                WAVELENGTH FACT L1/2
     4    C1    L1    D1    S1                              # / TYPES OF OBSERV 
  2002    05    18    00    00   42.1400000     GPS         TIME OF FIRST OBS   
    18                                                      LEAP SECONDS        
                                                            END OF HEADER       
 02  5 18 00 00 43.0000000  0  6G01G21G10G16G07G08                              
  23763610.517 7 124878615.129 7      3398.650 7        46.767                  
  21783603.639 8 114473612.642 8      1786.582 8        53.412                  
  21313644.904 9 112003972.881 9      -796.912 9        54.661                  
  23471206.221 8 123342019.968 8     -3664.462 8        49.436                  
  24961662.713 7 131174428.740 7     -1907.851 7        46.019                  
  20445717.404 9 107442977.727 9       867.810 9        56.106                  
 02  5 18 00 00 44.0000000  0  6G01G21G10G16G07G08                              
  23762963.622 7 124875218.031 7      3399.226 7        46.471                  
  21783268.363 9 114471825.452 9      1787.028 9        54.192                  
  21313797.166 8 112004771.285 8      -798.018 8        53.901                  
  23471903.774 8 123345683.723 8     -3662.383 8        50.780                  
  24962022.595 7 131176333.254 7     -1906.793 7        45.618                  
  20445554.921 9 107442109.847 9       867.796 9        56.741                  
 02  5 18 00 00 45.0000000  0  6G01G21G10G16G07G08                              
  23762318.890 7 124871821.092 7      3398.201 7        47.324                  
  21782928.780 8 114470038.567 8      1785.729 8        53.305                  
  21313949.839 9 112005570.286 9      -798.644 9        54.787                  
  23472599.504 8 123349347.679 8     -3664.482 8        50.669                  
  24962386.748 7 131178238.105 7     -1904.828 7        46.913                  
  20445392.098 9 107441242.432 9       867.088 9        58.102                  
 02  5 18 00 00 46.0000000  0  6G01G21G10G16G07G08                              
  23761671.227 8 124868424.308 8      3399.859 8        48.367                  
  21782584.319 8 114468251.974 8      1785.666 8        53.364                  
  21314102.762 9 112006369.884 9      -799.447 9        54.217                  
  23473298.129 8 123353011.828 8     -3665.188 8        49.314                  
  24962749.239 7 131180143.321 7     -1906.192 7        44.881                  
  20445229.705 9 107440375.495 9       866.424 9        56.863                  
 02  5 18 00 00 47.0000000  0  6G01G21G10G16G07G08                              
  23761024.529 7 124865027.690 7      3399.024 7        47.805                  
  21782245.075 8 114466465.686 8      1785.691 8        52.047                  
  21314254.560 8 112007170.135 8      -800.978 8        53.817                  
  23473995.253 8 123356676.152 8     -3664.132 8        50.224                  
  24963110.086 7 131182048.896 7     -1907.639 7        45.342                  
  20445066.114 9 107439509.035 9       866.123 9        56.078                  
 02  5 18 00 00 48.0000000  0  6G01G21G10G16G07G08                              
  23760379.190 7 124861631.226 7      3397.900 7        47.222                  
  21781907.601 8 114464679.690 8      1787.299 8        52.471                  
  21314407.661 9 112007970.982 9      -800.653 9        56.988                  
  23474691.305 8 123360340.693 8     -3665.739 8        50.283                  
  24963475.990 7 131183954.815 7     -1906.181 7        46.095                  
  20444898.860 9 107438643.039 9       865.135 9        57.892                  
 02  5 18 00 00 49.0000000  0  6G01G21G10G16G07G08                              
  23759732.671 8 124858234.918 8      3395.701 8        48.668                  
  21781568.072 8 114462893.998 8      1785.604 8        53.413                  
  21314560.352 9 112008772.427 9      -801.338 9        57.440                  
  23475390.395 8 123364005.427 8     -3665.064 8        50.438                  
  24963835.014 7 131185861.091 7     -1906.673 7        47.052                  
  20444730.891 9 107437777.507 9       865.709 9        56.989                  
 02  5 18 00 00 50.0000000  0  6G01G21G10G16G07G08                              
  23759085.508 7 124854838.792 7      3397.149 7        47.183                  
  21781224.843 8 114461108.602 8      1782.092 8        53.945                  
  21314713.222 9 112009574.491 9      -802.902 9        56.392                  
  23476087.055 8 123367670.340 8     -3664.933 8        48.701                  
  24964200.936 7 131187767.724 7     -1909.259 7        47.906                  
  20444563.851 9 107436912.453 9       864.688 9        58.807                  
 02  5 18 00 00 51.0000000  0  6G01G21G10G16G07G08                              
  23758440.276 7 124851442.814 7      3398.397 7        47.352                  
  21780886.958 8 114459323.500 8      1784.639 8        53.306                  
  21314866.002 9 112010377.185 9      -802.619 9        55.106                  
  23476784.304 8 123371335.452 8     -3667.389 8        50.174                  
  24964561.318 7 131189674.702 7     -1908.738 7        46.808                  
  20444395.757 9 107436047.875 9       864.359 9        54.287                  
 02  5 18 00 00 52.0000000  0  6G01G21G10G16G07G08                              
  23757794.650 7 124848046.981 7      3396.862 7        47.995                  
  21780550.556 8 114457538.711 8      1782.856 8        51.690                  
  21315019.300 9 112011180.477 9      -803.425 9        54.061                  
  23477482.911 8 123375000.757 8     -3667.768 8        49.517                  
  24964925.775 7 131191582.040 7     -1906.370 7        45.613                  
  20444231.970 9 107435183.764 9       863.635 9        56.043                  
 02  5 18 00 00 53.0000000  0  6G01G21G10G16G07G08                              
  23757147.237 8 124844651.333 8      3396.063 8        48.443                  
  21780208.382 8 114455754.243 8      1783.239 8        51.521                  
  21315172.366 9 112011984.366 9      -804.671 9        54.713                  
  23478179.357 8 123378666.260 8     -3665.545 8        49.892                  
  24965289.374 7 131193489.733 7     -1904.287 7        46.895                  
  20444070.166 9 107434320.115 9       863.751 9        57.514                  
 02  5 18 00 00 54.0000000  0  6G01G21G10G16G07G08                              
  23756501.415 7 124841255.830 7      3396.237 7        47.156                  
  21779866.190 8 114453970.060 8      1784.921 8        53.936                  
  21315325.575 9 112012788.873 9      -803.455 9        54.375                  
  23478876.749 8 123382331.952 8     -3664.834 8        50.315                  
  24965649.667 7 131195397.771 7     -1907.703 7        46.858                  
  20443907.915 9 107433456.946 9       862.346 9        55.142                  
 02  5 18 00 00 55.0000000  0  6G01G21G10G16G07G08                              
  23755855.593 8 124837860.477 8      3393.449 8        48.753                  
  21779530.163 8 114452186.187 8      1784.359 8        53.446                  
  21315479.106 9 112013594.013 9      -805.247 9        54.035                  
  23479575.124 8 123385997.825 8     -3667.169 8        49.839                  
  24966016.268 7 131197306.170 7     -1909.654 7        47.617                  
  20443745.682 9 107432594.251 9       862.923 9        56.794                  
 02  5 18 00 00 56.0000000  0  6G01G21G10G16G07G08                              
  23755208.734 7 124834465.312 7      3394.548 7        46.673                  
  21779192.885 8 114450402.603 8      1782.869 8        53.995                  
  21315632.261 9 112014399.749 9      -806.183 9        54.724                  
  23480272.588 7 123389663.913 7     -3661.444 7        47.497                  
  24966376.150 7 131199214.917 7     -1910.073 7        46.598                  
  20443584.861 9 107431732.022 9       862.323 9        56.144                  
 02  5 18 00 00 57.0000000  0  6G01G21G10G16G07G08                              
  23754563.091 8 124831070.292 8      3393.081 8        48.608                  
  21778849.425 8 114448619.327 8      1783.570 8        52.042                  
  21315785.846 9 112015206.081 9      -806.173 9        55.416                  
  23480969.801 7 123393330.175 7     -3665.060 7        47.214                  
  24966742.018 7 131201124.015 7     -1912.657 7        45.774                  
  20443422.557 9 107430870.258 9       861.599 9        58.031                  
 02  5 18 00 00 58.0000000  0  6G01G21G10G16G07G08                              
  23753918.037 8 124827675.425 8      3394.410 8        48.340                  
  21778508.537 8 114446836.338 8      1783.291 8        51.965                  
  21315939.448 9 112016013.032 9      -806.548 9        55.844                  
  23481668.659 8 123396996.632 8     -3664.167 8        48.296                  
  24967103.562 7 131203033.474 7     -1909.070 7        45.900                  
  20443256.589 9 107430008.971 9       861.169 9        57.036                  
 02  5 18 00 00 59.0000000  0  6G01G21G10G16G07G08                              
  23753270.982 8 124824280.739 8      3395.338 8        49.281                  
  21778173.458 8 114445053.659 8      1781.683 8        50.870                  
  21316093.354 9 112016820.615 9      -807.876 9        56.441                  
  23482364.907 8 123400663.298 8     -3666.674 8        48.737                  
  24967467.590 7 131204943.277 7     -1904.334 7        44.996                  
  20443090.604 9 107429148.161 9       859.455 9        55.214                  
 02  5 18 00 01  0.0000000  0  6G01G21G10G16G07G08                              
  23752625.195 8 124820886.197 8      3393.682 8        49.525                  
  21777835.036 8 114443271.266 8      1782.130 8        52.537                  
  21316246.938 9 112017628.795 9      -808.972 9        57.283                  
  23483062.639 8 123404330.127 8     -3664.419 8        48.603                  
  24967832.136 7 131206853.442 7     -1908.845 7        47.147                  
  20442924.100 9 107428287.816 9       859.942 9        56.757                  
 02  5 18 00 01  1.0000000  0  6G01G21G10G16G07G08                              
  23751980.302 8 124817491.819 8      3390.789 8        50.020                  
  21777492.398 9 114441489.194 9      1782.202 9        54.308                  
  21316401.022 9 112018437.570 9      -809.395 9        55.356                  
  23483761.890 8 123407997.172 8     -3669.929 8        49.538                  
  24968193.090 7 131208763.949 7     -1910.824 7        46.930                  
  20442756.989 9 107427427.935 9       858.891 9        56.528                  
 02  5 18 00 01  2.0000000  0  6G01G21G10G16G07G08                              
  23751333.533 8 124814097.607 8      3394.172 8        49.311                  
  21777152.708 8 114439707.433 8      1781.608 8        50.999                  
  21316555.268 9 112019246.968 9      -809.798 9        54.448                  
  23484458.442 8 123411664.410 8     -3668.565 8        49.174                  
  24968560.156 7 131210674.817 7     -1916.559 7        45.270                  
  20442591.486 9 107426568.531 9       859.130 9        57.172                  
 02  5 18 00 01  3.0000000  0  6G01G21G10G16G07G08                              
  23750687.032 8 124810703.554 8      3391.546 8        48.945                  
  21776817.931 8 114437925.968 8      1780.387 8        51.798                  
  21316709.531 9 112020056.993 9      -811.026 9        55.417                  
  23485156.585 8 123415331.821 8     -3665.757 8        51.244                  
  24968920.341 7 131212586.025 7     -1911.025 7        44.475                  
  20442429.772 9 107425709.603 9       859.161 9        55.684                  
 02  5 18 00 01  4.0000000  0  6G01G21G10G16G07G08                              
  23750042.621 8 124807309.650 8      3394.321 8        48.980                  
  21776478.420 9 114436144.802 9      1781.070 9        54.135                  
  21316863.616 9 112020867.618 9      -811.154 9        54.754                  
  23485854.942 8 123418999.437 8     -3667.562 8        52.059                  
  24969286.871 7 131214497.593 7     -1912.936 7        46.212                  
  20442268.397 9 107424851.144 9       857.735 9        56.495                  
 02  5 18 00 01  5.0000000  0  6G01G21G10G16G07G08                              
  23749396.102 8 124803915.918 8      3396.748 8        48.191                  
  21776135.067 8 114434363.934 8      1780.514 8        53.828                  
  21317017.772 9 112021678.834 9      -811.458 9        55.896                  
  23486552.012 8 123422667.246 8     -3667.779 8        49.303                  
  24969649.791 7 131216409.508 7     -1909.746 7        46.537                  
  20442107.450 9 107423993.145 9       857.933 9        56.536                  
 02  5 18 00 01  6.0000000  0  7G01G23G21G10G16G07G08                           
  23748750.119 8 124800522.340 8      3393.288 8        48.328                  
  23013490.911 8 120936706.683 8     -2829.849 8        48.914                  
  21775797.521 8 114432583.365 8      1779.856 8        51.951                  
  21317171.624 9 112022490.673 9      -812.962 9        56.005                  
  23487250.995 8 123426335.245 8     -3668.431 8        49.069                  
  24970012.568 7 131218321.779 7     -1909.618 7        45.746                  
  20441946.379 9 107423135.627 9       856.944 9        57.542                  
 02  5 18 00 01  7.0000000  0  7G01G23G21G10G16G07G08                           
  23748104.815 8 124797128.928 8      3391.403 8        49.546                  
  23014028.751 8 120939534.984 8     -2827.131 8        49.286                  
  21775462.369 8 114430803.093 8      1781.404 8        52.902                  
  21317325.780 9 112023303.143 9      -812.083 9        54.893                  
  23487949.102 8 123430003.433 8     -3667.895 8        50.082                  
  24970379.454 7 131220234.395 7     -1911.840 7        46.183                  
  20441785.790 9 107422278.583 9       856.718 9        57.377                  
 02  5 18 00 01  8.0000000  0  7G01G23G21G10G16G07G08                           
  23747458.903 8 124793735.681 8      3393.284 8        48.590                  
  23014567.931 8 120942363.642 8     -2828.145 8        50.016                  
  21775123.269 8 114429023.121 8      1779.381 8        52.525                  
  21317480.133 9 112024116.211 9      -813.594 9        57.637                  
  23488646.673 8 123433671.814 8     -3668.020 8        50.621                  
  24970739.533 8 131222147.370 8     -1912.232 8        48.118                  
  20441624.558 9 107421422.015 9       856.276 9        59.414                  
 02  5 18 00 01  9.0000000  0  7G01G23G21G10G16G07G08                           
  23746812.563 8 124790342.577 8      3394.747 8        48.086                  
  23015105.038 8 120945192.689 8     -2831.173 8        50.544                  
  21774779.791 8 114427243.442 8      1779.878 8        53.733                  
  21317634.092 9 112024929.875 9      -813.333 9        55.932                  
  23489344.708 8 123437340.381 8     -3663.516 8        48.599                  
  24971108.082 7 131224060.696 7     -1914.325 7        47.622                  
  20441460.038 9 107420565.915 9       856.062 9        57.644                  
 02  5 18 00 01 10.0000000  0  7G01G23G21G10G16G07G08                           
  23746168.617 8 124786949.644 8      3393.820 8        49.915                  
  23015645.665 8 120948022.145 8     -2827.936 8        50.357                  
  21774442.727 8 114425464.080 8      1779.628 8        53.853                  
  21317788.356 9 112025744.146 9      -814.534 9        54.975                  
  23490043.673 8 123441009.147 8     -3668.170 8        49.213                  
  24971468.893 8 131225974.373 8     -1911.223 8        48.165                  
  20441295.267 9 107419710.280 9       855.337 9        57.123                  
 02  5 18 00 01 11.0000000  0  7G01G23G21G10G16G07G08                           
  23745521.705 7 124783556.874 7      3393.555 7        47.301                  
  23016181.450 8 120950851.997 8     -2827.782 8        50.651                  
  21774108.398 8 114423685.024 8      1778.114 8        51.645                  
  21317943.798 9 112026559.061 9      -815.277 9        55.937                  
  23490740.333 8 123444678.099 8     -3669.418 8        50.728                  
  24971834.779 8 131227888.396 8     -1911.729 8        48.346                  
  20441129.550 9 107418855.119 9       855.012 9        56.847                  
 02  5 18 00 01 12.0000000  0  7G01G23G21G10G16G07G08                           
  23744875.686 8 124780164.264 8      3391.739 8        49.598                  
  23016721.130 8 120953682.235 8     -2830.705 8        51.036                  
  21773768.118 8 114421906.279 8      1777.945 8        53.210                  
  21318098.276 9 112027374.573 9      -816.072 9        57.120                  
  23491439.780 8 123448347.240 8     -3667.422 8        51.447                  
  24972197.681 7 131229802.772 7     -1910.296 7        47.588                  
  20440964.565 9 107418000.437 9       855.026 9        57.340                  
 02  5 18 00 01 13.0000000  0  7G01G23G21G10G16G07G08                           
  23744230.435 8 124776771.821 8      3392.405 8        49.003                  
  23017260.328 8 120956512.863 8     -2832.053 8        50.506                  
  21773425.622 8 114420127.820 8      1778.420 8        52.610                  
  21318253.433 9 112028190.678 9      -816.638 9        57.565                  
  23492138.244 8 123452016.574 8     -3669.562 8        50.635                  
  24972563.871 7 131231717.505 7     -1914.234 7        46.656                  
  20440798.759 9 107417146.230 9       854.444 9        55.990                  
 02  5 18 00 01 14.0000000  0  7G01G23G21G10G16G07G08                           
  23743586.186 8 124773379.527 8      3390.529 8        48.457                  
  23017797.507 8 120959343.867 8     -2830.196 8        50.617                  
  21773090.274 8 114418349.666 8      1777.616 8        52.112                  
  21318409.054 9 112029007.392 9      -818.156 9        54.547                  
  23492834.904 8 123455686.110 8     -3668.623 8        50.232                  
  24972928.149 7 131233632.593 7     -1915.652 7        46.457                  
  20440636.437 9 107416292.477 9       852.998 9        54.588                  
 02  5 18 00 01 15.0000000  0  7G01G23G21G10G16G07G08                           
  23742939.774 8 124769987.394 8      3393.184 8        48.403                  
  23018338.384 8 120962175.268 8     -2830.886 8        50.227                  
  21772755.034 8 114416571.803 8      1777.587 8        52.799                  
  21318564.371 9 112029824.752 9      -817.842 9        55.265                  
  23493534.744 8 123459355.823 8     -3671.282 8        49.086                  
  24973289.425 7 131235548.025 7     -1916.869 7        46.969                  
  20440476.455 9 107415439.200 9       853.888 9        55.974                  
 02  5 18 00 01 16.0000000  0  7G01G23G21G10G16G07G08                           
  23742293.219 7 124766595.436 7      3391.443 7        47.473                  
  23018874.759 8 120965007.066 8     -2832.919 8        50.723                  
  21772413.414 8 114414794.252 8      1777.282 8        52.671                  
  21318720.118 9 112030642.705 9      -818.159 9        55.525                  
  23494232.583 8 123463025.741 8     -3667.587 8        49.646                  
  24973656.651 7 131237463.800 7     -1915.740 7        46.610                  
  20440316.045 9 107414586.400 9       853.211 9        56.873                  
 02  5 18 00 01 17.0000000  0  7G01G23G21G10G16G07G08                           
  23741649.559 7 124763203.628 7      3393.339 7        46.760                  
  23019415.404 8 120967839.258 8     -2832.011 8        50.329                  
  21772072.705 8 114413016.985 8      1777.723 8        54.000                  
  21318875.739 9 112031461.256 9      -818.447 9        55.759                  
  23494930.601 8 123466695.840 8     -3667.110 8        50.531                  
  24974018.820 8 131239379.935 8     -1917.845 8        49.364                  
  20440155.921 9 107413734.078 9       851.648 9        57.655                  
 02  5 18 00 01 18.0000000  0  7G01G23G21G10G16G07G08                           
  23741004.219 8 124759811.974 8      3389.540 8        48.198                  
  23019953.762 8 120970671.836 8     -2829.963 8        49.883                  
  21771737.161 8 114411240.020 8      1778.791 8        53.315                  
  21319031.807 9 112032280.404 9      -819.768 9        55.336                  
  23495629.959 8 123470366.125 8     -3668.615 8        49.760                  
  24974387.816 7 131241296.416 7     -1917.034 7        47.984                  
  20439995.314 9 107412882.220 9       851.385 9        57.615                  
 02  5 18 00 01 19.0000000  0  7G01G23G21G10G16G07G08                           
  23740357.736 7 124756420.505 7      3394.578 7        47.614                  
  23020492.888 8 120973504.789 8     -2833.229 8        50.415                  
  21771402.241 8 114409463.368 8      1776.606 8        52.887                  
  21319187.107 9 112033100.206 9      -821.555 9        54.963                  
  23496328.208 8 123474036.616 8     -3670.311 8        50.876                  
  24974749.824 8 131243213.253 8     -1918.717 8        48.254                  
  20439836.226 9 107412030.828 9       851.413 9        56.800                  
 02  5 18 00 01 20.0000000  0  7G01G23G21G10G16G07G08                           
  23739713.254 7 124753029.119 7      3388.725 7        46.936                  
  23021032.961 8 120976338.321 8     -2833.944 8        50.908                  
  21771060.747 8 114407687.005 8      1777.008 8        50.934                  
  21319344.569 8 112033920.642 8      -821.278 8        53.314                  
  23497025.583 8 123477706.980 8     -3667.799 8        50.341                  
  24975115.174 7 131245130.524 7     -1921.285 7        47.059                  
  20439675.726 9 107411179.972 9       850.113 9        56.962                  
 02  5 18 00 01 21.0000000  0  7G01G23G21G10G16G07G08                           
  23739067.842 7 124749635.286 7      3393.561 7        46.771                  
  23021572.695 8 120979180.414 8     -2848.800 8        50.994                  
  21770720.753 8 114405910.579 8      1776.850 8        51.612                  
  21319501.173 9 112034742.996 9      -824.514 9        54.533                  
  23497722.850 8 123481364.024 8     -3645.031 8        50.200                  
  24975482.454 7 131247052.086 7     -1926.612 7        46.529                  
  20439512.654 9 107410331.991 9       846.163 9        56.180                  
 02  5 18 00 01 22.0000000  0  7G01G23G21G10G16G07G08                           
  23738418.929 7 124746237.227 7      3401.601 7        47.494                  
  23022116.610 8 120982036.778 8     -2862.581 8        50.767                  
  21770385.512 8 114404133.823 8      1776.035 8        53.969                  
  21319659.475 8 112035568.211 8      -826.656 8        53.658                  
  23498414.381 8 123484998.416 8     -3626.527 8        49.849                  
  24975847.322 7 131248980.669 7     -1930.201 7        46.051                  
  20439350.367 9 107409488.544 9       841.488 9        56.208                  
 02  5 18 00 01 23.0000000  0  7G01G23G21G10G16G07G08                           
  23737772.034 7 124742834.931 7      3403.692 7        47.940                  
  23022663.313 8 120984907.371 8     -2876.683 8        49.265                  
  21770049.842 8 114402356.736 8      1777.694 8        52.779                  
  21319817.508 9 112036396.298 9      -830.318 9        54.939                  
  23499100.980 8 123488610.081 8     -3603.109 8        49.058                  
  24976219.641 7 131250916.270 7     -1940.201 7        45.970                  
  20439188.813 9 107408649.632 9       836.352 9        56.840                  
 02  5 18 00 01 24.0000000  0  7G01G23G21G10G16G07G08                           
  23737127.070 8 124739429.560 8      3403.770 8        49.016                  
  23023209.355 8 120987788.641 8     -2881.181 8        50.601                  
  21769707.936 8 114400579.496 8      1777.836 8        53.910                  
  21319975.971 9 112037226.678 9      -830.402 9        56.704                  
  23499786.829 8 123492204.940 8     -3594.814 8        50.155                  
  24976584.365 7 131252857.151 7     -1942.981 7        45.559                  
  20439028.082 9 107407814.198 9       835.808 9        54.885                  
 02  5 18 00 01 25.0000000  0  7G01G23G21G10G16G07G08                           
  23736473.671 8 124736024.104 8      3404.771 8        48.837                  
  23023759.935 8 120990671.056 8     -2881.537 8        49.865                  
  21769367.764 8 114398802.543 8      1776.050 8        53.482                  
  21320134.308 9 112038057.825 9      -830.679 9        55.868                  
  23500471.856 8 123495798.758 8     -3592.862 8        49.451                  
  24976956.881 7 131254798.730 7     -1944.527 7        47.213                  
  20438867.975 9 107406979.443 9       835.811 9        56.580                  
 02  5 18 00 01 26.0000000  0  7G01G23G21G10G16G07G08                           
  23735826.830 8 124732618.842 8      3404.180 8        50.196                  
  23024308.854 8 120993553.880 8     -2882.440 8        51.666                  
  21769033.595 9 114397025.923 9      1776.866 9        54.093                  
  21320292.735 9 112038889.601 9      -831.049 9        57.037                  
  23501154.775 8 123499392.741 8     -3595.115 8        48.634                  
  24977323.518 7 131256740.637 7     -1943.157 7        47.922                  
  20438706.600 9 107406145.149 9       834.003 9        57.320                  
 02  5 18 00 01 27.0000000  0  7G01G23G21G10G16G07G08                           
  23735178.953 7 124729213.775 7      3403.243 7        47.698                  
  23024855.753 8 120996437.091 8     -2881.891 8        50.905                  
  21768697.354 8 114395249.628 8      1776.479 8        52.153                  
  21320451.483 9 112039721.981 9      -833.112 9        55.879                  
  23501836.424 7 123502986.925 7     -3594.593 7        47.537                  
  24977695.068 8 131258682.889 8     -1941.454 8        49.773                  
  20438546.511 9 107405311.305 9       833.526 9        56.019                  
 02  5 18 00 01 28.0000000  0  7G01G23G21G10G16G07G08                           
  23734533.238 7 124725809.019 7      3404.616 7        45.187                  
  23025405.851 8 120999320.604 8     -2885.056 8        52.052                  
  21768355.645 9 114393473.737 9      1774.942 9        54.209                  
  21320610.250 9 112040554.934 9      -831.746 9        55.117                  
  23502520.683 7 123506581.287 7     -3596.083 7        46.813                  
  24978061.723 8 131260625.643 8     -1944.789 8        49.520                  
  20438388.424 9 107404477.955 9       832.958 9        56.351                  
 02  5 18 00 01 29.0000000  0  7G01G23G21G10G16G07G08                           
  23733886.094 7 124722405.198 7      3402.282 7        47.322                  
  23025955.627 8 121002203.928 8     -2883.993 8        49.468                  
  21768016.383 8 114391698.713 8      1776.027 8        52.901                  
  21320767.962 8 112041388.071 8      -831.305 8        53.846                  
  23503203.458 8 123510175.982 8     -3594.813 8        48.650                  
  24978435.149 8 131262569.434 8     -1943.630 8        48.467                  
  20438231.481 9 107403645.244 9       831.892 9        57.088                  
 02  5 18 00 01 30.0000000  0  7G01G23G21G10G16G07G08                           
  23733239.950 8 124719006.425 8      3392.181 8        49.552                  
  23026500.507 8 121005079.236 8     -2866.698 8        48.456                  
  21767682.804 9 114389926.463 9      1771.250 9        54.029                  
  21320925.316 9 112042219.095 9      -827.849 9        54.687                  
  23503886.787 7 123513781.244 7     -3618.617 7        42.294                  
  24978801.429 7 131264513.527 7     -1943.472 7        46.944                  
  20438074.144 9 107402811.881 9       834.522 9        59.579                  
 02  5 18 00 01 31.0000000  0  7G01G23G21G10G16G07G08                           
  23732594.628 7 124715617.414 7      3387.043 7        45.054                  
  23027046.334 7 121007937.206 7     -2849.182 7        46.323                  
  21767347.832 8 114388159.049 8      1765.097 8        53.083                  
  21321081.563 8 112043045.360 8      -823.924 8        50.709                  
  23504582.893 8 123517410.993 8     -3642.423 8        50.578                  
  24979174.159 7 131266456.448 7     -1943.132 7        47.058                  
  20437915.967 9 107401976.133 9       837.406 9        57.646                  
 02  5 18 00 01 32.0000000  0  7G01G23G21G10G16G07G08                           
  23731948.734 7 124712236.787 7      3374.626 7        44.179                  
  23027587.087 8 121010780.505 8     -2838.622 8        51.691                  
  21767008.928 8 114386396.029 8      1758.471 8        52.891                  
  21321237.506 7 112043867.606 7      -819.669 7        46.115                  
  23505275.675 8 123521059.552 8     -3648.910 8        49.498                  
  24979541.778 7 131268399.253 7     -1948.100 7        46.556                  
  20437759.452 9 107401138.828 9       835.300 9        56.958                  
 02  5 18 00 01 33.0000000  0  7G01G23G21G10G16G07G08                           
  23731312.150 8 124708873.221 8      3352.100 8        52.372                  
  23028125.659 8 121013614.979 8     -2833.653 8        50.849                  
  21766673.901 8 114384646.443 8      1738.779 8        53.348                  
  21321391.984 7 112044680.806 7      -807.572 7        46.605                  
  23505969.297 8 123524704.312 8     -3643.710 8        49.149                  
  24979917.349 8 131270362.502 8     -1975.306 8        48.660                  
  20437600.347 8 107400307.789 8       825.742 8        52.255                  
 02  5 18 00 01 34.0000000  0  7G01G23G21G10G16G07G08                           
  23730675.352 8 124705531.303 8      3330.681 8        48.293                  
  23028665.107 7 121016438.346 7     -2817.446 7        47.321                  
  21766346.630 8 114382914.210 8      1725.112 8        49.358                  
  21321544.103 8 112045481.416 8      -795.807 8        51.625                  
  23506662.883 7 123528342.202 7     -3636.611 7        46.450                  
  24980294.135 8 131272352.486 8     -2000.607 8        48.500                  
  20437446.691 9 107399484.442 9       819.946 9        56.626                  
 02  5 18 00 01 35.0000000  0  7G01G23G21G10G16G07G08                           
  23730041.752 7 124702199.983 7      3329.482 7        45.514                  
  23029198.301 8 121019255.881 8     -2817.230 8        48.644                  
  21766021.200 8 114381190.822 8      1724.256 8        49.237                  
  21321695.596 8 112046276.704 8      -794.485 8        50.815                  
  23507353.199 7 123531977.453 7     -3638.669 7        45.838                  
  24980677.319 7 131274355.875 7     -2002.924 7        47.958                  
  20437291.963 9 107398665.293 9       818.691 9        60.553                  
 02  5 18 00 01 36.0000000  0  7G01G23G21G10G16G07G08                           
  23729405.829 7 124698869.505 7      3327.802 7        44.417                  
  23029736.820 7 121022073.450 7     -2818.835 7        47.493                  
  21765694.590 8 114379468.374 8      1721.586 8        49.321                  
  21321847.572 8 112047072.010 8      -796.601 8        50.576                  
  23508047.017 7 123535613.125 7     -3638.440 7        45.867                  
  24981054.980 7 131276359.715 7     -2003.290 7        43.219                  
  20437136.967 9 107397846.654 9       818.196 9        58.051                  
 02  5 18 00 01 37.0000000  0  7G01G23G21G10G16G07G08                           
  23728768.852 7 124695539.544 7      3351.150 7        45.484                  
  23030270.085 7 121024890.894 7     -2816.013 7        46.628                  
  21765363.727 8 114377746.049 8      1721.975 8        50.120                  
  21321997.458 8 112047867.902 8      -794.821 8        52.673                  
  23508736.887 7 123539249.476 7     -3637.763 7        46.746                  
  24981441.523 7 131278364.251 7     -2005.479 7        44.045                  
  20436983.079 9 107397028.463 9       817.628 9        59.156                  
 02  5 18 00 01 38.0000000  0  7G01G23G21G10G16G07G08                           
  23728141.346 7 124692209.758 7      3332.503 7        47.973                  
  23030809.658 7 121027709.091 7     -2820.016 7        46.463                  
  21765032.203 8 114376023.984 8      1722.229 8        49.389                  
  21322150.613 8 112048664.576 8      -796.307 8        51.154                  
  23509430.187 7 123542886.083 7     -3637.203 7        47.212                  
  24981821.061 7 131280369.166 7     -2007.985 7        45.859                  
  20436827.529 9 107396210.722 9       817.396 9        60.267                  
 02  5 18 00 01 39.0000000  0  7G01G23G21G10G16G07G08                           
  23727505.602 7 124688879.981 7      3328.112 7        45.811                  
  23031345.353 8 121030527.231 8     -2817.375 8        48.470                  
  21764709.024 8 114374302.595 8      1722.110 8        51.131                  
  21322300.302 9 112049461.477 9      -796.886 9        54.214                  
  23510122.665 7 123546522.788 7     -3634.529 7        47.393                  
  24982203.619 7 131282374.087 7     -2004.407 7        43.955                  
  20436670.800 9 107395393.437 9       817.029 9        59.103                  
 02  5 18 00 01 40.0000000  0  7G01G23G21G10G16G07G08                           
  23726868.124 7 124685550.496 7      3336.484 7        44.078                  
  23031877.207 8 121033345.616 8     -2817.482 8        48.778                  
  21764383.629 8 114372581.334 8      1719.186 8        50.376                  
  21322452.492 8 112050259.276 8      -796.813 8        51.610                  
  23510811.731 8 123550159.797 8     -3628.082 8        48.514                  
  24982583.443 7 131284379.773 7     -2005.704 7        47.420                  
  20436514.410 9 107394576.594 9       816.299 9        60.301                  
 02  5 18 00 01 41.0000000  0  7G01G23G21G10G16G07G08                           
  23726239.188 7 124682220.875 7      3330.910 7        45.014                  
  23032417.244 7 121036163.969 7     -2817.864 7        47.546                  
  21764056.929 8 114370859.889 8      1723.161 8        49.740                  
  21322605.380 8 112051057.826 8      -806.696 8        52.368                  
  23511509.337 8 123553799.187 8     -3646.595 8        48.729                  
  24982965.679 7 131286384.055 7     -2001.661 7        43.762                  
  20436358.396 9 107393759.417 9       817.237 9        54.560                  
 02  5 18 00 01 42.0000000  0  7G01G23G21G10G16G07G08                           
  23725606.035 6 124678880.218 6      3369.482 6        39.613                  
  23032952.511 7 121038984.525 7     -2818.479 7        46.511                  
  21763726.192 7 114369128.461 7      1740.022 7        42.000                  
  21322758.499 7 112051863.671 7      -814.952 7        45.471                  
  23512201.583 7 123557450.949 7     -3655.428 7        42.303                  
  24983343.305 6 131288370.693 6     -1980.699 6        37.127                  
  20436201.363 7 107392937.126 7       824.540 7        47.264                  
 02  5 18 00 01 43.0000000  0  7G01G23G21G10G16G07G08                           
  23724964.502 6 124675529.113 6      3342.030 6        36.648                  
  23033494.925 7 121041806.439 7     -2819.717 7        43.975                  
  21763389.521 6 114367387.916 6      1743.213 6        38.024                  
  21322912.620 6 112052676.626 6      -815.618 6        40.663                  
  23512898.207 6 123561116.406 6     -3683.366 6        37.772                  
  24983719.127 5 131290339.597 5     -1974.027 5        35.142                  
  20436041.167 7 107392108.984 7       827.336 7        42.142                  
 02  5 18 00 01 44.0000000  0  7G01G23G21G10G16G07G08                           
  23724335.744 7 124672193.857 7      3321.595 7        43.405                  
  23034026.296 7 121044614.251 7     -2792.380 7        43.380                  
  21763064.019 7 114365658.821 7      1718.654 7        44.017                  
  21323066.400 7 112053481.158 7      -796.088 7        46.076                  
  23513596.493 5 123564789.168 5     -3669.941 5        35.949                  
  24984092.929 6 131292322.225 6     -1988.203 6        36.816                  
  20435882.061 7 107391284.199 7       827.725 7        44.336                  
 02  5 18 00 01 45.0000000  0  7G01G23G21G10G16G07G08                           
  23723697.570 6 124668882.653 6      3308.961 6        40.677                  
  23034554.862 6 121047403.564 6     -2788.358 6        37.443                  
  21762737.802 7 114363947.426 7      1708.189 7        45.243                  
  21323217.537 7 112054271.961 7      -791.667 7        44.523                  
  23514298.156 5 123568467.746 5     -3671.443 5        35.456                  
  24984481.669 7 131294327.990 7     -2007.590 7        44.400                  
  20435727.030 8 107390465.184 8       815.850 8        49.582                  
 02  5 18 00 01 46.0000000  0  7G01G23G21G10G16G07G08                           
  23723071.493 6 124665577.620 6      3304.365 6        38.728                  
  23035089.182 6 121050187.970 6     -2776.740 6        36.061                  
  21762418.394 7 114362240.496 7      1710.376 7        43.918                  
  21323366.225 7 112055060.083 7      -791.194 7        43.505                  
  23514997.889 5 123572148.792 5     -3692.100 5        35.418                  
  24984854.292 7 131296339.758 7     -2009.162 7        44.384                  
  20435571.944 8 107389647.849 8       817.364 8        49.974                  
 02  5 18 00 01 47.0000000  0  7G01G23G21G10G16G07G08                           
  23722443.826 6 124662272.851 6      3306.656 6        38.083                  
  23035616.461 5 121052972.529 5     -2776.674 5        35.866                  
  21762089.621 7 114360534.045 7      1697.383 7        43.864                  
  21323517.361 7 112055848.627 7      -785.487 7        43.723                  
  23515699.730 5 123575830.443 5     -3672.618 5        35.606                  
  24985251.985 7 131298351.488 7     -2011.696 7        44.718                  
  20435410.015 8 107388830.533 8       815.870 8        49.481                  
 02  5 18 00 01 48.0000000  0  6G01G23G21G10G07G08                              
  23721815.086 6 124658968.235 6      3308.700 6        38.276                  
  23036139.701 6 121055757.401 6     -2775.365 6        36.085                  
  21761762.154 7 114358827.937 7      1708.910 7        43.721                  
  21323667.318 7 112056637.678 7      -789.958 7        43.144                  
  24985633.364 7 131300363.582 7     -2015.391 7        44.663                  
  20435256.824 8 107388014.064 8       815.286 8        49.733                  
 02  5 18 00 01 49.0000000  0  6G01G23G21G10G07G08                              
  23721183.935 6 124655663.778 6      3311.629 6        37.903                  
  23036676.094 6 121058542.636 6     -2774.224 6        36.142                  
  21761436.491 7 114357121.908 7      1708.635 7        43.696                  
  21323816.810 7 112057427.547 7      -794.774 7        43.383                  
  24986002.538 7 131302376.316 7     -2016.861 7        42.365                  
  20435100.667 8 107387197.953 8       818.795 8        50.254                  
 02  5 18 00 01 50.0000000  0  6G01G23G21G10G07G08                              
  23720554.462 6 124652359.423 6      3314.305 6        38.232                  
  23037204.248 6 121061328.215 6     -2784.129 6        36.204                  
  21761113.026 7 114355416.462 7      1702.889 7        43.355                  
  21323968.161 7 112058217.897 7      -783.356 7        43.596                  
  24986403.787 7 131304389.052 7     -2012.910 7        44.697                  
  20434943.080 8 107386382.050 8       813.489 8        50.652                  
 02  5 18 00 01 51.0000000  0  6G01G23G21G10G07G08                              
  23719927.564 6 124649055.317 6      3293.258 6        37.530                  
  23037734.869 6 121064114.209 6     -2779.976 6        36.065                  
  21760789.757 6 114353711.095 6      1693.401 6        41.820                  
  21324117.278 7 112059008.929 7      -793.401 7        42.279                  
  24986772.049 7 131306402.274 7     -2025.134 7        42.853                  
  20434786.762 8 107385566.787 8       812.558 8        49.431                  
 02  5 18 00 01 52.0000000  0  6G01G23G21G10G07G08                              
  23719297.841 5 124645751.419 5      3312.257 5        35.417                  
  23038267.741 5 121066900.591 5     -2796.262 5        35.680                  
  21760468.168 6 114352006.018 6      1711.288 6        37.356                  
  21324269.003 6 112059800.488 6      -795.848 6        38.233                  
  24987160.075 6 131308415.833 6     -2012.773 6        37.306                  
  20434633.642 8 107384752.201 8       814.499 8        48.970                  
 02  5 18 00 01 53.0000000  0  6G01G23G21G10G07G08                              
  23718669.513 5 124642447.730 5      3303.639 5        35.065                  
  23038794.252 5 121069687.186 5     -2796.321 5        35.752                  
  21760143.238 6 114350301.296 6      1696.961 6        36.427                  
  21324418.621 6 112060592.607 6      -786.403 6        37.121                  
  24987539.166 6 131310429.756 6     -2010.516 6        36.103                  
  20434485.776 8 107383937.694 8       813.798 8        52.669                  
 02  5 18 00 01 54.0000000  0  6G01G23G21G10G07G08                              
  23718038.593 5 124639144.416 5      3311.891 5        35.343                  
  23039327.374 5 121072473.427 5     -2792.110 5        35.951                  
  21759817.075 6 114348596.925 6      1708.114 6        37.504                  
  21324570.704 6 112061385.194 6      -793.104 6        37.934                  
  24987926.478 6 131312443.591 6     -2013.055 6        39.294                  
  20434329.511 8 107383123.643 8       812.461 8        52.687                  
 02  5 18 00 01 55.0000000  0  6G01G23G21G10G07G08                              
  23717411.802 5 124635842.185 5      3301.602 5        35.655                  
  23039860.246 6 121075257.179 6     -2792.207 6        36.122                  
  21759489.125 6 114346892.970 6      1709.865 6        37.684                  
  21324720.768 6 112062177.963 6      -791.620 6        37.890                  
  24988307.713 6 131314456.522 6     -2009.174 6        40.977                  
  20434169.798 8 107382309.031 8       816.015 8        50.151                  
 02  5 18 00 01 56.0000000  0  6G01G23G21G10G07G08                              
  23716781.954 5 124632540.475 5      3307.797 5        35.773                  
  23040390.385 6 121078039.429 6     -2790.544 6        36.430                  
  21759165.392 6 114345189.243 6      1709.265 6        37.752                  
  21324871.243 6 112062971.050 6      -794.623 6        37.958                  
  24988689.342 6 131316468.771 6     -2009.226 6        41.641                  
  20434018.930 8 107381494.442 8       812.476 8        49.183                  
 02  5 18 00 01 57.0000000  0  6G01G23G21G10G07G08                              
  23716153.251 5 124629239.172 5      3307.660 5        35.914                  
  23040918.271 6 121080821.629 6     -2789.852 6        36.829                  
  21758844.267 6 114343485.772 6      1703.624 6        37.904                  
  21325022.576 6 112063764.684 6      -793.323 6        38.012                  
  24989074.473 6 131318480.947 6     -2022.679 6        41.847                  
  20433867.704 8 107380680.277 8       811.828 8        49.634                  
 02  5 18 00 01 58.0000000  0  6G01G23G21G10G07G08                              
  23715529.657 6 124625937.991 6      3295.048 6        36.026                  
  23041445.372 6 121083604.146 6     -2783.430 6        37.179                  
  21758522.500 6 114341782.608 6      1702.567 6        38.186                  
  21325174.034 6 112064558.915 6      -794.419 6        38.097                  
  24989457.817 6 131320493.567 6     -2010.053 6        41.715                  
  20433705.936 8 107379866.212 8       817.254 8        49.467                  
 02  5 18 00 01 59.0000000  0  6G01G23G21G10G07G08                              
  23714896.361 6 124622636.873 6      3303.962 6        36.097                  
  23041972.955 6 121086387.074 6     -2778.456 6        37.780                  
  21758198.177 6 114340079.710 6      1703.795 6        38.279                  
  21325324.956 6 112065353.767 6      -796.378 6        38.244                  
  24989839.303 6 131322506.503 6     -2014.885 6        40.296                  
  20433556.676 8 107379052.831 8       811.662 8        49.714                  
 02  5 18 00 02  0.0000000  0  6G01G23G21G10G07G08                              
  23714265.370 6 124619336.053 6      3308.927 6        36.244                  
  23042503.986 6 121089170.389 6     -2774.100 6        38.312                  
  21757872.139 6 114338377.108 6      1702.279 6        38.488                  
  21325476.467 6 112066149.200 6      -794.348 6        38.370                  
  24990220.413 6 131324519.693 6     -2008.298 6        41.312                  
  20433406.898 8 107378240.005 8       813.155 8        49.968                  
 02  5 18 00 02  1.0000000  0  6G01G23G21G10G07G08                              
  23713643.153 6 124616035.362 6      3297.395 6        36.642                  
  23043035.429 6 121091954.089 6     -2784.899 6        38.661                  
  21757545.350 6 114336674.811 6      1701.660 6        38.464                  
  21325627.657 6 112066945.212 6      -792.163 6        38.295                  
  24990609.082 6 131326533.449 6     -2014.044 6        40.574                  
  20433245.416 8 107377427.247 8       813.520 8        48.059                  
 02  5 18 00 02  2.0000000  0  6G01G23G21G10G07G08                              
  23713015.164 6 124612734.734 6      3299.660 6        37.023                  
  23043564.745 6 121094738.151 6     -2791.015 6        39.075                  
  21757220.902 6 114334972.789 6      1701.803 6        38.713                  
  21325780.276 6 112067741.832 6      -798.838 6        38.538                  
  24990987.137 6 131328547.225 6     -2014.706 6        41.157                  
  20433096.549 8 107376615.303 8       809.981 8        48.935                  
 02  5 18 00 02  3.0000000  0  6G01G23G21G10G07G08                              
  23712383.798 6 124609434.384 6      3305.928 6        37.438                  
  23044095.312 6 121097522.573 6     -2787.831 6        39.651                  
  21756901.047 6 114333271.063 6      1701.296 6        38.836                  
  21325932.341 6 112068539.086 6      -798.950 6        38.873                  
  24991372.108 6 131330561.690 6     -2010.246 6        41.276                  
  20432945.520 8 107375803.857 8       810.621 8        49.860                  
 02  5 18 00 02  4.0000000  0  6G01G23G21G10G07G08                              
  23711757.578 6 124606134.126 6      3293.106 6        37.467                  
  23044623.431 6 121100307.381 6     -2787.606 6        40.278                  
  21756577.635 6 114331569.599 6      1699.704 6        38.760                  
  21326084.246 6 112069336.949 6      -797.638 6        38.988                  
  24991755.756 6 131332576.375 6     -2018.920 6        41.664                  
  20432783.358 8 107374992.484 8       811.233 8        49.467                  
 02  5 18 00 02  5.0000000  0  6G01G23G21G10G07G08                              
  23711127.356 6 124602834.026 6      3299.781 6        37.794                  
  23045154.070 6 121103092.594 6     -2787.369 6        41.026                  
  21756253.456 6 114329868.448 6      1699.423 6        38.783                  
  21326236.115 6 112070135.376 6      -795.607 6        39.184                  
  24992137.170 7 131334591.285 7     -2013.131 7        42.628                  
  20432635.993 8 107374181.897 8       808.230 8        49.660                  
 02  5 18 00 02  6.0000000  0  6G01G23G21G10G07G08                              
  23710496.883 6 124599534.134 6      3304.413 6        37.862                  
  23045682.796 6 121105878.192 6     -2789.481 6        41.909                  
  21755927.382 6 114328167.569 6      1699.592 6        39.085                  
  21326389.520 6 112070934.427 6      -802.245 6        39.084                  
  24992522.855 6 131336606.765 6     -2011.974 6        40.956                  
  20432485.768 8 107373371.816 8       808.217 8        49.882                  
 02  5 18 00 02  7.0000000  0  7G01G23G21G10G16G07G08                           
  23709870.484 6 124596234.347 6      3306.783 6        38.355                  
  23046212.362 7 121108664.162 7     -2780.839 7        42.482                  
  21755601.683 6 114326466.960 6      1701.768 6        39.201                  
  21326544.052 6 112071734.098 6      -802.532 6        39.184                  
  23529745.426 7 123649634.510 7     -3696.077 7        45.918                  
  24992905.538 6 131338622.468 6     -2012.516 6        40.811                  
  20432326.894 8 107372562.051 8       814.700 8        49.333                  
 02  5 18 00 02  9.0000000  0  7G01G23G21G10G16G07G08                           
  23708620.439 6 124589635.314 6      3296.758 6        39.022                  
  23047276.052 7 121114237.226 7     -2788.164 7        44.349                  
  21754954.574 6 114323066.659 6      1707.655 6        36.814                  
  21326844.233 6 112073335.175 6      -794.922 6        37.407                  
  23531149.145 7 123657026.699 7     -3696.133 7        46.305                  
  24993671.011 5 131342655.053 5     -2009.797 5        35.098                  
  20432020.494 8 107370943.782 8       810.583 8        49.068                  
 02  5 18 00 02 10.0000000  0  7G01G23G21G10G16G07G08                           
  23707990.752 6 124586336.015 6      3295.978 6        39.344                  
  23047803.992 7 121117024.364 7     -2787.551 7        44.841                  
  21754636.541 6 114321366.920 6      1691.091 6        36.912                  
  21326998.193 6 112074136.610 6      -798.985 6        37.411                  
  23531851.201 7 123660723.053 7     -3697.147 7        45.997                  
  24994056.124 5 131344671.862 5     -2029.245 5        35.106                  
  20431869.519 8 107370135.345 8       808.415 8        50.359                  
 02  5 18 00 02 11.0000000  0  7G01G23G21G10G16G07G08                           
  23707363.675 6 124583036.902 6      3300.056 6        40.511                  
  23048335.667 7 121119811.858 7     -2787.580 7        45.612                  
  21754312.487 6 114319667.508 6      1705.445 6        37.175                  
  21327154.279 6 112074938.698 6      -808.812 6        37.677                  
  23532555.687 7 123664419.626 7     -3696.545 7        46.328                  
  24994436.234 5 131346688.959 5     -2014.094 5        35.496                  
  20431715.934 9 107369327.499 9       808.160 9        57.725                  
 02  5 18 00 02 12.0000000  0  7G01G23G21G10G16G07G08                           
  23706736.383 6 124579737.920 6      3297.788 6        41.394                  
  23048866.985 7 121122599.727 7     -2790.273 7        47.837                  
  21753988.950 6 114317968.371 6      1701.567 6        37.361                  
  21327306.416 6 112075741.362 6      -802.068 6        37.855                  
  23533260.459 7 123668116.381 7     -3694.312 7        46.962                  
  24994819.364 6 131348706.463 6     -2010.315 6        36.090                  
  20431557.043 9 107368519.992 9       807.928 9        55.448                  
 02  5 18 00 02 14.0000000  0  7G01G23G21G10G16G07G08                           
  23705483.014 7 124573140.412 7      3302.470 7        42.746                  
  23049927.690 8 121128176.219 8     -2787.630 8        48.503                  
  21753338.160 6 114314570.745 6      1702.821 6        38.018                  
  21327612.691 6 112077348.462 6      -811.545 6        38.591                  
  23534667.109 8 123675511.370 8     -3697.416 8        49.095                  
  24995589.126 6 131352742.017 6     -2011.798 6        36.217                  
  20431243.674 8 107366906.417 8       808.314 8        49.255                  
 02  5 18 00 02 15.0000000  0  7G01G23G21G10G16G07G08                           
  23704849.646 7 124569829.530 7      3321.719 7        44.395                  
  23050457.488 8 121130973.358 8     -2807.017 8        48.585                  
  21753015.821 6 114312862.925 6      1716.467 6        39.231                  
  21327766.096 6 112078160.262 6      -817.967 6        39.731                  
  23535371.130 8 123679209.558 8     -3699.910 8        49.552                  
  24995975.079 6 131354746.762 6     -1996.180 6        39.988                  
  20431086.051 8 107366096.575 8       814.506 8        48.862                  
 02  5 18 00 02 16.0000000  0  7G01G23G21G10G16G07G08                           
  23704213.634 7 124566499.172 7      3329.503 7        44.544                  
  23050995.346 7 121133784.022 7     -2809.030 7        47.355                  
  21752692.785 7 114311140.417 7      1721.513 7        42.013                  
  21327922.289 6 112078984.226 6      -824.009 6        41.884                  
  23536075.849 8 123682908.720 8     -3701.155 8        49.921                  
  24996362.157 7 131356730.471 7     -1976.950 7        44.048                  
  20430933.879 7 107365281.941 7       820.505 7        45.089                  
 02  5 18 00 02 17.0000000  0  7G01G23G21G10G16G07G08                           
  23703586.217 7 124563180.017 7      3303.119 7        44.235                  
  23051525.234 8 121136581.535 8     -2789.121 8        49.133                  
  21752364.495 6 114309425.178 6      1703.917 6        40.250                  
  21328079.215 6 112079802.332 6      -814.467 6        40.748                  
  23536780.764 8 123686620.366 8     -3719.249 8        48.776                  
  24996725.327 7 131358720.290 7     -2002.542 7        42.007                  
  20430780.545 7 107364467.967 7       809.022 7        45.734                  
 02  5 18 00 02 18.0000000  0  7G01G23G21G10G16G07G08                           
  23702957.799 7 124559877.714 7      3296.288 7        45.567                  
  23052055.658 8 121139362.009 8     -2779.942 8        50.395                  
  21752039.422 6 114307721.334 6      1704.177 6        39.294                  
  21328230.923 6 112080611.253 6      -806.951 6        40.123                  
  23537490.253 7 123690344.638 7     -3726.371 7        47.792                  
  24997102.060 6 131360722.474 6     -2005.476 6        39.919                  
  20430622.136 7 107363656.147 7       810.198 7        46.172                  
 02  5 18 00 02 19.0000000  0  7G01G23G21G10G16G07G08                           
  23702329.631 7 124556576.521 7      3299.819 7        45.759                  
  23052582.973 8 121142141.398 8     -2778.071 8        49.927                  
  21751713.866 6 114306018.367 6      1697.783 6        39.634                  
  21328388.046 6 112081420.210 6      -811.769 6        40.411                  
  23538198.992 8 123694070.761 8     -3727.020 8        48.235                  
  24997492.391 6 131362725.293 6     -2009.534 6        39.746                  
  20430463.227 7 107362844.752 7       814.547 7        46.699                  
 02  5 18 00 02 20.0000000  0  7G01G23G21G10G16G07G08                           
  23701700.892 7 124553275.413 7      3300.596 7        45.845                  
  23053114.183 8 121144921.131 8     -2781.140 8        48.980                  
  21751388.060 6 114304315.562 6      1697.969 6        39.874                  
  21328538.628 6 112082229.773 6      -807.950 6        40.821                  
  23538908.982 7 123697797.245 7     -3728.308 7        47.566                  
  24997870.196 6 131364728.283 6     -2005.770 6        39.902                  
  20430309.231 7 107362033.864 7       816.963 7        47.086                  
 02  5 18 00 02 21.0000000  0  7G01G23G21G10G16G07G08                           
  23701069.830 7 124549974.451 7      3297.807 7        46.054                  
  23053640.337 7 121147701.219 7     -2779.297 7        46.938                  
  21751067.401 6 114302613.049 6      1699.362 6        40.265                  
  21328695.536 6 112083039.986 6      -811.616 6        41.212                  
  23539617.221 8 123701523.929 8     -3724.765 8        48.135                  
  24998253.897 6 131366731.602 6     -2002.924 6        39.326                  
  20430159.632 7 107361223.457 7       813.363 7        47.239                  
 02  5 18 00 02 22.0000000  0  7G01G23G21G10G16G07G08                           
  23700443.109 7 124546673.627 7      3301.754 7        46.973                  
  23054171.511 8 121150481.705 8     -2779.221 8        49.920                  
  21750742.202 6 114300910.775 6      1705.025 6        40.665                  
  21328850.603 6 112083850.788 6      -813.729 6        41.677                  
  23540327.014 8 123705250.830 8     -3726.675 8        48.485                  
  24998635.490 6 131368735.200 6     -2010.015 6        39.821                  
  20430005.672 7 107360413.377 7       806.738 7        47.447                  
 02  5 18 00 02 23.0000000  0  7G01G23G21G10G16G07G08                           
  23699816.461 7 124543372.967 7      3299.479 7        47.352                  
  23054699.862 8 121153262.562 8     -2780.632 8        50.317                  
  21750420.220 6 114299208.805 6      1702.713 6        40.969                  
  21329002.186 7 112084662.178 7      -806.136 7        42.128                  
  23541035.896 8 123708977.917 8     -3727.540 8        48.165                  
  24999016.690 6 131370739.200 6     -2011.839 6        38.182                  
  20429858.342 8 107359603.875 8       810.021 8        51.728                  
 02  5 18 00 02 24.0000000  0  7G01G23G21G10G16G07G08                           
  23699189.294 7 124540072.476 7      3302.210 7        46.279                  
  23055228.928 8 121156043.795 8     -2781.642 8        50.188                  
  21750098.453 6 114297507.158 6      1697.192 6        41.358                  
  21329156.521 7 112085474.143 7      -807.593 7        42.663                  
  23541745.457 7 123712705.189 7     -3731.090 7        47.574                  
  24999395.120 6 131372743.535 6     -2007.298 6        36.745                  
  20429690.677 8 107358794.772 8       809.495 8        50.327                  
 02  5 18 00 02 25.0000000  0  7G01G23G21G10G16G07G08                           
  23698558.821 7 124536772.129 7      3298.232 7        45.918                  
  23055758.799 8 121158825.385 8     -2781.123 8        48.157                  
  21749770.413 7 114295805.773 7      1699.285 7        42.269                  
  21329311.195 7 112086286.710 7      -810.726 7        43.153                  
  23542453.714 7 123716432.672 7     -3727.377 7        46.386                  
  24999778.625 6 131374748.253 6     -2003.464 6        37.230                  
  20429543.347 7 107357986.052 7       810.834 7        47.463                  
 02  5 18 00 02 26.0000000  0  7G01G23G21G10G16G07G08                           
  23697931.600 7 124533471.924 7      3301.308 7        46.606                  
  23056288.258 7 121161607.390 7     -2782.070 7        47.083                  
  21749444.554 7 114294104.651 7      1700.018 7        43.112                  
  21329466.262 7 112087099.877 7      -812.812 7        44.224                  
  23543163.918 8 123720160.328 8     -3727.435 8        48.079                  
  25000160.486 6 131376753.349 6     -2004.650 6        37.489                  
  20429392.318 7 107357177.827 7       810.122 7        47.682                  
 02  5 18 00 02 27.0000000  0  7G01G23G21G10G16G07G08                           
  23697304.076 7 124530171.890 7      3300.969 7        45.860                  
  23056817.556 7 121164389.717 7     -2781.145 7        47.739                  
  21749121.285 7 114292403.822 7      1701.335 7        44.083                  
  21329620.508 7 112087913.636 7      -812.753 7        45.987                  
  23543874.551 8 123723888.164 8     -3726.603 8        48.863                  
  25000540.471 6 131378758.802 6     -2007.856 6        37.901                  
  20429234.427 7 107356370.224 7       809.708 7        47.310                  
 02  5 18 00 02 28.0000000  0  7G01G23G21G10G16G07G08                           
  23696676.570 7 124526872.000 7      3303.740 7        46.436                  
  23057346.533 8 121167172.473 8     -2783.107 8        48.698                  
  21748800.072 7 114290703.291 7      1699.403 7        45.447                  
  21329774.950 7 112088727.970 7      -814.768 7        47.189                  
  23544582.433 7 123727616.184 7     -3728.418 7        47.796                  
  25000927.389 6 131380764.574 6     -1997.838 6        38.286                  
  20429082.130 7 107355563.000 7       809.054 7        47.024                  
 02  5 18 00 02 29.0000000  0  7G01G23G21G10G16G07G08                           
  23696048.902 7 124523572.296 7      3304.958 7        47.101                  
  23057877.225 8 121169955.593 8     -2782.854 8        48.777                  
  21748479.341 7 114289003.055 7      1699.733 7        47.032                  
  21329929.749 8 112089542.873 8      -815.941 8        49.672                  
  23545291.565 7 123731344.324 7     -3731.255 7        47.886                  
  25001305.104 6 131382770.774 6     -2006.546 6        38.776                  
  20428930.368 7 107354756.224 7       809.164 7        47.559                  
 02  5 18 00 02 30.0000000  0  7G01G23G21G10G16G07G08                           
  23695420.359 7 124520272.804 7      3295.378 7        47.639                  
  23058405.540 8 121172739.122 8     -2784.927 8        48.100                  
  21748155.840 8 114287303.142 8      1700.129 8        48.841                  
  21330084.155 8 112090358.348 8      -815.351 8        50.638                  
  23546001.966 8 123735072.532 8     -3727.058 8        48.105                  
  25001689.038 6 131384777.427 6     -2006.962 6        39.075                  
  20428779.303 7 107353949.922 7       807.962 7        47.869                  
 02  5 18 00 02 31.0000000  0  7G01G23G21G10G16G07G08                           
  23694792.013 7 124516973.461 7      3297.808 7        46.874                  
  23058937.680 8 121175523.039 8     -2786.502 8        48.178                  
  21747828.622 8 114285603.551 8      1698.728 8        49.767                  
  21330239.187 8 112091174.393 8      -816.654 8        51.626                  
  23546712.295 8 123738800.887 8     -3728.843 8        48.588                  
  25002068.826 6 131386784.498 6     -2011.417 6        39.978                  
  20428627.863 7 107353144.105 7       807.005 7        47.852                  
 02  5 18 00 02 32.0000000  0  7G01G23G21G10G16G07G08                           
  23694163.988 8 124513674.276 8      3298.195 8        48.136                  
  23059464.798 7 121178307.332 7     -2784.380 7        47.468                  
  21747503.281 8 114283904.237 8      1699.476 8        50.188                  
  21330394.290 8 112091991.038 8      -817.694 8        51.844                  
  23547420.230 8 123742529.439 8     -3731.007 8        49.509                  
  25002455.584 6 131388791.928 6     -2007.546 6        40.790                  
  20428469.633 7 107352338.876 7       800.728 7        47.451                  
 02  5 18 00 02 33.0000000  0  7G01G23G21G10G16G07G08                           
  23693538.001 7 124510375.245 7      3301.086 7        47.254                  
  23059996.473 7 121181091.983 7     -2783.558 7        46.977                  
  21747180.173 8 114282205.220 8      1697.952 8        50.041                  
  21330549.715 8 112092808.266 8      -817.326 8        52.736                  
  23548129.380 8 123746258.160 8     -3729.865 8        48.911                  
  25002831.405 6 131390799.713 6     -2009.078 6        41.464                  
  20428314.977 7 107351534.211 7       803.753 7        47.022                  
 02  5 18 00 02 34.0000000  0  7G01G23G21G10G16G07G08                           
  23692909.494 7 124507076.377 7      3297.886 7        47.818                  
  23060524.664 8 121183877.008 8     -2783.312 8        48.120                  
  21746858.995 8 114280506.461 8      1698.491 8        48.894                  
  21330705.765 8 112093626.088 8      -816.801 8        53.014                  
  23548840.156 8 123749987.060 8     -3729.003 8        49.516                  
  25003214.946 6 131392807.843 6     -2002.132 6        41.459                  
  20428165.735 7 107350729.837 7       806.561 7        46.450                  
 02  5 18 00 02 35.0000000  0  7G01G23G21G10G16G07G08                           
  23692282.291 7 124503777.666 7      3297.654 7        47.159                  
  23061057.446 7 121186662.426 7     -2784.563 7        47.839                  
  21746538.604 8 114278807.991 8      1699.094 8        50.058                  
  21330861.011 8 112094444.509 8      -819.043 8        52.480                  
  23549550.450 8 123753716.165 8     -3727.808 8        49.405                  
  25003599.987 7 131394816.337 7     -2009.109 7        42.713                  
  20428015.653 7 107349925.872 7       806.577 7        47.853                  
 02  5 18 00 02 36.0000000  0  8G01G23G21G10G27G16G07G08                        
  23691652.604 7 124500479.095 7      3301.682 7        46.413                  
  23061585.601 8 121189448.210 8     -2789.707 8        49.183                  
  21746216.247 8 114277109.807 8      1697.685 8        52.527                  
  21331016.239 8 112095263.536 8      -820.236 8        52.465                  
  20509194.571 8 107776444.630 8     -1412.635 8        48.829                  
  23550258.528 8 123757445.439 8     -3731.278 8        48.215                  
  25003982.366 7 131396825.172 7     -2011.554 7        43.868                  
  20427864.249 7 107349122.389 7       804.507 7        47.619                  
 02  5 18 00 02 37.0000000  0  8G01G23G21G10G27G16G07G08                        
  23691025.223 7 124497180.701 7      3297.698 7        46.039                  
  23062116.847 8 121192234.387 8     -2786.742 8        49.388                  
  21745891.692 8 114275411.908 8      1699.590 8        52.283                  
  21331172.486 8 112096083.146 8      -819.459 8        51.991                  
  20509457.102 8 107777856.965 8     -1414.392 8        48.815                  
  23550969.036 8 123761174.909 8     -3728.570 8        48.082                  
  25004367.587 7 131398834.390 7     -2012.800 7        43.891                  
  20427708.770 7 107348319.548 7       799.113 7        47.077                  
 02  5 18 00 02 38.0000000  0  8G01G23G21G10G27G16G07G08                        
  23690399.736 7 124493882.447 7      3296.418 7        47.122                  
  23062645.877 8 121195020.920 8     -2787.366 8        49.562                  
  21745565.171 8 114273714.300 8      1697.507 8        51.049                  
  21331328.858 8 112096903.330 8      -820.684 8        52.576                  
  20509721.492 8 107779269.770 8     -1414.547 8        50.204                  
  23551678.383 7 123764904.555 7     -3731.350 7        47.502                  
  25004745.016 7 131400843.938 7     -2012.097 7        46.176                  
  20427555.686 7 107347517.199 7       803.289 7        46.853                  
 02  5 18 00 02 39.0000000  0  8G01G23G21G10G27G16G07G08                        
  23689770.496 7 124490584.352 7      3296.366 7        45.908                  
  23063176.802 8 121197807.855 8     -2786.080 8        49.719                  
  21745241.563 8 114272016.975 8      1697.264 8        51.742                  
  21331484.658 8 112097724.124 8      -821.319 8        53.429                  
  20509992.190 8 107780683.065 8     -1414.480 8        50.461                  
  23552389.052 8 123768634.410 8     -3728.902 8        49.397                  
  25005131.666 7 131402853.847 7     -2012.111 7        46.592                  
  20427404.872 7 107346715.122 7       803.895 7        47.195                  
 02  5 18 00 02 40.0000000  0  8G01G23G21G10G27G16G07G08                        
  23689144.830 7 124487286.410 7      3299.173 7        46.575                  
  23063705.671 8 121200595.122 8     -2788.425 8        48.944                  
  21744919.796 8 114270319.920 8      1697.495 8        51.328                  
  21331643.335 8 112098545.510 8      -820.015 8        51.403                  
  20510277.380 8 107782096.593 8     -1413.901 8        48.872                  
  23553097.505 8 123772364.419 8     -3731.461 8        49.048                  
  25005510.329 7 131404864.128 7     -2012.942 7        46.543                  
  20427252.342 7 107345913.498 7       794.108 7        46.929                  
 02  5 18 00 02 41.0000000  0  8G01G23G21G10G27G16G07G08                        
  23688515.429 7 124483988.643 7      3295.424 7        47.685                  
  23064237.686 8 121203382.793 8     -2787.753 8        49.500                  
  21744599.690 8 114268623.165 8      1696.386 8        50.806                  
  21331799.993 8 112099367.493 8      -821.735 8        51.612                  
  20510537.160 7 107783510.818 7     -1408.675 7        46.680                  
  23553808.245 7 123776094.649 7     -3729.381 7        47.432                  
  25005896.032 7 131406874.734 7     -2011.415 7        45.483                  
  20427100.223 7 107345112.582 7       798.862 7        44.911                  
 02  5 18 00 02 42.0000000  0  8G01G23G21G10G27G16G07G08                        
  23687888.191 7 124480691.006 7      3294.623 7        47.143                  
  23064768.628 8 121206170.803 8     -2786.706 8        48.516                  
  21744278.566 8 114266926.688 8      1697.849 8        50.995                  
  21331956.364 8 112100190.061 8      -820.885 8        50.346                  
  20510798.137 7 107784925.526 7     -1418.729 7        43.785                  
  23554518.914 8 123779825.052 8     -3731.863 8        49.175                  
  25006275.498 7 131408885.698 7     -2008.885 7        46.132                  
  20426949.122 7 107344311.877 7       805.500 7        42.906                  
 02  5 18 00 02 43.0000000  0  8G01G23G21G10G27G16G07G08                        
  23687261.292 7 124477393.542 7      3295.565 7        47.561                  
  23065298.498 7 121208959.212 7     -2786.127 7        47.798                  
  21743954.725 8 114265230.481 8      1697.028 8        51.549                  
  21332114.130 8 112101013.237 8      -824.031 8        50.776                  
  20511072.927 6 107786340.628 6     -1413.357 6        41.231                  
  23555227.957 7 123783555.635 7     -3728.542 7        47.316                  
  25006659.843 7 131410897.032 7     -2007.188 7        45.038                  
  20426797.307 6 107343511.719 6       792.708 6        40.952                  
 02  5 18 00 02 44.0000000  0  8G01G23G21G10G27G16G07G08                        
  23686633.928 7 124474096.223 7      3298.828 7        45.503                  
  23065830.388 8 121211747.994 8     -2788.209 8        48.298                  
  21743629.616 8 114263534.576 8      1696.447 8        49.996                  
  21332271.467 8 112101837.011 8      -824.378 8        53.271                  
  20511345.661 6 107787756.201 6     -1414.037 6        38.726                  
  23555936.213 8 123787286.395 8     -3730.985 8        48.617                  
  25007043.223 7 131412908.740 7     -2015.139 7        45.862                  
  20426644.849 6 107342712.075 6       805.517 6        38.912                  
 02  5 18 00 02 45.0000000  0  8G01G23G21G10G27G16G07G08                        
  23686007.262 7 124470799.061 7      3296.880 7        46.385                  
  23066359.882 8 121214537.161 8     -2787.787 8        49.493                  
  21743304.275 8 114261838.953 8      1695.895 8        49.035                  
  21332427.785 8 112102661.355 8      -824.126 8        52.098                  
  20511616.216 6 107789172.292 6     -1408.809 6        37.021                  
  23556648.205 8 123791017.361 8     -3729.343 8        49.223                  
  25007423.565 7 131414920.804 7     -2010.506 7        45.402                  
  20426492.694 6 107341912.919 6       797.676 6        37.203                  
 02  5 18 00 02 46.0000000  0  8G01G23G21G10G27G16G07G08                        
  23685377.843 7 124467502.038 7      3298.889 7        45.263                  
  23066892.415 8 121217326.683 8     -2789.249 8        49.781                  
  21742981.543 8 114260143.583 8      1695.074 8        49.929                  
  21332585.014 8 112103486.281 8      -825.723 8        52.199                  
  20511878.802 6 107790588.858 6     -1416.676 6        36.491                  
  23557358.713 7 123794748.517 7     -3731.720 7        47.937                  
  25007810.251 7 131416933.194 7     -2014.554 7        45.923                  
  20426342.076 6 107341114.151 6       800.280 6        36.985                  
 02  5 18 00 02 47.0000000  0  8G01G23G21G10G27G16G07G08                        
  23684750.319 7 124464205.168 7      3295.115 7        47.251                  
  23067421.159 8 121220116.547 8     -2790.100 8        50.067                  
  21742661.365 8 114258448.509 8      1694.858 8        49.285                  
  21332742.423 8 112104311.842 8      -826.013 8        50.904                  
  20512147.534 6 107792005.923 6     -1419.548 6        36.300                  
  23558067.452 7 123798479.898 7     -3731.717 7        46.467                  
  25008189.306 7 131418945.898 7     -2013.268 7        45.002                  
  20426190.064 6 107340315.912 6       800.939 6        36.909                  
 02  5 18 00 02 48.0000000  0  8G01G23G21G10G27G16G07G08                        
  23684124.546 7 124460908.350 7      3294.703 7        47.141                  
  23067955.890 8 121222906.775 8     -2790.358 8        48.339                  
  21742342.546 8 114256753.592 8      1694.138 8        50.176                  
  21332899.795 8 112105138.021 8      -825.153 8        50.211                  
  20512421.216 6 107793423.540 6     -1421.091 6        36.130                  
  23558777.549 8 123802211.719 8     -3730.402 8        48.196                  
  25008575.170 7 131420958.728 7     -2015.715 7        46.663                  
  20426038.517 6 107339518.039 6       797.766 6        37.056                  
 02  5 18 00 02 49.0000000  0  8G01G23G21G10G27G16G07G08                        
  23683496.700 7 124457611.198 7      3298.005 7        47.431                  
  23068483.062 8 121225697.130 8     -2790.907 8        48.770                  
  21742020.046 8 114255058.481 8      1697.425 8        51.580                  
  21333056.364 8 112105965.098 8      -827.674 8        50.637                  
  20512693.951 6 107794842.121 6     -1418.180 6        36.076                  
  23559488.361 8 123805944.902 8     -3733.563 8        49.115                  
  25008956.263 7 131422970.851 7     -2013.379 7        46.421                  
  20425886.755 6 107338720.219 6       796.015 6        37.270                  
 02  5 18 00 02 50.0000000  0  8G01G23G21G10G27G16G07G08                        
  23682870.015 7 124454313.729 7      3297.963 7        47.186                  
  23069015.594 7 121228487.602 7     -2789.430 7        47.697                  
  21741695.759 8 114253363.104 8      1696.458 8        50.662                  
  21333213.432 8 112106793.077 8      -827.823 8        51.304                  
  20512963.880 6 107796261.737 6     -1413.974 6        36.309                  
  23560199.619 7 123809679.456 7     -3734.475 7        47.124                  
  25009342.394 7 131424982.200 7     -2010.804 7        45.851                  
  20425735.780 6 107337922.484 6       793.896 6        37.588                  
 02  5 18 00 02 51.0000000  0  8G01G23G21G10G27G16G07G08                        
  23682241.472 7 124451016.286 7      3298.232 7        45.920                  
  23069545.822 7 121231278.410 7     -2791.902 7        47.949                  
  21741367.487 8 114251667.933 8      1696.405 8        51.448                  
  21333370.340 8 112107621.675 8      -829.268 8        51.927                  
  20513229.414 6 107797681.964 6     -1424.985 6        36.499                  
  23560909.448 7 123813414.449 7     -3734.028 7        46.883                  
  25009720.682 7 131426993.663 7     -2016.188 7        44.494                  
  20425582.446 6 107337125.135 6       795.685 6        37.741                  
 02  5 18 00 02 52.0000000  0  8G01G23G21G10G27G16G07G08                        
  23681613.376 7 124447718.995 7      3298.502 7        45.988                  
  23070077.461 7 121234069.612 7     -2791.431 7        47.311                  
  21741046.542 8 114249973.002 8      1695.392 8        52.226                  
  21333527.391 8 112108450.886 8      -830.820 8        51.629                  
  20513497.556 6 107799102.638 6     -1418.573 6        36.506                  
  23561620.064 8 123817149.682 8     -3738.028 8        48.093                  
  25010106.116 7 131429005.442 7     -2014.731 7        43.677                  
  20425430.881 6 107336328.241 6       801.563 6        38.011                  
 02  5 18 00 02 53.0000000  0  7G01G23G21G10G16G07G08                           
  23680986.602 7 124444421.846 7      3295.532 7        46.164                  
  23070608.618 8 121236861.185 8     -2791.075 8        48.304                  
  21740724.685 8 114248278.351 8      1693.639 8        50.893                  
  21333684.352 8 112109280.704 8      -829.867 8        52.910                  
  23562331.251 8 123820885.116 8     -3735.973 8        48.149                  
  25010488.281 7 131431017.557 7     -2010.755 7        44.703                  
  20425280.531 6 107335531.852 6       797.157 6        38.120                  
 02  5 18 00 02 54.0000000  0  7G01G23G21G10G16G07G08                           
  23680359.525 7 124441124.841 7      3296.513 7        47.172                  
  23071139.256 8 121239653.129 8     -2790.799 8        48.127                  
  21740405.419 8 114246583.980 8      1693.805 8        51.761                  
  21333842.654 8 112110111.086 8      -831.206 8        51.675                  
  23563042.313 8 123824620.730 8     -3736.599 8        49.359                  
  25010870.875 7 131433030.032 7     -2014.729 7        43.999                  
  20425127.983 6 107334735.913 6       795.460 6        38.251                  
 02  5 18 00 02 55.0000000  0  7G01G23G21G10G16G07G08                           
  23679731.786 7 124437828.000 7      3297.035 7        46.723                  
  23071671.342 7 121242445.442 7     -2792.147 7        47.234                  
  21740083.455 8 114244889.893 8      1694.248 8        53.315                  
  21334000.384 8 112110942.061 8      -831.722 8        50.904                  
  23563752.321 8 123828356.533 8     -3736.836 8        48.641                  
  25011255.095 7 131435042.869 7     -2012.414 7        44.841                  
  20424976.221 6 107333940.415 6       794.113 6        38.528                  
 02  5 18 00 02 56.0000000  0  7G01G23G21G10G16G07G08                           
  23679105.280 7 124434531.304 7      3294.829 7        47.449                  
  23072201.320 8 121245238.118 8     -2793.772 8        48.703                  
  21739761.974 8 114243196.088 8      1694.218 8        51.583                  
  21334158.596 8 112111773.605 8      -830.602 8        49.667                  
  23564463.365 7 123832092.509 7     -3735.201 7        47.494                  
  25011636.473 7 131437056.064 7     -2010.766 7        45.478                  
  20424823.709 6 107333145.437 6       796.105 6        38.518                  
 02  5 18 00 02 57.0000000  0  7G01G23G21G10G16G07G08                           
  23678476.183 7 124431234.746 7      3297.381 7        47.132                  
  23072734.674 7 121248031.167 7     -2794.764 7        47.111                  
  21739437.651 8 114241502.564 8      1693.277 8        52.071                  
  21334316.737 8 112112605.805 8      -833.404 8        51.618                  
  23565175.499 7 123835828.670 7     -3734.891 7        47.300                  
  25012021.801 7 131439069.610 7     -2014.737 7        44.752                  
  20424672.001 6 107332350.890 6       793.779 6        38.644                  
 02  5 18 00 02 58.0000000  0  7G01G23G21G10G16G07G08                           
  23677849.249 7 124427938.369 7      3294.863 7        47.774                  
  23073264.687 8 121250824.609 8     -2794.222 8        48.584                  
  21739112.810 8 114239809.302 8      1692.666 8        52.658                  
  21334474.985 8 112113438.592 8      -833.024 8        51.787                  
  23565886.507 7 123839565.020 7     -3734.560 7        47.792                  
  25012402.125 7 131441083.506 7     -2014.292 7        44.767                  
  20424517.863 6 107331556.804 6       796.538 6        39.022                  
 02  5 18 00 02 59.0000000  0  7G01G23G21G10G16G07G08                           
  23677222.671 7 124424642.127 7      3295.918 7        47.428                  
  23073798.113 8 121253618.397 8     -2792.597 8        48.363                  
  21738790.310 8 114238116.376 8      1692.090 8        52.551                  
  21334634.591 8 112114271.982 8      -834.178 8        53.336                  
  23566596.873 7 123843301.567 7     -3733.201 7        46.996                  
  25012788.954 7 131443097.764 7     -2014.761 7        45.569                  
  20424370.336 6 107330763.239 6       791.544 6        39.131                  
 02  5 18 00 03  0.0000000  0  7G01G23G21G10G16G07G08                           
  23676596.577 7 124421346.039 7      3295.070 7        46.809                  
  23074327.573 8 121256412.581 8     -2794.628 8        49.543                  
  21738469.650 8 114236423.688 8      1693.888 8        51.383                  
  21334794.448 8 112115105.957 8      -832.775 8        52.991                  
  23567307.738 7 123847038.269 7     -3740.181 7        47.162                  
  25013170.046 7 131445112.364 7     -2012.251 7        45.892                  
  20424216.967 6 107329970.111 6       792.543 6        39.263                  
 02  5 18 00 03  1.0000000  0  7G01G23G21G10G16G07G08                           
  23675968.927 8 124418050.116 8      3296.964 8        48.109                  
  23074861.302 8 121259207.135 8     -2795.469 8        49.437                  
  21738150.599 8 114234731.298 8      1692.338 8        50.841                  
  21334953.857 8 112115940.483 8      -835.386 8        53.653                  
  23568019.819 8 123850775.164 8     -3737.681 8        48.842                  
  25013554.570 7 131447127.337 7     -2016.386 7        45.032                  
  20424066.474 6 107329177.474 6       793.566 6        39.504                  
 02  5 18 00 03  2.0000000  0  7G01G23G21G10G16G07G08                           
  23675341.010 7 124414754.401 7      3294.006 7        46.636                  
  23075391.905 8 121262002.081 8     -2794.956 8        48.907                  
  21737830.100 8 114233039.215 8      1692.396 8        50.803                  
  21335113.571 8 112116775.593 8      -835.842 8        53.546                  
  23568730.970 7 123854512.199 7     -3736.158 7        47.712                  
  25013938.110 7 131449142.726 7     -2017.186 7        45.355                  
  20423917.786 6 107328385.317 6       787.371 6        39.739                  
 02  5 18 00 03  3.0000000  0  7G01G23G21G10G16G07G08                           
  23674713.593 7 124411458.920 7      3292.177 7        47.277                  
  23075924.491 8 121264797.428 8     -2798.192 8        48.577                  
  21737507.242 8 114231347.542 8      1690.556 8        51.535                  
  21335272.784 8 112117611.202 8      -836.145 8        53.610                  
  23569441.282 8 123858249.125 8     -3733.424 8        48.309                  
  25014320.829 7 131451158.714 7     -2015.833 7        45.461                  
  20423766.989 6 107327593.735 6       790.458 6        39.759                  
 02  5 18 00 03  4.0000000  0  7G01G23G21G10G16G07G08                           
  23674086.372 7 124408164.115 7      3296.760 7        47.245                  
  23076456.720 7 121267593.366 7     -2796.007 7        45.667                  
  21737182.741 8 114229656.678 8      1689.787 8        52.070                  
  21335431.997 8 112118447.132 8      -836.637 8        53.408                  
  23570152.058 8 123861985.084 8     -3734.740 8        49.412                  
  25014707.032 7 131453176.169 7     -2017.640 7        46.487                  
  20423614.352 6 107326802.992 6       791.961 6        40.242                  
 02  5 18 00 03  5.0000000  0  7G01G23G21G10G16G07G08                           
  23673459.402 7 124404869.812 7      3295.508 7        46.973                  
  23076987.537 7 121270389.849 7     -2796.308 7        47.315                  
  21736858.775 8 114227966.457 8      1689.128 8        52.482                  
  21335591.621 8 112119283.446 8      -836.541 8        53.856                  
  23570863.834 8 123865720.365 8     -3733.843 8        49.550                  
  25015087.732 7 131455194.732 7     -2019.054 7        45.528                  
  20423466.771 6 107326013.028 6       788.208 6        41.080                  
 02  5 18 00 03  6.0000000  0  7G01G23G21G10G16G07G08                           
  23672834.861 7 124401575.750 7      3297.427 7        47.001                  
  23077522.054 8 121273186.758 8     -2797.387 8        48.441                  
  21736537.347 8 114226276.591 8      1687.787 8        51.468                  
  21335750.780 8 112120120.296 8      -838.376 8        53.156                  
  23571573.681 8 123869455.669 8     -3732.117 8        48.694                  
  25015474.453 7 131457213.790 7     -2023.688 7        46.087                  
  20423316.421 6 107325223.548 6       789.064 6        41.692                  
 02  5 18 00 03  7.0000000  0  7G01G23G21G10G16G07G08                           
  23672208.141 7 124398281.854 7      3293.440 7        47.010                  
  23078052.138 7 121275984.015 7     -2798.167 7        47.726                  
  21736217.706 8 114224587.027 8      1689.285 8        50.167                  
  21335909.493 8 112120957.740 8      -838.012 8        53.953                  
  23572282.831 8 123873191.138 8     -3736.300 8        48.158                  
  25015856.761 7 131459233.232 7     -2019.303 7        46.388                  
  20423164.017 6 107324434.537 6       789.460 6        40.378                  
 02  5 18 00 03  8.0000000  0  7G01G23G21G10G16G07G08                           
  23671580.295 7 124394988.087 7      3297.101 7        47.088                  
  23078586.458 8 121278781.677 8     -2796.580 8        48.249                  
  21735900.156 8 114222897.735 8      1690.990 8        51.891                  
  21336067.455 8 112121795.779 8      -837.369 8        53.360                  
  23572994.322 7 123876926.769 7     -3733.190 7        47.762                  
  25016242.839 7 131461253.034 7     -2022.381 7        44.814                  
  20423015.400 6 107323646.049 6       785.290 6        39.315                  
 02  5 18 00 03  9.0000000  0  7G01G23G21G10G16G07G08                           
  23670952.914 7 124391694.492 7      3292.973 7        47.878                  
  23079116.810 8 121281579.701 8     -2797.177 8        48.469                  
  21735578.817 8 114221208.756 8      1688.288 8        51.671                  
  21336226.489 8 112122634.405 8      -838.519 8        52.927                  
  23573706.439 7 123880662.593 7     -3736.595 7        47.530                  
  25016626.076 7 131463273.184 7     -2020.753 7        45.036                  
  20422864.031 6 107322858.005 6       789.372 6        39.307                  
 02  5 18 00 03 10.0000000  0  7G01G23G21G10G16G07G08                           
  23670326.640 7 124388401.052 7      3290.931 7        45.557                  
  23079651.523 8 121284378.089 8     -2798.863 8        49.721                  
  21735255.996 8 114219520.038 8      1687.241 8        52.380                  
  21336385.791 9 112123473.628 9      -840.245 9        54.093                  
  23574417.661 7 123884398.601 7     -3734.833 7        47.927                  
  25017011.100 7 131465293.697 7     -2022.467 7        44.910                  
  20422713.878 6 107322070.421 6       791.000 6        39.503                  
 02  5 18 00 03 11.0000000  0  7G01G23G21G10G16G07G08                           
  23669700.849 7 124385107.775 7      3291.537 7        45.895                  
  23080182.412 8 121287176.826 8     -2796.943 8        48.263                  
  21734933.227 8 114217831.575 8      1688.813 8        51.748                  
  21336545.058 8 112124313.446 8      -841.422 8        53.132                  
  23575127.294 7 123888134.788 7     -3734.395 7        47.817                  
  25017396.160 7 131467314.562 7     -2021.096 7        45.321                  
  20422563.492 6 107321283.306 6       790.792 6        39.834                  
 02  5 18 00 03 12.0000000  0  7G01G23G21G10G16G07G08                           
  23669072.735 7 124381814.664 7      3291.904 7        46.452                  
  23080715.623 7 121289975.947 7     -2797.358 7        47.975                  
  21734609.298 8 114216143.431 8      1688.836 8        51.000                  
  21336704.664 8 112125153.846 8      -841.526 8        51.452                  
  23575839.535 7 123891871.144 7     -3739.731 7        46.276                  
  25017778.807 7 131469335.761 7     -2019.301 7        44.599                  
  20422414.072 6 107320496.676 6       788.349 6        40.151                  
 02  5 18 00 03 13.0000000  0  8G01G23G21G10G27G16G07G08                        
  23668446.873 7 124378521.684 7      3295.045 7        45.751                  
  23081247.548 8 121292775.431 8     -2801.342 8        49.766                  
  21734287.852 8 114214455.558 8      1689.074 8        49.953                  
  21336865.039 8 112125994.858 8      -841.965 8        53.395                  
  20519195.488 6 107829127.192 6     -1431.432 6        39.460                  
  23576551.205 7 123895607.729 7     -3737.585 7        46.579                  
  25018166.368 7 131471357.318 7     -2018.241 7        44.632                  
  20422265.955 6 107319710.502 6       785.886 6        40.543                  
 02  5 18 00 03 14.0000000  0  8G01G23G21G10G27G16G07G08                        
  23667818.437 7 124375228.805 7      3290.035 7        45.576                  
  23081781.707 7 121295575.297 7     -2798.970 7        47.261                  
  21733968.336 8 114212767.904 8      1687.836 8        50.011                  
  21337024.234 8 112126836.472 8      -842.595 8        53.664                  
  20519470.170 6 107830557.254 6     -1433.987 6        39.917                  
  23577262.714 7 123899344.645 7     -3738.058 7        46.771                  
  25018548.872 7 131473379.080 7     -2019.206 7        46.519                  
  20422116.624 6 107318924.747 6       786.119 6        41.132                  
 02  5 18 00 03 15.0000000  0  8G01G23G21G10G27G16G07G08                        
  23667191.467 7 124371935.305 7      3294.605 7        46.377                  
  23082314.954 7 121298375.795 7     -2803.141 7        47.729                  
  21733650.428 8 114211079.868 8      1690.609 8        51.299                  
  21337186.324 8 112127679.170 8      -844.361 8        53.651                  
  20519746.765 6 107831988.272 6     -1435.257 6        40.414                  
  23577972.578 7 123903082.282 7     -3737.965 7        47.270                  
  25018935.808 7 131475400.124 7     -2018.986 7        45.777                  
  20421967.346 6 107318139.168 6       787.154 6        41.566                  
 02  5 18 00 03 16.0000000  0  8G01G23G21G10G27G16G07G08                        
  23666563.281 7 124368626.260 7      3317.705 7        46.558                  
  23082848.291 7 121301190.172 7     -2824.855 7        47.290                  
  21733328.571 8 114209380.931 8      1706.736 8        52.004                  
  21337350.308 8 112128531.767 8      -859.804 8        53.957                  
  20520018.749 6 107833423.391 6     -1439.428 6        41.147                  
  23578683.515 7 123906814.593 7     -3729.372 7        47.352                  
  25019314.578 7 131477407.197 7     -1993.676 7        46.686                  
  20421817.532 7 107317351.009 7       790.843 7        42.467                  
 02  5 18 00 03 17.0000000  0  8G01G23G21G10G27G16G07G08                        
  23665928.788 7 124365291.187 7      3350.594 7        44.902                  
  23083390.973 7 121304027.681 7     -2850.906 7        46.975                  
  21732999.209 8 114207663.687 8      1724.166 8        52.026                  
  21337515.703 9 112129400.505 9      -877.196 9        54.814                  
  20520288.750 7 107834864.982 7     -1443.127 7        42.265                  
  23579391.593 7 123910537.390 7     -3721.317 7        47.669                  
  25019694.491 7 131479391.001 7     -1973.181 7        45.599                  
  20421666.450 7 107316558.429 7       795.061 7        43.902                  
 02  5 18 00 03 18.0000000  0  8G01G23G21G10G27G16G07G08                        
  23665290.060 7 124361939.427 7      3350.646 7        45.410                  
  23083931.815 8 121306879.050 8     -2847.790 8        48.150                  
  21732666.560 8 114205934.492 8      1728.627 8        50.988                  
  21337683.636 8 112130279.834 8      -879.726 8        52.948                  
  20520561.610 7 107836311.558 7     -1447.262 7        43.358                  
  23580098.510 8 123914256.450 8     -3725.456 8        49.838                  
  25020067.453 7 131481358.815 7     -1965.220 7        45.348                  
  20421515.921 7 107315762.700 7       796.718 7        45.125                  
 02  5 18 00 03 19.0000000  0  8G01G23G21G10G27G16G07G08                        
  23664652.386 7 124358589.490 7      3345.862 7        46.882                  
  23084471.495 7 121309719.775 7     -2837.864 7        47.994                  
  21732337.144 8 114204204.477 8      1731.897 8        52.170                  
  21337850.837 8 112131158.634 8      -878.821 8        52.808                  
  20520838.866 7 107837764.171 7     -1457.043 7        44.914                  
  23580810.054 8 123917996.106 8     -3752.142 8        48.556                  
  25020442.417 7 131483319.192 7     -1955.392 7        44.074                  
  20421363.427 7 107314963.566 7       800.578 7        46.753                  
 02  5 18 00 03 20.0000000  0  8G01G23G21G10G27G16G07G08                        
  23664016.784 7 124355241.611 7      3350.407 7        46.166                  
  23085011.944 8 121312548.221 8     -2822.776 8        49.045                  
  21732010.516 8 114202473.382 8      1731.716 8        52.890                  
  21338016.554 8 112132036.729 8      -877.884 8        52.983                  
  20521122.608 7 107839223.705 7     -1463.886 7        47.161                  
  23581527.156 7 123921759.298 7     -3769.658 7        47.716                  
  25020810.948 7 131485270.941 7     -1949.677 7        44.321                  
  20421210.378 8 107314160.420 8       803.114 8        48.472                  
 02  5 18 00 03 21.0000000  0  8G01G23G21G10G27G16G07G08                        
  23663379.557 7 124351893.875 7      3347.050 7        45.754                  
  23085547.157 8 121315372.829 8     -2823.272 8        48.321                  
  21731683.674 8 114200741.546 8      1733.268 8        51.676                  
  21338182.825 8 112132915.349 8      -879.763 8        53.410                  
  20521397.541 8 107840686.293 8     -1463.066 8        48.132                  
  23582245.437 8 123925531.339 8     -3774.536 8        48.293                  
  25021184.803 7 131487218.957 7     -1951.576 7        44.487                  
  20421050.933 8 107313355.909 8       805.576 8        49.685                  
 02  5 18 00 03 22.0000000  0  8G01G23G21G10G27G16G07G08                        
  23662741.722 7 124348545.651 7      3348.928 7        46.888                  
  23086087.427 8 121318198.228 8     -2822.259 8        49.027                  
  21731352.400 8 114199009.553 8      1731.144 8        52.473                  
  21338349.472 9 112133794.948 9      -880.856 9        54.613                  
  20521682.713 8 107842149.639 8     -1463.504 8        48.678                  
  23582962.521 8 123929303.563 8     -3772.168 8        48.507                  
  25021552.244 7 131489166.637 7     -1948.950 7        44.559                  
  20420903.478 8 107312551.814 8       804.800 8        49.529                  
 02  5 18 00 03 23.0000000  0  8G01G23G21G10G27G16G07G08                        
  23662104.066 7 124345197.483 7      3345.669 7        47.642                  
  23086623.140 8 121321024.076 8     -2825.188 8        48.125                  
  21731019.911 8 114197277.761 8      1730.413 8        50.708                  
  21338516.458 8 112134675.203 8      -879.957 8        53.889                  
  20521954.197 8 107843613.452 8     -1462.807 8        48.829                  
  23583679.551 8 123933075.975 8     -3772.471 8        48.136                  
  25021925.153 7 131491114.562 7     -1946.570 7        45.584                  
  20420750.019 8 107311748.115 8       801.906 8        49.249                  
 02  5 18 00 03 24.0000000  0  8G01G23G21G10G27G16G07G08                        
  23661467.697 7 124341849.430 7      3348.441 7        46.941                  
  23087161.605 8 121323850.297 8     -2822.864 8        48.207                  
  21730690.603 8 114195546.235 8      1730.609 8        50.409                  
  21338685.106 8 112135556.036 8      -880.004 8        53.590                  
  20522233.597 8 107845077.798 8     -1465.508 8        49.161                  
  23584397.832 8 123936848.597 8     -3778.806 8        48.122                  
  25022293.112 7 131493062.824 7     -1949.763 7        46.170                  
  20420591.020 8 107310944.916 8       804.964 8        50.023                  
 02  5 18 00 03 25.0000000  0  8G01G23G21G10G27G16G07G08                        
  23660831.024 7 124338501.530 7      3349.771 7        46.513                  
  23087700.285 8 121326676.886 8     -2827.888 8        48.257                  
  21730363.028 8 114193815.009 8      1730.112 8        51.162                  
  21338854.736 8 112136437.424 8      -881.110 8        52.997                  
  20522510.173 8 107846542.663 8     -1465.214 8        49.387                  
  23585115.953 8 123940621.385 8     -3776.278 8        48.591                  
  25022667.950 7 131495011.478 7     -1947.717 7        45.894                  
  20420445.423 8 107310142.222 8       801.464 8        50.223                  
 02  5 18 00 03 26.0000000  0  8G01G23G21G10G27G16G07G08                        
  23660193.957 7 124335153.920 7      3345.058 7        43.838                  
  23088237.445 7 121329503.745 7     -2826.082 7        47.464                  
  21730036.847 8 114192084.173 8      1729.440 8        51.444                  
  21339022.902 8 112137319.321 8      -881.913 8        52.069                  
  20522784.374 8 107848007.930 8     -1465.094 8        49.629                  
  23585834.698 8 123944394.382 8     -3770.950 8        48.357                  
  25023034.730 7 131496960.610 7     -1945.446 7        45.910                  
  20420284.030 8 107309340.033 8       802.866 8        50.691                  
 02  5 18 00 03 27.0000000  0  8G01G23G21G10G27G16G07G08                        
  23659556.105 7 124331807.143 7      3347.362 7        46.541                  
  23088776.429 8 121332330.541 8     -2827.531 8        48.549                  
  21729706.181 8 114190354.150 8      1728.060 8        50.117                  
  21339191.764 8 112138201.422 8      -882.818 8        52.456                  
  20523068.670 8 107849473.488 8     -1463.836 8        49.082                  
  23586551.925 7 123948167.497 7     -3770.486 7        47.271                  
  25023407.638 7 131498910.869 7     -1950.175 7        43.689                  
  20420136.379 8 107308538.580 8       802.591 8        50.217                  
 02  5 18 00 03 28.0000000  0  8G01G23G21G10G27G16G07G08                        
  23658920.128 7 124328460.017 7      3348.267 7        47.606                  
  23089313.125 8 121335163.259 8     -2838.098 8        48.883                  
  21729372.763 8 114188625.292 8      1728.305 8        50.900                  
  21339358.768 8 112139084.491 8      -884.703 8        51.829                  
  20523351.876 8 107850936.429 8     -1459.754 8        48.420                  
  23587267.455 7 123951930.023 7     -3752.952 7        47.002                  
  25023778.528 7 131500866.011 7     -1957.479 7        42.273                  
  20419986.279 8 107307739.722 8       797.610 8        49.235                  
 02  5 18 00 03 29.0000000  0  8G01G23G21G10G27G16G07G08                        
  23658283.276 7 124325110.613 7      3343.811 7        47.287                  
  23089856.522 8 121338009.399 8     -2851.693 8        48.624                  
  21729043.669 8 114186897.616 8      1727.918 8        51.366                  
  21339525.414 8 112139969.796 8      -885.965 8        53.422                  
  20523629.203 7 107852393.668 7     -1455.936 7        47.376                  
  23587980.107 7 123955669.407 7     -3731.051 7        47.985                  
  25024154.957 7 131502829.817 7     -1971.014 7        42.950                  
  20419829.103 8 107306945.623 8       792.527 8        48.500                  
 02  5 18 00 03 30.0000000  0  8G01G23G21G10G27G16G07G08                        
  23657646.531 7 124321766.666 7      3332.847 7        46.609                  
  23090398.561 8 121340856.250 8     -2838.420 8        48.157                  
  21728718.703 8 114185175.250 8      1716.212 8        51.027                  
  21339693.062 9 112140852.631 9      -876.756 9        54.110                  
  20523903.242 7 107853847.109 7     -1451.154 7        46.929                  
  23588690.740 8 123959400.753 8     -3736.254 8        48.809                  
  25024528.044 7 131504803.530 7     -1985.441 7        43.117                  
  20419681.684 8 107306155.139 8       787.343 8        48.306                  
 02  5 18 00 03 31.0000000  0  8G01G23G21G10G27G16G07G08                        
  23657013.914 7 124318444.350 7      3313.536 7        46.889                  
  23090935.007 8 121343681.309 8     -2815.713 8        48.518                  
  21728395.988 8 114183467.543 8      1699.692 8        51.127                  
  21339857.421 8 112141723.202 8      -863.487 8        53.146                  
  20524175.209 7 107855298.254 7     -1449.211 7        46.895                  
  23589402.285 8 123963147.372 8     -3758.117 8        48.651                  
  25024906.546 7 131506793.640 7     -2001.048 7        43.795                  
  20419530.583 7 107305367.621 7       786.494 7        47.928                  
 02  5 18 00 03 32.0000000  0  8G01G23G21G10G27G16G07G08                        
  23656384.675 7 124315139.205 7      3303.912 7        47.237                  
  23091470.273 7 121346489.060 7     -2803.927 7        47.611                  
  21728073.774 8 114181771.496 8      1695.853 8        49.040                  
  21340021.173 8 112142584.163 8      -859.345 8        52.322                  
  20524450.017 7 107856747.792 7     -1449.513 7        47.375                  
  23590117.564 7 123966906.296 7     -3759.320 7        47.560                  
  25025286.798 7 131508796.750 7     -2004.389 7        44.554                  
  20419381.913 8 107304582.557 8       785.572 8        48.000                  
 02  5 18 00 03 33.0000000  0  8G01G23G21G10G27G16G07G08                        
  23655757.168 7 124311836.059 7      3303.898 7        46.664                  
  23092002.770 7 121349295.757 7     -2808.223 7        46.950                  
  21727749.219 8 114180077.056 8      1695.980 8        49.547                  
  21340186.318 8 112143444.627 8      -860.778 8        52.981                  
  20524726.093 7 107858197.277 7     -1449.698 7        47.540                  
  23590833.111 7 123970665.784 7     -3754.476 7        46.000                  
  25025673.216 7 131510802.025 7     -2005.730 7        43.613                  
  20419233.153 8 107303798.376 8       783.353 8        48.491                  
 02  5 18 00 03 34.0000000  0  8G01G23G21G10G27G16G07G08                        
  23655129.233 7 124308533.205 7      3302.164 7        45.863                  
  23092539.288 7 121352102.773 7     -2805.261 7        47.921                  
  21727423.860 8 114178383.030 8      1692.879 8        51.399                  
  21340351.964 9 112144305.582 9      -861.721 9        55.107                  
  20525006.958 8 107859647.150 8     -1449.286 8        48.064                  
  23591549.498 7 123974425.325 7     -3757.946 7        47.719                  
  25026051.432 7 131512807.914 7     -2005.568 7        44.122                  
  20419084.161 8 107303014.741 8       784.339 8        49.251                  
 02  5 18 00 03 35.0000000  0  8G01G23G21G10G27G16G07G08                        
  23654498.760 7 124305230.553 7      3300.163 7        46.273                  
  23093071.659 8 121354910.162 8     -2807.336 8        48.669                  
  21727100.985 8 114176689.318 8      1695.652 8        51.539                  
  21340516.466 8 112145167.120 8      -860.767 8        53.179                  
  20525285.626 8 107861097.472 8     -1451.324 8        49.431                  
  23592264.741 8 123978185.019 8     -3760.786 8        48.904                  
  25026435.580 7 131514814.157 7     -2005.783 7        43.888                  
  20418935.026 8 107302231.592 8       784.078 8        49.973                  
 02  5 18 00 03 36.0000000  0  8G01G23G21G10G27G16G07G08                        
  23653870.485 7 124301928.050 7      3301.233 7        46.034                  
  23093606.515 7 121357717.926 7     -2810.114 7        46.858                  
  21726780.521 8 114174995.889 8      1694.025 8        52.032                  
  21340681.040 9 112146029.240 9      -862.463 9        54.330                  
  20525561.577 8 107862548.281 8     -1451.108 8        50.484                  
  23592979.109 7 123981944.916 7     -3759.400 7        47.930                  
  25026815.386 7 131516820.757 7     -2010.750 7        43.227                  
  20418785.945 8 107301448.924 8       782.036 8        51.146                  
 02  5 18 00 03 37.0000000  0  8G01G23G21G10G27G16G07G08                        
  23653241.978 7 124298625.658 7      3303.292 7        47.439                  
  23094141.299 7 121360526.054 7     -2808.378 7        47.618                  
  21726461.131 8 114173302.711 8      1693.387 8        50.149                  
  21340845.131 9 112146891.982 9      -863.047 9        54.262                  
  20525832.632 8 107863999.617 8     -1451.412 8        52.129                  
  23593694.281 7 123985705.014 7     -3760.319 7        47.251                  
  25027197.944 7 131518827.667 7     -2005.762 7        44.188                  
  20418638.186 8 107300666.735 8       782.401 8        51.841                  
 02  5 18 00 03 38.0000000  0  8G01G23G21G10G27G16G07G08                        
  23652614.293 7 124295323.224 7      3302.734 7        44.981                  
  23094676.316 8 121363334.612 8     -2811.525 8        48.751                  
  21726139.613 8 114171609.653 8      1692.703 8        50.398                  
  21341008.454 8 112147755.402 8      -864.130 8        52.446                  
  20526107.654 8 107865451.555 8     -1452.918 8        52.169                  
  23594411.740 8 123989465.467 8     -3764.481 8        48.105                  
  25027582.217 7 131520834.625 7     -2003.259 7        44.180                  
  20418488.819 8 107299884.925 8       780.993 8        51.945                  
 02  5 18 00 03 39.0000000  0  8G01G23G21G10G27G16G07G08                        
  23651985.071 7 124292017.672 7      3311.756 7        46.586                  
  23095210.528 8 121366146.396 8     -2817.069 8        48.522                  
  21725817.542 8 114169914.562 8      1701.151 8        50.727                  
  21341171.777 8 112148621.359 8      -867.969 8        50.775                  
  20526383.534 8 107866904.715 8     -1453.936 8        53.730                  
  23595127.091 8 123993224.826 8     -3752.770 8        48.210                  
  25027960.969 7 131522838.970 7     -2000.208 7        43.309                  
  20418340.578 8 107299103.007 8       782.250 8        52.830                  
 02  5 18 00 03 40.0000000  0  8G01G23G21G10G27G16G07G08                        
  23651352.329 7 124288692.662 7      3335.580 7        45.827                  
  23095748.028 8 121368978.777 8     -2845.705 8        50.392                  
  21725489.074 8 114168206.603 8      1714.454 8        50.839                  
  21341338.137 8 112149499.659 8      -885.735 8        52.353                  
  20526663.560 9 107868360.870 9     -1457.910 9        54.269                  
  23595838.528 8 123996970.682 8     -3739.362 8        48.181                  
  25028341.687 7 131524828.957 7     -1977.748 7        44.027                  
  20418190.639 8 107298319.260 8       784.949 8        53.963                  
 02  5 18 00 03 41.0000000  0  8G01G23G21G10G27G16G07G08                        
  23650714.905 7 124285344.157 7      3359.589 7        47.062                  
  23096293.569 8 121371836.132 8     -2866.454 8        48.442                  
  21725158.908 8 114166483.174 8      1729.138 8        51.443                  
  21341507.715 8 112150392.773 8      -897.878 8        52.325                  
  20526943.585 9 107869820.421 9     -1460.239 9        54.812                  
  23596548.018 7 124000699.659 7     -3721.533 7        47.496                  
  25028712.898 7 131526801.738 7     -1971.297 7        43.055                  
  20418042.540 9 107297533.330 9       787.174 9        54.750                  
 02  5 18 00 03 42.0000000  0  8G01G23G21G10G27G16G07G08                        
  23650075.784 7 124281982.831 7      3361.516 7        46.693                  
  23096838.950 8 121374704.330 8     -2866.271 8        48.693                  
  21724830.171 8 114164750.622 8      1736.176 8        51.261                  
  21341679.150 8 112151294.194 8      -903.046 8        52.891                  
  20527222.824 9 107871283.979 9     -1466.858 9        54.373                  
  23597258.597 8 124004425.736 8     -3734.193 8        48.721                  
  25029094.419 7 131528762.311 7     -1950.294 7        43.918                  
  20417894.817 9 107296745.094 9       790.729 9        55.453                  
 02  5 18 00 03 43.0000000  0  8G01G23G21G10G27G16G07G08                        
  23649437.216 7 124278612.947 7      3370.179 7        45.778                  
  23097382.794 7 121377569.770 7     -2865.915 7        47.316                  
  21724504.651 8 114163009.604 8      1745.551 8        50.788                  
  21341854.892 8 112152201.165 8      -910.495 8        52.961                  
  20527502.367 9 107872756.681 9     -1477.605 9        55.474                  
  23597971.357 8 124008170.777 8     -3751.812 8        49.750                  
  25029456.678 7 131530705.059 7     -1934.922 7        44.200                  
  20417737.212 9 107295951.115 9       797.235 9        54.473                  
 02  5 18 00 03 45.0000000  0  8G01G23G21G10G27G16G07G08                        
  23648146.930 7 124271851.295 7      3382.237 7        46.544                  
  23098475.020 7 121383297.404 7     -2866.303 7        47.475                  
  21723831.990 8 114159506.898 8      1753.198 8        50.421                  
  21342203.892 8 112154029.600 8      -915.515 8        52.292                  
  20528066.868 9 107875723.460 9     -1485.268 9        54.647                  
  23599402.880 8 124015701.949 8     -3769.507 8        49.840                  
  25030187.414 7 131534548.706 7     -1918.454 7        44.706                  
  20417427.202 8 107294350.364 8       800.512 8        53.677                  
 02  5 18 00 03 58.0000000  0  8G01G23G21G10G27G16G07G08                        
  23639779.635 7 124227881.029 7      3384.539 7        47.311                  
  23105571.613 8 121420587.653 8     -2885.720 8        48.514                  
  21719502.361 8 114136742.309 8      1746.745 8        50.982                  
  21344477.010 8 112165992.282 8      -925.388 8        52.479                  
  20531746.260 9 107895067.013 9     -1481.510 9        54.754                  
  23608721.486 7 124064670.271 7     -3737.089 7        47.636                  
  25034945.649 7 131559530.288 7     -1940.660 7        44.536                  
  20415455.213 9 107283985.568 9       787.524 9        55.378                  
 02  5 18 00 03 59.0000000  0  8G01G23G21G10G27G16G07G08                        
  23639136.511 7 124224497.916 7      3385.117 7        47.094                  
  23106120.728 8 121423481.924 8     -2898.138 8        49.263                  
  21719167.156 8 114134997.125 8      1747.223 8        51.055                  
  21344652.430 8 112166918.333 8      -928.226 8        53.107                  
  20532029.181 9 107896545.424 9     -1477.291 9        54.746                  
  23609429.618 8 124068393.479 8     -3717.406 8        49.405                  
  25035309.462 7 131561473.095 7     -1946.121 7        45.977                  
  20415311.671 9 107283200.512 9       784.120 9        56.403                  
 02  5 18 00 04  0.0000000  0  8G01G23G21G10G27G16G07G08                        
  23638491.546 7 124221103.625 7      3405.877 7        46.534                  
  23106673.881 8 121426387.655 8     -2913.829 8        51.001                  
  21718835.311 8 114133244.518 8      1761.265 8        52.299                  
  21344830.316 8 112167851.810 8      -941.183 8        52.418                  
  20532310.368 9 107898026.164 9     -1485.530 9        54.437                  
  23610138.982 8 124072110.211 8     -3714.562 8        49.942                  
  25035681.298 7 131563407.120 7     -1922.982 7        45.536                  
  20415163.126 9 107282414.371 9       788.679 9        55.124                  
 02  5 18 00 04  8.0000000  0  8G01G23G21G10G27G16G07G08                        
  23633259.604 7 124193614.169 7      3436.257 7        46.622                  
  23111147.016 8 121449886.873 8     -2941.751 8        48.070                  
  21716121.935 8 114118979.826 8      1784.389 8        52.884                  
  21346294.111 8 112175543.533 8      -965.333 8        50.847                  
  20534601.212 8 107910004.069 8     -1499.817 8        53.328                  
  23615796.315 7 124101841.381 7     -3717.005 7        47.451                  
  25038563.536 7 131578527.732 7     -1886.769 7        42.746                  
  20413960.826 9 107276055.867 9       794.183 9        54.060                  
 02  5 18 00 04 10.0000000  0  8G01G23G21G10G27G16G07G08                        
  23631952.181 7 124186737.691 7      3438.531 7        46.769                  
  23112266.564 8 121455769.783 8     -2942.230 8        48.824                  
  21715442.662 8 114115412.532 8      1783.432 8        51.759                  
  21346665.447 8 112177475.899 8      -966.217 8        52.620                  
  20535161.817 9 107913005.212 9     -1501.646 9        54.839                  
  23617210.630 8 124109275.137 8     -3715.422 8        48.997                  
  25039278.065 7 131582305.362 7     -1886.949 7        45.216                  
  20413652.800 9 107274469.909 9       792.017 9        55.803                  
 02  5 18 00 04 11.0000000  0  8G01G23G21G10G27G16G07G08                        
  23631296.620 7 124183299.707 7      3438.645 7        47.775                  
  23112826.097 7 121458711.780 7     -2942.131 7        47.554                  
  21715098.683 8 114113629.367 8      1782.288 8        51.660                  
  21346849.159 8 112178442.989 8      -967.759 8        52.285                  
  20535447.864 8 107914506.535 8     -1501.443 8        53.814                  
  23617916.063 8 124112992.288 8     -3714.521 8        49.240                  
  25039636.303 7 131584194.704 7     -1890.384 7        44.583                  
  20413502.879 9 107273677.696 9       792.114 9        55.892                  
 02  5 18 00 04 12.0000000  0  8G01G23G21G10G27G16G07G08                        
  23630641.685 7 124179861.898 7      3437.126 7        46.134                  
  23113386.612 7 121461654.166 7     -2944.131 7        47.010                  
  21714765.926 8 114111846.510 8      1781.765 8        51.815                  
  21347029.529 8 112179410.674 8      -968.981 8        53.551                  
  20535734.483 8 107916008.344 8     -1500.792 8        52.983                  
  23618624.427 7 124116709.616 7     -3719.023 7        47.998                  
  25039994.362 7 131586084.351 7     -1890.001 7        44.814                  
  20413356.425 9 107272885.973 9       791.847 9        55.741                  
 02  5 18 00 04 13.0000000  0  8G01G23G21G10G27G16G07G08                        
  23629989.269 7 124176424.242 7      3437.860 7        47.575                  
  23113946.252 8 121464596.905 8     -2940.554 8        48.470                  
  21714427.112 8 114110063.950 8      1782.858 8        53.192                  
  21347213.347 8 112180378.965 8      -968.214 8        53.035                  
  20536023.926 8 107917510.646 8     -1504.214 8        52.075                  
  23619331.701 7 124120427.123 7     -3718.667 7        47.889                  
  25040357.532 7 131587974.355 7     -1891.621 7        45.024                  
  20413212.704 9 107272094.745 9       791.203 9        55.699                  
 02  5 18 00 04 19.0000000  0  8G01G23G21G10G27G16G07G08                        
  23626062.587 7 124155801.833 7      3436.679 7        45.719                  
  23117306.147 7 121482261.172 7     -2946.852 7        47.650                  
  21712390.097 8 114099375.156 8      1781.588 8        52.575                  
  21348325.408 8 112186201.358 8      -974.182 8        53.317                  
  20537750.824 9 107926534.851 9     -1505.157 9        54.309                  
  23623576.255 8 124142735.876 8     -3716.206 8        49.063                  
  25042516.253 7 131599321.329 7     -1890.443 7        42.512                  
  20412307.942 8 107267357.897 8       786.825 8        53.083                  
 02  5 18 00 04 21.0000000  0  8G01G23G21G10G27G16G07G08                        
  23624755.432 8 124148929.031 8      3434.458 8        48.386                  
  23118426.231 8 121488152.239 8     -2945.849 8        48.603                  
  21711715.452 8 114095814.748 8      1781.295 8        52.488                  
  21348692.616 8 112188146.968 8      -972.366 8        52.173                  
  20538303.441 9 107929546.836 9     -1507.311 9        55.178                  
  23624993.697 8 124150173.522 8     -3719.524 8        48.588                  
  25043237.108 7 131603106.331 7     -1890.125 7        42.811                  
  20412007.724 9 107265782.950 9       786.108 9        55.214                  
 02  5 18 00 04 27.0000000  0  8G01G23G21G10G27G16G07G08                        
  23620832.895 7 124128311.403 7      3438.030 7        47.273                  
  23121793.308 8 121505839.684 8     -2950.158 8        48.525                  
  21709681.296 8 114085139.301 8      1778.877 8        51.433                  
  21349808.716 8 112194000.240 8      -977.960 8        52.279                  
  20540039.345 8 107938593.737 8     -1510.399 8        52.908                  
  23629237.823 7 124172484.259 7     -3717.070 7        47.975                  
  25045396.240 7 131614468.838 7     -1892.693 7        45.068                  
  20411113.290 9 107261070.599 9       783.432 9        54.937                  
 02  5 18 00 04 39.0000000  0  8G01G23G21G10G27G16G07G08                        
  23612988.430 7 124087091.787 7      3432.100 7        47.731                  
  23128534.701 7 121541258.736 7     -2955.244 7        47.804                  
  21705625.296 8 114063820.926 8      1774.815 8        52.328                  
  21352049.223 8 112205773.120 8      -984.915 8        52.881                  
  20543494.178 9 107956740.062 9     -1515.681 9        56.015                  
  23637733.453 8 124217119.589 8     -3718.719 8        49.307                  
  25049727.101 7 131637229.359 7     -1902.780 7        45.148                  
  20409335.698 9 107251700.395 9       777.446 9        56.320                  
 02  5 18 00 04 43.0000000  0  8G01G23G21G10G27G16G07G08                        
  23610373.995 7 124073356.667 7      3434.123 7        46.481                  
  23130783.071 8 121553077.897 8     -2957.849 8        49.602                  
  21704275.416 8 114056724.451 8      1774.629 8        52.840                  
  21352799.168 8 112209717.029 8      -988.336 8        52.127                  
  20544635.169 9 107962804.406 9     -1517.096 9        54.927                  
  23640564.800 7 124232002.381 7     -3719.931 7        47.534                  
  25051176.279 7 131644826.705 7     -1898.268 7        43.771                  
  20408725.489 9 107248593.149 9       775.251 9        57.022                  
 02  5 18 00 04 44.0000000  0  8G01G23G21G10G27G16G07G08                        
  23609722.455 7 124069921.806 7      3436.301 7        47.855                  
  23131345.570 8 121556036.269 8     -2957.603 8        49.363                  
  21703940.408 8 114054950.405 8      1774.075 8        51.964                  
  21352988.544 8 112210705.457 8      -989.673 8        53.003                  
  20544930.919 9 107964321.238 9     -1517.152 9        55.631                  
  23641271.412 7 124235720.208 7     -3717.299 7        47.271                  
  25051534.285 7 131646726.761 7     -1898.711 7        42.300                  
  20408584.270 9 107247817.856 9       775.381 9        56.368                  
 02  5 18 00 04 46.0000000  0  8G01G23G21G10G27G16G07G08                        
  23608415.282 7 124063051.414 7      3432.316 7        46.635                  
  23132469.782 8 121561956.376 8     -2962.091 8        48.842                  
  21703261.028 8 114051402.640 8      1775.169 8        51.150                  
  21353361.149 8 112212684.914 8      -989.888 8        51.276                  
  20545490.470 9 107967355.889 9     -1516.677 9        54.655                  
  23642687.121 7 124243153.544 7     -3718.683 7        47.193                  
  25052257.498 7 131650527.806 7     -1904.442 7        43.133                  
  20408281.479 8 107246269.012 8       773.417 8        53.108                  
 02  5 18 00 04 51.0000000  0  8G01G23G21G10G27G16G07G08                        
  23605147.288 8 124045878.006 8      3432.789 8        48.403                  
  23135287.173 7 121576763.720 7     -2960.951 7        46.781                  
  21701574.442 8 114042538.599 8      1771.000 8        51.223                  
  21354307.421 8 112217644.235 8      -993.051 8        50.463                  
  20546944.526 9 107974950.963 9     -1520.133 9        54.806                  
  23646223.330 7 124261739.129 7     -3718.579 7        47.754                  
  25054067.379 7 131660036.225 7     -1902.367 7        44.452                  
  20407540.558 9 107242405.796 9       770.055 9        56.391                  
