     2.11           OBSERVATION DATA    G                   RINEX VERSION / TYPE
BLANK OR G = GPS,  R = GLONASS,  E = GALILEO,  M = MIXED    COMMENT             
GNSS-SDR            joel                19-APR-25 15:26     PGM / RUN BY / DATE 
GPS OBSERVATION DATA FILE GENERATED BY GNSS-SDR             COMMENT             
GNSS-SDR VERSION 0.0.16                                     COMMENT             
See https://gnss-sdr.org                                    COMMENT             
DEFAULT MARKER NAME                                         MARKER NAME         
joel                CTTC                                    OBSERVER / AGENCY   
GNSS-SDR            Software Receiver   0.0.16              REC # / TYPE / VERS 
Antenna number      Antenna type                            ANT # / TYPE        
        0.0000        0.0000        0.0000                  APPROX POSITION XYZ 
        0.0000        0.0000        0.0000                  ANTENNA: DELTA H/E/N
     1     1                                                WAVELENGTH FACT L1/2
     4    C1    L1    D1    S1                              # / TYPES OF OBSERV 
  2002    05    18    00    00   42.3400000     GPS         TIME OF FIRST OBS   
    18                                                      LEAP SECONDS        
                                                            END OF HEADER       
 02  5 18 00 00 43.0000000  0  7G01G10G16G21G23G07G08                           
  23763590.557 7 124878512.381 7      3399.695 7        46.684                  
  21313658.664 9 112004045.667 9      -798.335 9        54.379                  
  23471245.193 8 123342228.695 8     -3662.994 8        49.406                  
  21783585.520 8 114473525.344 8      1786.635 8        53.259                  
  23001127.174 8 120871744.352 8     -2818.484 8        49.978                  
  24961618.612 7 131174205.514 7     -1906.857 7        45.636                  
  20445704.806 9 107442938.360 9       868.248 9        55.797                  
 02  5 18 00 00 44.0000000  0  7G01G10G16G21G23G07G08                           
  23762945.592 7 124875115.259 7      3394.653 7        46.770                  
  21313811.211 8 112004844.024 8      -799.526 8        53.913                  
  23471943.854 8 123345892.470 8     -3663.427 8        50.486                  
  21783249.386 9 114471738.133 9      1786.415 9        54.224                  
  23001664.817 8 120874563.620 8     -2818.305 8        50.206                  
  24961982.032 7 131176110.041 7     -1909.813 7        46.108                  
  20445541.823 9 107442070.516 9       867.788 9        56.827                  
 02  5 18 00 00 45.0000000  0  7G01G10G16G21G23G07G08                           
  23762299.002 7 124871718.311 7      3394.043 7        47.506                  
  21313963.044 9 112005643.022 9      -798.033 9        54.603                  
  23472640.764 8 123349556.442 8     -3662.072 8        50.281                  
  21782906.712 8 114469951.232 8      1786.910 8        53.223                  
  23002198.993 8 120877383.250 8     -2818.297 8        51.032                  
  24962342.700 7 131178014.923 7     -1904.901 7        46.790                  
  20445380.198 9 107441203.149 9       867.251 9        57.368                  
 02  5 18 00 00 46.0000000  0  7G01G10G16G21G23G07G08                           
  23761651.160 8 124868321.515 8      3395.464 8        48.417                  
  21314115.253 9 112006442.619 9      -799.382 9        54.143                  
  23473337.673 8 123353220.599 8     -3665.613 8        49.297                  
  21782563.537 8 114468164.641 8      1786.829 8        53.634                  
  23002736.511 8 120880203.292 8     -2822.643 8        50.579                  
  24962709.069 7 131179920.164 7     -1905.454 7        45.006                  
  20445215.695 9 107440336.259 9       866.660 9        56.300                  
 02  5 18 00 00 47.0000000  0  7G01G10G16G21G23G07G08                           
  23761005.713 7 124864924.872 7      3392.839 7        47.627                  
  21314268.462 8 112007242.812 8      -801.048 8        53.804                  
  23474035.637 8 123356884.951 8     -3665.559 8        50.479                  
  21782227.278 8 114466378.352 8      1785.611 8        52.245                  
  23003272.582 8 120883023.723 8     -2822.780 8        49.775                  
  24963068.433 7 131181825.745 7     -1907.415 7        45.942                  
  20445048.388 9 107439469.823 9       865.980 9        55.630                  
 02  5 18 00 00 48.0000000  0  7G01G10G16G21G23G07G08                           
  23760360.070 7 124861528.391 7      3396.518 7        47.344                  
  21314420.241 9 112008043.612 9      -801.059 9        56.883                  
  23474732.958 8 123360549.505 8     -3664.552 8        50.439                  
  21781887.784 8 114464592.358 8      1785.159 8        52.282                  
  23003811.941 8 120885844.546 8     -2822.508 8        50.779                  
  24963433.193 7 131183731.683 7     -1905.884 7        46.246                  
  20444880.991 9 107438603.862 9       864.953 9        57.922                  
 02  5 18 00 00 49.0000000  0  7G01G10G16G21G23G07G08                           
  23759712.085 8 124858132.070 8      3396.604 8        49.106                  
  21314573.522 9 112008845.055 9      -802.219 9        57.280                  
  23475429.671 8 123364214.251 8     -3667.135 8        50.711                  
  21781545.575 8 114462806.662 8      1785.502 8        53.588                  
  23004345.867 8 120888665.780 8     -2821.147 8        49.432                  
  24963795.077 7 131185637.983 7     -1907.314 7        46.816                  
  20444713.254 9 107437738.377 9       865.609 9        57.235                  
 02  5 18 00 00 50.0000000  0  7G01G10G16G21G23G07G08                           
  23759066.317 7 124854735.906 7      3396.991 7        47.096                  
  21314726.105 9 112009647.095 9      -801.909 9        56.271                  
  23476128.386 8 123367879.173 8     -3665.728 8        48.834                  
  21781204.937 8 114461021.265 8      1787.111 8        53.307                  
  23004883.850 8 120891487.407 8     -2822.128 8        49.600                  
  24964157.050 7 131187544.626 7     -1905.316 7        47.781                  
  20444545.267 9 107436873.361 9       864.884 9        58.655                  
 02  5 18 00 00 51.0000000  0  7G01G10G16G21G23G07G08                           
  23758421.549 7 124851339.921 7      3393.908 7        47.530                  
  21314878.993 9 112010449.732 9      -802.743 9        54.762                  
  23476824.849 8 123371544.307 8     -3665.763 8        50.493                  
  21780869.375 8 114459236.167 8      1783.597 8        53.158                  
  23005422.261 8 120894309.419 8     -2821.813 8        49.856                  
  24964522.918 7 131189451.629 7     -1906.598 7        47.331                  
  20444381.391 9 107436008.807 9       863.709 9        54.628                  
 02  5 18 00 00 52.0000000  0  7G01G10G16G21G23G07G08                           
  23757774.333 8 124847944.075 8      3397.191 8        48.306                  
  21315031.952 9 112011252.989 9      -804.183 9        54.026                  
  23477522.152 8 123375209.640 8     -3666.343 8        49.676                  
  21780530.221 8 114457451.364 8      1784.977 8        51.519                  
  23005957.206 8 120897131.815 8     -2822.246 8        51.387                  
  24964882.460 7 131191358.992 7     -1911.302 7        46.039                  
  20444219.229 9 107435144.730 9       864.520 9        56.362                  
 02  5 18 00 00 53.0000000  0  7G01G10G16G21G23G07G08                           
  23757127.188 7 124844548.402 7      3393.063 7        47.985                  
  21315184.857 9 112012056.876 9      -805.068 9        55.024                  
  23478220.813 8 123378875.143 8     -3662.367 8        49.495                  
  21780186.135 8 114455666.858 8      1784.930 8        51.848                  
  23006496.976 8 120899954.603 8     -2823.620 8        49.660                  
  24965249.383 7 131193266.699 7     -1908.636 7        46.797                  
  20444056.979 9 107434281.131 9       863.371 9        57.120                  
 02  5 18 00 00 54.0000000  0  7G01G10G16G21G23G07G08                           
  23756482.528 7 124841152.887 7      3394.707 7        46.978                  
  21315338.173 9 112012861.360 9      -805.104 9        54.013                  
  23478916.865 8 123382540.856 8     -3666.087 8        50.115                  
  21779846.981 8 114453882.667 8      1783.999 8        53.865                  
  23007032.225 8 120902777.776 8     -2824.017 8        50.439                  
  24965609.086 7 131195174.759 7     -1906.379 7        46.831                  
  20443895.210 9 107433418.008 9       863.128 9        54.943                  
 02  5 18 00 00 55.0000000  0  7G01G10G16G21G23G07G08                           
  23755836.723 8 124837757.521 8      3394.965 8        48.815                  
  21315491.221 9 112013666.441 9      -805.396 9        54.168                  
  23479614.704 8 123386206.755 8     -3667.159 8        49.606                  
  21779511.615 8 114452098.796 8      1782.432 8        53.357                  
  23007570.725 8 120905601.340 8     -2822.360 8        49.873                  
  24965973.597 7 131197083.174 7     -1908.904 7        47.055                  
  20443734.175 9 107432555.338 9       862.160 9        56.863                  
 02  5 18 00 00 56.0000000  0  7G01G10G16G21G23G07G08                           
  23755189.275 7 124834362.326 7      3392.404 7        46.775                  
  21315644.805 9 112014472.138 9      -806.163 9        54.590                  
  23480314.079 7 123389872.845 7     -3668.050 7        47.429                  
  21779171.568 9 114450315.209 9      1782.481 9        54.232                  
  23008107.940 8 120908425.322 8     -2824.764 8        51.900                  
  24966337.589 7 131198991.942 7     -1904.841 7        46.366                  
  20443571.674 9 107431693.145 9       861.569 9        56.021                  
 02  5 18 00 00 57.0000000  0  7G01G10G16G21G23G07G08                           
  23754544.650 8 124830967.292 8      3395.849 8        48.709                  
  21315798.336 9 112015278.470 9      -806.510 9        55.377                  
  23481009.506 7 123393539.124 7     -3663.731 7        47.422                  
  21778828.107 8 114448531.933 8      1784.773 8        51.743                  
  23008644.386 8 120911249.685 8     -2824.402 8        50.929                  
  24966698.346 7 131200901.067 7     -1912.639 7        45.963                  
  20443405.277 9 107430831.429 9       861.552 9        58.266                  
 02  5 18 00 00 58.0000000  0  7G01G10G16G21G23G07G08                           
  23753898.202 8 124827572.410 8      3397.145 8        48.503                  
  21315952.081 9 112016085.397 9      -806.607 9        55.502                  
  23481707.827 7 123397205.601 7     -3665.604 7        47.740                  
  21778490.329 8 114446748.946 8      1783.061 8        51.993                  
  23009182.940 8 120914074.446 8     -2825.136 8        50.078                  
  24967065.037 7 131202810.535 7     -1911.458 7        45.918                  
  20443239.113 9 107429970.189 9       861.866 9        56.998                  
 02  5 18 00 00 59.0000000  0  7G01G10G16G21G23G07G08                           
  23753251.076 8 124824177.700 8      3395.360 8        49.096                  
  21316105.969 9 112016892.921 9      -807.637 9        56.593                  
  23482406.274 8 123400872.275 8     -3666.559 8        48.523                  
  21778154.999 8 114444966.266 8      1782.947 8        50.761                  
  23009718.796 8 120916899.586 8     -2824.324 8        49.960                  
  24967425.347 7 131204720.368 7     -1910.910 7        44.695                  
  20443072.681 9 107429109.403 9       860.777 9        55.321                  
 02  5 18 00 01  0.0000000  0  7G01G10G16G21G23G07G08                           
  23752605.843 8 124820783.142 8      3397.671 8        49.841                  
  21316259.643 9 112017701.078 9      -807.976 9        57.439                  
  23483102.773 8 123404539.131 8     -3670.427 8        48.697                  
  21777813.522 8 114443183.873 8      1780.440 8        52.409                  
  23010258.709 8 120919725.103 8     -2826.592 8        51.589                  
  24967791.162 7 131206630.536 7     -1908.936 7        46.981                  
  20442905.695 9 107428249.093 9       859.875 9        57.005                  
 02  5 18 00 01  1.0000000  0  7G01G10G16G21G23G07G08                           
  23751959.914 8 124817388.741 8      3396.174 8        50.105                  
  21316414.138 9 112018509.852 9      -808.687 9        55.335                  
  23483801.166 8 123408206.187 8     -3665.098 8        49.378                  
  21777470.294 8 114441401.790 8      1782.212 8        53.969                  
  23010795.155 8 120922551.020 8     -2823.883 8        49.271                  
  24968153.278 7 131208541.075 7     -1912.296 7        47.399                  
  20442740.425 9 107427389.259 9       859.802 9        56.641                  
 02  5 18 00 01  2.0000000  0  7G01G10G16G21G23G07G08                           
  23751313.180 8 124813994.510 8      3395.811 8        49.066                  
  21316567.401 9 112019319.225 9      -810.838 9        54.345                  
  23484499.755 8 123411873.434 8     -3666.529 8        49.124                  
  21777134.696 8 114439619.991 8      1782.070 8        50.745                  
  23011333.263 8 120925377.329 8     -2824.887 8        50.199                  
  24968517.806 7 131210451.945 7     -1912.130 7        45.638                  
  20442578.621 9 107426529.904 9       858.932 9        57.193                  
 02  5 18 00 01  3.0000000  0  7G01G10G16G21G23G07G08                           
  23750667.930 8 124810600.432 8      3396.393 8        48.961                  
  21316721.039 9 112020129.192 9      -810.330 9        55.032                  
  23485196.004 8 123415540.857 8     -3666.905 8        51.016                  
  21776798.651 8 114437838.515 8      1781.650 8        51.973                  
  23011872.067 8 120928204.043 8     -2826.685 8        50.886                  
  24968882.030 7 131212363.184 7     -1910.558 7        44.744                  
  20442416.924 9 107425671.000 9       858.103 9        55.570                  
 02  5 18 00 01  4.0000000  0  7G01G10G16G21G23G07G08                           
  23750023.180 8 124807206.508 8      3390.088 8        49.267                  
  21316875.088 9 112020939.780 9      -810.881 9        54.673                  
  23485895.344 8 123419208.501 8     -3668.043 8        52.162                  
  21776456.387 9 114436057.350 9      1780.676 9        54.058                  
  23012407.602 8 120931031.149 8     -2826.596 8        53.064                  
  24969242.842 7 131214274.774 7     -1910.283 7        45.142                  
  20442255.888 9 107424812.575 9       858.148 9        56.759                  
 02  5 18 00 01  5.0000000  0  7G01G10G16G21G23G07G08                           
  23749375.803 8 124803812.766 8      3389.048 8        48.141                  
  21317028.833 9 112021750.999 9      -812.003 9        56.107                  
  23486593.469 8 123422876.316 8     -3666.010 8        49.209                  
  21776115.411 8 114434276.482 8      1779.852 8        53.746                  
  23012947.782 8 120933858.640 8     -2827.707 8        51.190                  
  24969609.996 7 131216186.713 7     -1912.791 7        45.786                  
  20442094.638 9 107423954.625 9       858.151 9        56.298                  
 02  5 18 00 01  6.0000000  0  7G01G10G16G21G23G07G08                           
  23748729.552 8 124800419.169 8      3392.093 8        48.422                  
  21317182.703 9 112022562.814 9      -812.130 9        56.325                  
  23487290.468 8 123426544.329 8     -3664.423 8        48.789                  
  21775779.938 8 114432495.913 8      1779.895 8        52.030                  
  23013485.032 8 120936686.498 8     -2827.004 8        48.882                  
  24969970.879 7 131218098.992 7     -1910.494 7        46.431                  
  20441934.710 9 107423097.154 9       857.032 9        57.027                  
 02  5 18 00 01  7.0000000  0  7G01G10G16G21G23G07G08                           
  23748085.463 8 124797025.723 8      3392.591 8        49.177                  
  21317336.662 9 112023375.226 9      -813.274 9        54.949                  
  23487989.665 8 123430212.541 8     -3668.269 8        50.152                  
  21775443.053 8 114430715.640 8      1779.831 8        52.922                  
  23014023.247 8 120939514.762 8     -2827.343 8        48.924                  
  24970337.480 7 131220011.640 7     -1914.430 7        46.144                  
  20441772.817 9 107422240.146 9       856.574 9        57.068                  
 02  5 18 00 01  8.0000000  0  7G01G10G16G21G23G07G08                           
  23747438.568 8 124793632.467 8      3393.927 8        48.889                  
  21317491.426 9 112024188.271 9      -813.296 9        57.848                  
  23488687.432 8 123433880.933 8     -3666.720 8        50.798                  
  21775100.897 8 114428935.669 8      1778.967 8        52.584                  
  23014562.427 8 120942343.417 8     -2828.543 8        49.932                  
  24970700.042 8 131221924.639 8     -1914.162 8        48.191                  
  20441607.314 9 107421383.601 9       857.240 9        58.692                  
 02  5 18 00 01  9.0000000  0  7G01G10G16G21G23G07G08                           
  23746792.514 8 124790239.353 8      3391.217 8        48.029                  
  21317645.475 9 112025001.930 9      -813.810 9        55.602                  
  23489384.413 8 123437549.528 8     -3667.219 8        48.441                  
  21774760.474 8 114427155.990 8      1780.312 8        53.915                  
  23015099.338 8 120945172.476 8     -2829.959 8        50.452                  
  24971064.481 8 131223837.982 8     -1912.737 8        48.041                  
  20441442.580 9 107420527.537 9       855.923 9        57.489                  
 02  5 18 00 01 10.0000000  0  7G01G10G16G21G23G07G08                           
  23746148.782 8 124786846.394 8      3397.266 8        49.663                  
  21317800.560 9 112025816.190 9      -814.380 9        54.984                  
  23490083.825 8 123441218.312 8     -3669.609 8        49.564                  
  21774425.144 8 114425376.613 8      1779.870 8        53.374                  
  23015639.447 8 120948001.930 8     -2828.590 8        50.122                  
  24971429.760 8 131225751.682 8     -1914.153 8        48.425                  
  20441277.524 9 107419671.949 9       855.830 9        56.887                  
 02  5 18 00 01 11.0000000  0  7G01G10G16G21G23G07G08                           
  23745502.299 7 124783453.614 7      3393.348 7        47.540                  
  21317955.342 9 112026631.045 9      -815.053 9        56.144                  
  23490781.896 8 123444887.279 8     -3669.683 8        50.922                  
  21774088.474 8 114423597.533 8      1779.056 8        51.792                  
  23016176.500 8 120950831.753 8     -2827.749 8        50.591                  
  24971791.840 8 131227665.729 8     -1913.669 8        48.147                  
  20441111.842 9 107418816.837 9       854.973 9        57.310                  
 02  5 18 00 01 12.0000000  0  7G01G10G16G21G23G07G08                           
  23744855.905 8 124780060.977 8      3389.546 8        50.000                  
  21318109.748 9 112027446.519 9      -816.639 9        57.107                  
  23491479.467 8 123448556.446 8     -3669.312 8        51.403                  
  21773745.228 8 114421818.764 8      1779.355 8        53.132                  
  23016715.734 8 120953661.963 8     -2829.950 8        50.663                  
  24972158.762 7 131229580.130 7     -1918.453 7        47.877                  
  20440946.553 9 107417962.178 9       854.478 9        57.352                  
 02  5 18 00 01 13.0000000  0  7G01G10G16G21G23G07G08                           
  23744211.298 8 124776668.505 8      3391.713 8        48.967                  
  21318266.030 9 112028262.629 9      -816.410 9        56.970                  
  23492178.503 8 123452225.792 8     -3669.395 8        50.376                  
  21773406.377 8 114420040.306 8      1778.243 8        52.767                  
  23017255.253 8 120956492.562 8     -2828.607 8        50.185                  
  24972519.055 7 131231494.871 7     -1913.301 7        46.492                  
  20440784.410 9 107417107.995 9       854.123 9        56.040                  
 02  5 18 00 01 14.0000000  0  7G01G10G16G21G23G07G08                           
  23743565.815 8 124773276.202 8      3392.187 8        48.569                  
  21318421.151 9 112029079.330 9      -816.833 9        54.918                  
  23492876.288 8 123455895.338 8     -3670.832 8        49.975                  
  21773072.709 8 114418262.155 8      1778.606 8        51.987                  
  23017792.396 8 120959323.566 8     -2830.583 8        50.850                  
  24972887.372 7 131233409.973 7     -1915.977 7        46.572                  
  20440624.053 9 107416254.288 9       854.177 9        54.649                  
 02  5 18 00 01 15.0000000  0  7G01G10G16G21G23G07G08                           
  23742918.849 8 124769884.055 8      3390.615 8        48.705                  
  21318576.290 9 112029896.630 9      -817.226 9        55.309                  
  23493573.984 8 123459565.080 8     -3669.918 8        49.046                  
  21772733.484 8 114416484.292 8      1778.187 8        52.843                  
  23018333.863 8 120962154.968 8     -2830.898 8        50.294                  
  24973249.648 7 131235325.428 7     -1916.106 7        46.908                  
  20440463.822 9 107415401.060 9       853.195 9        55.707                  
 02  5 18 00 01 16.0000000  0  7G01G10G16G21G23G07G08                           
  23742273.795 8 124766492.061 8      3395.032 8        48.235                  
  21318731.358 9 112030714.537 9      -818.504 9        55.979                  
  23494273.932 8 123463234.996 8     -3672.089 8        49.590                  
  21772392.310 8 114414706.739 8      1778.254 8        52.833                  
  23018869.988 8 120964986.752 8     -2831.743 8        50.732                  
  24973615.838 7 131237241.229 7     -1915.939 7        46.185                  
  20440303.823 9 107414548.308 9       853.041 9        56.602                  
 02  5 18 00 01 17.0000000  0  7G01G10G16G21G23G07G08                           
  23741629.724 7 124763100.249 7      3388.895 7        46.924                  
  21318887.997 9 112031533.086 9      -819.215 9        56.122                  
  23494971.199 8 123466905.115 8     -3670.897 8        50.235                  
  21772053.782 9 114412929.472 9      1777.477 9        54.415                  
  23019409.275 8 120967818.905 8     -2834.099 8        50.224                  
  24973980.724 8 131239157.390 8     -1916.865 8        48.114                  
  20440143.252 9 107413696.011 9       852.010 9        57.659                  
 02  5 18 00 01 18.0000000  0  7G01G10G16G21G23G07G08                           
  23740983.956 7 124759708.579 7      3392.968 7        47.715                  
  21319043.762 9 112032352.234 9      -820.193 9        55.370                  
  23495669.431 8 123470575.416 8     -3672.517 8        49.397                  
  21771719.292 8 114411152.520 8      1775.583 8        53.196                  
  23019949.169 8 120970651.452 8     -2830.601 8        49.601                  
  24974342.553 7 131241073.889 7     -1914.788 7        47.697                  
  20439983.771 9 107412844.189 9       850.983 9        57.425                  
 02  5 18 00 01 19.0000000  0  7G01G10G16G21G23G07G08                           
  23740337.043 7 124756317.076 7      3392.726 7        47.748                  
  21319200.973 9 112033171.975 9      -819.750 9        54.666                  
  23496368.503 8 123474245.912 8     -3669.740 8        50.746                  
  21771381.442 8 114409375.842 8      1774.968 8        52.675                  
  23020485.776 8 120973484.406 8     -2832.119 8        50.263                  
  24974711.120 8 131242990.739 8     -1916.072 8        48.138                  
  20439822.199 9 107411992.844 9       850.792 9        56.584                  
 02  5 18 00 01 20.0000000  0  7G01G10G16G21G23G07G08                           
  23739693.741 7 124752925.999 7      3389.586 7        47.299                  
  21319357.971 8 112033992.153 8      -819.463 8        53.409                  
  23497066.682 8 123477916.470 8     -3671.965 8        50.065                  
  21771039.572 8 114407599.703 8      1774.771 8        50.989                  
  23021027.333 8 120976317.631 8     -2831.805 8        50.788                  
  24975072.396 7 131244908.296 7     -1918.442 7        47.202                  
  20439658.590 9 107411142.080 9       849.412 9        56.528                  
 02  5 18 00 01 21.0000000  0  7G01G10G16G21G23G07G08                           
  23739049.527 7 124749546.234 7      3371.453 7        46.113                  
  21319513.610 9 112034806.292 9      -808.404 9        55.032                  
  23497763.627 8 123481581.735 8     -3662.590 8        51.060                  
  21770703.598 8 114405833.023 8      1759.764 8        51.105                  
  23021565.083 8 120979146.138 8     -2823.966 8        51.712                  
  24975442.428 7 131246840.968 7     -1947.125 7        43.361                  
  20439496.053 9 107410296.179 9       841.559 9        57.225                  
 02  5 18 00 01 22.0000000  0  7G01G10G16G21G23G07G08                           
  23738411.906 6 124746185.760 6      3349.681 6        38.511                  
  21319666.443 8 112035609.848 8      -796.511 8        51.536                  
  23498461.663 8 123485238.009 8     -3651.702 8        50.824                  
  21770374.540 7 114404082.345 7      1747.023 7        44.742                  
  23022102.226 8 120981966.508 8     -2816.160 8        53.533                  
  24975813.299 7 131248799.034 7     -1970.384 7        44.420                  
  20439334.392 9 107409458.072 9       834.182 9        59.233                  
 02  5 18 00 01 23.0000000  0  7G01G10G16G21G23G07G08                           
  23737774.232 8 124742843.756 8      3334.404 8        49.910                  
  21319817.919 7 112036402.469 7      -787.367 7        45.918                  
  23499155.302 7 123488885.130 7     -3645.089 7        42.589                  
  21770044.446 8 114402347.033 8      1728.476 8        51.606                  
  23022637.189 7 120984778.714 7     -2812.024 7        46.009                  
  24976193.230 8 131250781.723 8     -1995.418 8        50.258                  
  20439175.126 9 107408627.782 9       827.586 9        56.876                  
 02  5 18 00 01 24.0000000  0  7G01G10G16G21G23G07G08                           
  23737141.312 8 124739515.647 8      3328.774 8        53.049                  
  21319966.947 8 112037187.865 8      -785.876 8        53.341                  
  23499849.139 6 123492525.874 6     -3642.323 6        39.282                  
  21769713.780 9 114400623.236 9      1723.156 9        58.779                  
  23023169.828 6 120987584.737 6     -2807.013 6        38.496                  
  24976571.750 7 131252782.938 7     -2007.632 7        45.564                  
  20439019.236 8 107407803.366 8       826.075 8        48.244                  
 02  5 18 00 01 25.0000000  0  7G01G10G16G21G23G07G08                           
  23736507.890 8 124736188.717 8      3326.215 8        49.829                  
  21320116.528 9 112037973.289 9      -786.542 9        57.210                  
  23500542.135 8 123496166.375 8     -3639.941 8        48.300                  
  21769383.167 9 114398900.537 9      1722.613 9        59.480                  
  23023704.613 7 120990390.945 7     -2805.583 7        47.515                  
  24976981.058 6 131254786.067 6     -2003.123 6        37.040                  
  20438859.720 7 107406979.766 7       820.805 7        45.619                  
 02  5 18 00 01 26.0000000  0  7G01G10G16G21G23G07G08                           
  23735874.684 7 124732862.687 7      3328.553 7        46.398                  
  21320266.199 9 112038758.973 9      -786.873 9        54.700                  
  23501230.986 7 123499808.097 7     -3642.000 7        47.363                  
  21769056.128 8 114397178.435 8      1723.462 8        52.618                  
  23024236.502 8 120993196.686 8     -2806.751 8        48.106                  
  24977333.542 7 131256789.108 7     -2001.770 7        45.684                  
  20438699.667 7 107406156.490 7       824.837 7        47.055                  
 02  5 18 00 01 27.0000000  0  7G01G10G16G21G23G07G08                           
  23735241.316 7 124729527.624 7      3345.756 7        43.481                  
  21320416.353 8 112039550.680 8      -798.321 8        50.576                  
  23501925.751 7 123503457.193 7     -3651.760 7        43.514                  
  21768731.466 7 114395449.349 7      1738.621 7        47.680                  
  23024778.577 7 120996007.274 7     -2828.149 7        42.860                  
  24977714.724 7 131258779.644 7     -1976.104 7        46.922                  
  20438543.277 6 107405329.665 6       824.162 6        41.942                  
 02  5 18 00 01 28.0000000  0  7G01G10G16G21G23G07G08                           
  23734599.425 6 124726170.544 6      3365.104 6        38.547                  
  21320569.419 7 112040352.203 7      -810.149 7        44.222                  
  23502623.715 6 123507113.077 6     -3659.970 6        37.981                  
  21768400.585 7 114393706.637 7      1748.200 7        43.501                  
  23025305.516 6 120998828.759 6     -2824.516 6        37.812                  
  24978087.454 7 131260744.717 7     -1950.963 7        43.829                  
  20438386.441 7 107404495.261 7       837.479 7        42.748                  
 02  5 18 00 01 29.0000000  0  7G01G10G16G21G23G07G08                           
  23733960.608 5 124722797.557 5      3372.348 5        35.966                  
  21320723.700 6 112041165.069 6      -804.050 6        40.634                  
  23503319.928 5 123510777.322 5     -3665.101 5        35.527                  
  21768062.736 6 114391947.597 6      1761.611 6        39.745                  
  23025843.016 5 121001654.883 5     -2829.296 5        35.462                  
  24978459.809 6 131262688.259 6     -1940.716 6        40.651                  
  20438227.228 7 107403655.517 7       841.118 7        44.005                  
 02  5 18 00 01 30.0000000  0  7G01G10G16G21G23G07G08                           
  23733326.561 5 124719426.404 5      3369.756 5        34.197                  
  21320875.194 5 112041967.429 5      -790.619 5        35.714                  
  23504021.788 5 123514441.194 5     -3670.728 5        34.143                  
  21767728.978 5 114390189.403 5      1755.557 5        35.284                  
  23026378.998 5 121004483.446 5     -2827.132 5        34.359                  
  24978828.804 5 131264633.216 5     -1952.305 5        35.745                  
  20438068.211 9 107402816.507 9       838.039 9        57.039                  
 02  5 18 00 01 31.0000000  0  7G01G10G16G21G23G07G08                           
  23732686.207 5 124716061.375 5      3362.809 5        34.052                  
  21321027.509 5 112042772.949 5      -807.718 5        34.336                  
  23504729.401 5 123518103.967 5     -3662.847 5        34.243                  
  21767401.171 5 114388436.227 5      1753.320 5        34.140                  
  23026909.315 5 121007308.921 5     -2821.626 5        34.092                  
  24979199.729 5 131266585.573 5     -1954.904 5        33.890                  
  20437910.714 8 107401980.392 8       834.989 8        53.602                  
 02  5 18 00 01 32.0000000  0  7G01G10G16G21G23G07G08                           
  23732056.020 5 124712704.519 5      3354.372 5        33.954                  
  21321177.180 5 112043581.293 5      -811.790 5        34.283                  
  23505428.544 5 123521767.133 5     -3661.552 5        34.225                  
  21767080.636 5 114386689.390 5      1743.809 5        34.248                  
  23027447.101 5 121010129.140 5     -2820.327 5        34.369                  
  24979578.302 5 131268546.802 5     -1968.312 5        33.704                  
  20437754.199 8 107401147.904 8       833.166 8        49.274                  
 02  5 18 00 01 33.0000000  0  7G01G10G16G21G23G07G08                           
  23731414.808 5 124709344.479 5      3365.384 5        34.292                  
  21321326.905 5 112044392.160 5      -819.322 5        34.687                  
  23506124.454 5 123525426.155 5     -3658.992 5        34.310                  
  21766744.430 5 114384940.849 5      1747.144 5        34.554                  
  23027978.454 5 121012954.155 5     -2831.889 5        34.284                  
  24979955.428 5 131270506.903 5     -1955.291 5        34.529                  
  20437596.040 8 107400314.902 8       832.921 8        53.140                  
 02  5 18 00 01 34.0000000  0  7G01G10G16G21G23G07G08                           
  23730775.687 5 124705980.844 5      3363.088 5        34.398                  
  21321485.135 6 112045201.288 6      -804.311 6        36.372                  
  23506822.989 5 123529081.349 5     -3648.388 5        34.243                  
  21766412.138 6 114383194.771 6      1733.018 6        36.090                  
  23028517.670 5 121015784.049 5     -2827.360 5        34.642                  
  24980325.906 6 131272466.801 6     -1962.218 6        37.780                  
  20437439.686 8 107399480.786 8       831.701 8        53.910                  
 02  5 18 00 01 35.0000000  0  7G01G10G16G21G23G07G08                           
  23730143.445 5 124702623.026 5      3359.408 5        34.633                  
  21321633.734 6 112046004.810 6      -803.204 6        37.080                  
  23507521.168 5 123532738.627 5     -3672.329 5        34.670                  
  21766075.664 6 114381460.111 6      1740.627 6        36.520                  
  23029052.400 5 121018609.901 5     -2801.242 5        34.691                  
  24980705.176 6 131274432.787 6     -1970.741 6        36.622                  
  20437283.529 8 107398650.481 8       831.154 8        51.233                  
 02  5 18 00 01 36.0000000  0  7G01G10G16G21G23G07G08                           
  23729502.733 6 124699274.552 6      3350.645 6        36.034                  
  21321788.694 6 112046807.870 6      -800.920 6        40.874                  
  23508215.505 6 123536404.802 6     -3653.244 6        36.397                  
  21765748.447 6 114379724.396 6      1741.074 6        39.051                  
  23029577.428 6 121021430.679 6     -2818.619 6        36.697                  
  24981076.298 6 131276407.051 6     -1971.009 6        39.318                  
  20437128.980 8 107397821.241 8       831.156 8        50.250                  
 02  5 18 00 01 37.0000000  0  7G01G10G16G21G23G07G08                           
  23728863.254 6 124695926.132 6      3351.979 6        41.000                  
  21321954.786 7 112047614.738 7      -807.017 7        47.360                  
  23508899.888 7 123540063.241 7     -3654.304 7        42.801                  
  21765410.973 7 114377985.393 7      1739.326 7        45.563                  
  23030120.003 6 121024250.185 6     -2813.705 6        41.983                  
  24981451.369 6 131278381.251 6     -1976.285 6        41.545                  
  20436965.710 7 107396993.127 7       828.160 7        45.810                  
 02  5 18 00 01 38.0000000  0  7G01G10G16G21G23G07G08                           
  23728237.696 7 124692575.083 7      3351.119 7        45.684                  
  21322098.864 7 112048423.566 7      -810.120 7        47.734                  
  23509595.011 7 123543713.708 7     -3652.174 7        43.928                  
  21765088.026 8 114376245.990 8      1746.099 8        51.956                  
  23030668.457 7 121027075.916 7     -2828.487 7        45.875                  
  24981826.547 7 131280356.769 7     -1972.288 7        43.317                  
  20436807.230 8 107396166.429 8       827.037 8        51.981                  
 02  5 18 00 01 39.0000000  0  7G01G10G16G21G23G07G08                           
  23727586.120 6 124689215.059 6      3359.091 6        39.807                  
  21322251.805 7 112049238.497 7      -822.588 7        44.719                  
  23510297.943 6 123547358.823 6     -3651.609 6        39.393                  
  21764754.947 7 114374500.020 7      1757.916 7        43.827                  
  23031195.772 6 121029911.170 6     -2835.930 6        39.231                  
  24982207.997 6 131282325.127 6     -1952.007 6        41.295                  
  20436648.875 8 107395338.891 8       828.470 8        51.802                  
 02  5 18 00 01 40.0000000  0  7G01G10G16G21G23G07G08                           
  23726947.373 5 124685845.978 5      3378.212 5        35.370                  
  21322408.785 6 112050062.396 6      -819.934 6        38.803                  
  23510995.460 6 123551004.346 6     -3642.350 6        37.164                  
  21764419.492 6 114372743.848 6      1753.335 6        38.038                  
  23031744.744 5 121032756.210 5     -2840.380 5        35.647                  
  24982578.654 6 131284278.772 6     -1946.008 6        36.804                  
  20436491.056 8 107394507.660 8       833.839 8        48.853                  
 02  5 18 00 01 41.0000000  0  7G01G10G16G21G23G07G08                           
  23726305.876 5 124682474.128 5      3347.684 5        34.574                  
  21322565.353 6 112050889.843 6      -824.771 6        37.260                  
  23511689.850 5 123554632.604 5     -3632.258 5        34.888                  
  21764090.863 6 114370985.918 6      1757.280 6        36.489                  
  23032284.013 5 121035613.762 5     -2860.574 5        34.641                  
  24982954.904 6 131286240.278 6     -1941.218 6        37.940                  
  20436330.520 8 107393679.600 8       826.943 8        51.035                  
 02  5 18 00 01 42.0000000  0  7G01G10G16G21G23G07G08                           
  23725667.880 5 124679112.487 5      3362.771 5        34.298                  
  21322720.367 5 112051722.780 5      -842.379 5        35.395                  
  23512387.671 5 123558254.070 5     -3610.912 5        34.482                  
  21763757.212 5 114369222.883 5      1757.727 5        35.053                  
  23032821.209 5 121038480.697 5     -2861.018 5        34.727                  
  24983323.846 5 131288201.790 5     -1963.794 5        35.560                  
  20436174.827 7 107392851.567 7       828.470 7        43.907                  
 02  5 18 00 01 43.0000000  0  5G10G16G21G23G08                                 
  21322877.328 5 112052560.224 5      -833.212 5        34.531                  
  23513076.397 5 123561874.190 5     -3633.603 5        34.452                  
  21763420.095 5 114367455.220 5      1758.779 5        34.481                  
  23033365.285 5 121041324.995 5     -2836.682 5        34.495                  
  20436015.078 6 107392021.992 6       827.379 6        40.952                  
 02  5 18 00 01 44.0000000  0  5G10G16G21G23G08                                 
  21323035.558 5 112053397.875 5      -840.432 5        34.323                  
  23513768.536 5 123565500.619 5     -3620.629 5        34.253                  
  21763079.923 5 114365697.378 5      1745.271 5        34.238                  
  23033908.414 5 121044154.921 5     -2816.714 5        34.117                  
  20435851.881 9 107391192.216 9       830.781 9        56.343                  
 02  5 18 00 01 45.0000000  0  4G10G21G23G08                                    
  21323193.395 5 112054222.827 5      -816.813 5        34.621                  
  21762747.041 5 114363951.552 5      1743.564 5        34.456                  
  23034444.092 5 121046976.117 5     -2839.536 5        34.183                  
  20435693.775 8 107390360.066 8       831.958 8        51.712                  
 02  5 18 00 01 46.0000000  0  4G10G21G23G08                                    
  21323348.624 6 112055039.564 6      -829.685 6        38.130                  
  21762420.842 6 114362206.505 6      1751.694 6        38.223                  
  23034992.046 5 121049795.022 5     -2821.944 5        34.130                  
  20435538.994 8 107389531.412 8       815.464 8        48.826                  
 02  5 18 00 01 47.0000000  0  4G10G21G23G08                                    
  21323507.426 7 112055853.051 7      -805.867 7        42.184                  
  21762087.191 6 114360469.330 6      1739.554 6        39.506                  
  23035508.103 6 121052620.123 6     -2825.875 6        40.695                  
  20435381.907 6 107388709.038 6       822.917 6        41.456                  
 02  5 18 00 01 48.0000000  0  4G10G21G23G08                                    
  21323660.420 6 112056660.156 6      -798.458 6        39.375                  
  21761757.186 6 114358737.384 6      1705.539 6        36.345                  
  23036061.614 7 121055441.119 7     -2818.457 7        43.650                  
  20435229.252 6 107387887.426 6       808.703 6        38.903                  
 02  5 18 00 01 49.0000000  0  4G10G21G23G08                                    
  21323814.844 7 112057462.012 7      -803.812 7        45.229                  
  21761429.057 6 114357020.237 6      1715.547 6        40.776                  
  23036598.167 7 121058260.836 7     -2819.758 7        45.280                  
  20435072.452 7 107387074.486 7       814.401 7        44.480                  
 02  5 18 00 01 50.0000000  0  4G10G21G23G08                                    
  21323958.940 8 112058264.507 8      -808.740 8        50.495                  
  21761099.713 7 114355303.109 7      1714.805 7        47.052                  
  23037135.310 7 121061080.122 7     -2817.169 7        43.233                  
  20434916.366 9 107386262.422 9       812.043 9        54.114                  
 02  5 18 00 01 51.0000000  0  4G10G21G23G08                                    
  21324117.010 7 112059070.531 7      -819.999 7        45.077                  
  21760775.927 7 114353584.125 7      1723.141 7        43.066                  
  23037673.382 6 121063901.313 6     -2823.356 6        40.427                  
  20434766.516 8 107385449.449 8       812.870 8        50.093                  
 02  5 18 00 01 52.0000000  0  4G10G21G23G08                                    
  21324272.166 6 112059881.395 6      -816.725 6        37.799                  
  21760447.065 6 114351856.325 6      1724.816 6        36.630                  
  23038213.259 6 121066725.712 6     -2831.127 6        36.665                  
  20434611.663 7 107384629.870 7       820.365 7        42.993                  
 02  5 18 00 01 53.0000000  0  4G10G21G23G08                                    
  21324431.075 5 112060701.403 5      -826.119 5        35.396                  
  21760112.521 5 114350118.876 5      1747.483 5        34.641                  
  23038756.012 5 121069559.963 5     -2837.903 5        35.040                  
  20434454.326 6 107383802.893 6       825.060 6        40.105                  
 02  5 18 00 01 54.0000000  0  4G10G21G23G08                                    
  21324591.772 6 112061533.387 6      -840.374 6        36.213                  
  21759774.636 5 114348366.759 5      1750.611 5        34.975                  
  23039298.123 5 121072406.162 5     -2857.803 5        35.605                  
  20434299.009 6 107382971.382 6       829.388 6        41.358                  
 02  5 18 00 01 55.0000000  0  4G10G21G23G08                                    
  21324758.686 6 112062378.732 6      -844.774 6        36.979                  
  21759439.109 5 114346599.270 5      1773.887 5        35.860                  
  23039840.305 5 121075270.755 5     -2878.722 5        34.408                  
  20434141.047 8 107382139.340 8       831.802 8        49.598                  
 02  5 18 00 01 56.0000000  0  4G10G21G23G08                                    
  21324922.688 5 112063235.964 5      -866.660 5        35.519                  
  21759101.778 5 114344818.737 5      1790.077 5        35.208                  
  23040395.424 5 121078153.991 5     -2894.124 5        34.092                  
  20433985.175 7 107381304.817 7       835.239 7        47.884                  
 02  5 18 00 01 57.0000000  0  4G10G21G23G08                                    
  21325092.176 6 112064106.452 6      -892.213 6        36.311                  
  21758748.954 5 114343024.560 5      1817.081 5        35.354                  
  23040954.081 5 121081058.469 5     -2905.899 5        34.393                  
  20433825.140 7 107380468.191 7       844.590 7        46.702                  
 02  5 18 00 01 58.0000000  0  4G10G21G23G08                                    
  21325253.694 7 112064988.833 7      -880.979 7        43.629                  
  21758412.141 6 114341216.819 6      1804.858 6        41.174                  
  23041497.174 7 121083976.119 7     -2918.102 7        43.037                  
  20433664.426 8 107379629.856 8       836.502 8        48.814                  
 02  5 18 00 01 59.0000000  0  4G10G21G23G08                                    
  21325424.111 7 112065866.587 7      -880.609 7        45.179                  
  21758070.557 7 114339413.269 7      1801.335 7        44.132                  
  23042057.618 6 121086888.882 6     -2916.712 6        38.030                  
  20433503.998 8 107378791.380 8       837.163 8        53.805                  
 02  5 18 00 02  0.0000000  0  4G10G21G23G08                                    
  21325585.772 7 112066750.631 7      -885.832 7        44.372                  
  21757725.541 7 114337603.366 7      1812.037 7        43.712                  
  23042616.257 7 121089806.698 7     -2919.970 7        43.324                  
  20433338.960 8 107377950.142 8       851.911 8        48.915                  
